SALE TYPE,SOLD DATE,PROPERTY TYPE,ADDRESS,CITY,STATE OR PROVINCE,ZIP OR POSTAL CODE,PRICE,BEDS,BATHS,LOCATION,SQUARE FEET,LOT SIZE,YEAR BUILT,DAYS ON MARKET,$/SQUARE FEET,HOA/MONTH,STATUS,NEXT OPEN HOUSE START TIME,NEXT OPEN HOUSE END TIME,URL (SEE http://www.redfin.com/buy-a-home/comparative-market-analysis FOR INFO ON PRICING),SOURCE,MLS#,FAVORITE,INTERESTED,LATITUDE,LONGITUDE
PAST SALE,March-12-2021,Single Family Residential,410 Hopedale Ave,North Las Vegas,NV,89032,307800,3,2.0,Brentwood,1719,6098,2001,42,179,13,Sold,,,http://www.redfin.com/NV/North-Las-Vegas/410-Hopedale-Ave-89032/home/29237056,GLVAR,2265389,N,Y,36.2355996,-115.1465564
PAST SALE,April-12-2021,Single Family Residential,3714 Asia Rd,North Las Vegas,NV,89032,355000,3,2.5,Laredo At Davyn Ridge,2461,4356,2018,11,144,42,Sold,,,http://www.redfin.com/NV/North-Las-Vegas/3714-Asia-Rd-89032/home/145869732,GLVAR,2279666,N,Y,36.2268533,-115.1966682
PAST SALE,February-19-2021,Townhouse,3942 Jamison Park Ln,North Las Vegas,NV,89032,285000,4,3.0,Pt Of Allora At Davyn Ridge Amd,1944,4356,2010,63,147,67,Sold,,,http://www.redfin.com/NV/North-Las-Vegas/3942-Jamison-Park-Ln-89032/home/30520210,GLVAR,2257557,N,Y,36.2268162,-115.1931125
PAST SALE,February-3-2021,Single Family Residential,3905 Blairmoor St,North Las Vegas,NV,89032,249000,3,2.0,Desert Horizons #2,1244,5663,1992,79,200,,Sold,,,http://www.redfin.com/NV/North-Las-Vegas/3905-Blairmoor-St-89032/home/29249312,GLVAR,2249797,N,Y,36.230244,-115.1749048
PAST SALE,February-12-2021,Townhouse,3893 Jamison Park Ln,North Las Vegas,NV,89032,286000,4,3.0,Pt Of Allora At Davyn Ridge Amd,1937,4792,2009,70,148,67,Sold,,,http://www.redfin.com/NV/North-Las-Vegas/3893-Jamison-Park-Ln-89032/home/29819623,GLVAR,2259070,N,Y,36.22763,-115.191599
PAST SALE,February-5-2021,Single Family Residential,3829 Alpine Track Ave,North Las Vegas,NV,89032,315000,3,2.5,Kardelo At Davyn Ridge,2251,6098,2008,77,140,51,Sold,,,http://www.redfin.com/NV/North-Las-Vegas/3829-Alpine-Track-Ave-89032/home/29781515,GLVAR,2229994,N,Y,36.225729,-115.191497
PAST SALE,February-11-2021,Single Family Residential,4521 Denali Ave,North Las Vegas,NV,89032,270000,3,2.0,Vista Del Sol-Phase 4,1247,6098,1992,71,217,,Sold,,,http://www.redfin.com/NV/North-Las-Vegas/4521-Denali-Ave-89032/home/29245060,GLVAR,2261470,N,Y,36.227804,-115.2038062
PAST SALE,February-2-2021,Single Family Residential,4315 Bitterroot Dr,North Las Vegas,NV,89032,290400,3,2.0,Silver Mesa,1511,6098,1990,80,192,,Sold,,,http://www.redfin.com/NV/North-Las-Vegas/4315-Bitterroot-Dr-89032/home/29243816,GLVAR,2226387,N,Y,36.2313571,-115.200055
PAST SALE,March-15-2021,Townhouse,3949 Thomas Patrick Ave,North Las Vegas,NV,89032,279900,3,2.5,Cheyenne Valley Innovative Resort Communities,1999,3049,2008,39,140,84,Sold,,,http://www.redfin.com/NV/North-Las-Vegas/3949-Thomas-Patrick-Ave-89032/home/29027537,GLVAR,2253420,N,Y,36.220602,-115.192889
PAST SALE,March-30-2021,Single Family Residential,3531 Canter Dr,North Las Vegas,NV,89032,375000,4,2.0,Silverwood Ranch,1964,6098,1995,24,191,22,Sold,,,http://www.redfin.com/NV/North-Las-Vegas/3531-Canter-Dr-89032/home/29245044,GLVAR,2253720,N,Y,36.2241409,-115.2062843
PAST SALE,February-19-2021,Single Family Residential,4013 Aaron Scott St,North Las Vegas,NV,89032,305000,4,2.0,North Meadows,1574,6098,2004,63,194,22,Sold,,,http://www.redfin.com/NV/North-Las-Vegas/4013-Aaron-Scott-St-89032/home/28987385,GLVAR,2257048,N,Y,36.2325425,-115.1579053
PAST SALE,February-19-2021,Townhouse,3228 Cheyenne Gardens Way,North Las Vegas,NV,89032,209000,3,2.5,Cheyenne Gardens,1239,1742,2003,63,169,70,Sold,,,http://www.redfin.com/NV/North-Las-Vegas/3228-Cheyenne-Gardens-Way-89032/home/28972695,GLVAR,2261685,N,Y,36.2182924,-115.1848516
PAST SALE,March-2-2021,Single Family Residential,3457 Lonesome Drum,North Las Vegas,NV,89032,280000,4,3.0,Revere Gowan,1805,4356,2005,52,155,45,Sold,,,http://www.redfin.com/NV/North-Las-Vegas/3457-Lonesome-Drum-St-89032/home/28987076,GLVAR,2187203,N,Y,36.2229572,-115.1506791
PAST SALE,March-15-2021,Single Family Residential,540 Shallow Mist Ct,North Las Vegas,NV,89032,256000,3,2.0,Gleneagles,1170,4792,2000,39,219,30,Sold,,,http://www.redfin.com/NV/North-Las-Vegas/540-Shallow-Mist-Ct-89032/home/29825813,GLVAR,2263559,N,Y,36.2270227,-115.1487567
PAST SALE,March-19-2021,Single Family Residential,3255 Gold Run St,North Las Vegas,NV,89032,260000,3,2.5,Sutter Creek-Phase 2,1439,3049,2000,35,181,85,Sold,,,http://www.redfin.com/NV/North-Las-Vegas/3255-Gold-Run-St-89032/home/29249357,GLVAR,2268682,N,Y,36.2195654,-115.187457
PAST SALE,March-25-2021,Single Family Residential,3218 Panamint Ct,North Las Vegas,NV,89032,265000,3,2.0,Gowan Estate #2B,1247,7405,1996,29,213,,Sold,,,http://www.redfin.com/NV/North-Las-Vegas/3218-Panamint-Ct-89032/home/29248714,GLVAR,2258052,N,Y,36.2272731,-115.1842611
PAST SALE,,Condo/Co-op,475 Dorchester Bend Ave #2,North Las Vegas,NV,89032,218000,3,2.5,,1447,,2006,,151,,,,,http://www.redfin.com/NV/North-Las-Vegas/475-Dorchester-Bend-Ave-89032/unit-2/home/29280953,,,N,Y,36.2375831,-115.147367
PAST SALE,February-12-2021,Single Family Residential,4117 Fire Fox Dr,North Las Vegas,NV,89032,370000,4,3.0,Kardelo At Davyn Ridge,2671,6098,2018,70,139,43,Sold,,,http://www.redfin.com/NV/North-Las-Vegas/4117-Fire-Fox-Dr-89032/home/145869724,GLVAR,2246503,N,Y,36.2261506,-115.1959097
PAST SALE,January-29-2021,Single Family Residential,4325 Hatch St,North Las Vegas,NV,89032,329888,2,1.75,Desert Aire Estate,1350,20038,1988,84,244,,Sold,,,http://www.redfin.com/NV/North-Las-Vegas/4325-Hatch-St-89032/home/29241049,GLVAR,2248499,N,Y,36.2377235,-115.2047791
PAST SALE,February-11-2021,Single Family Residential,3339 Indian Horse Ct,North Las Vegas,NV,89032,250000,3,2.0,Silverwood Ranch,1160,5227,1998,71,216,17,Sold,,,http://www.redfin.com/NV/North-Las-Vegas/3339-Indian-Horse-Ct-89032/home/29245870,GLVAR,2250848,N,Y,36.220492,-115.1992676
PAST SALE,,Single Family Residential,1907 Ona Marie Ave,North Las Vegas,NV,89032,240000,4,2.0,,1576,6534,2000,,152,,,,,http://www.redfin.com/NV/North-Las-Vegas/1907-Ona-Marie-Ave-89032/home/29311433,,,N,Y,36.2022281,-115.1673084
PAST SALE,February-23-2021,Single Family Residential,1916 Hassell,North Las Vegas,NV,89032,210000,5,2.0,College Heights #2,1461,6098,1964,59,144,,Sold,,,http://www.redfin.com/NV/North-Las-Vegas/1916-Hassell-Ave-89032/home/29311501,GLVAR,2203505,N,Y,36.1981542,-115.1663357
PAST SALE,March-12-2021,Single Family Residential,3710 Bizet Ct,North Las Vegas,NV,89032,205000,2,1.0,Symphaseony West-Phase 2,883,5227,1993,42,232,,Sold,,,http://www.redfin.com/NV/North-Las-Vegas/3710-Bizet-Ct-89032/home/29251410,GLVAR,2250902,N,Y,36.2267315,-115.1684201
PAST SALE,March-16-2021,Single Family Residential,2202 Heroic Hills Ln,North Las Vegas,NV,89032,270000,4,2.0,Victory 2,1342,6098,2000,38,201,,Sold,,,http://www.redfin.com/NV/North-Las-Vegas/2202-Heroic-Hills-Ln-89032/home/29308432,GLVAR,2265412,N,Y,36.1994824,-115.1745111
PAST SALE,March-30-2021,Single Family Residential,112 Spur Ranch Ave,Las Vegas,NV,89032,380000,4,2.5,Alexander & Commerce,2706,6098,2008,24,140,29,Sold,,,http://www.redfin.com/NV/North-Las-Vegas/112-Spur-Ranch-Ave-89032/home/29280670,GLVAR,2266416,N,Y,36.231034,-115.1404185
PAST SALE,March-25-2021,Single Family Residential,2008 Carver Ave,North Las Vegas,NV,89032,224999,5,2.0,College Heights #2,1251,6098,1963,29,180,,Sold,,,http://www.redfin.com/NV/North-Las-Vegas/2008-Carver-Ave-89032/home/29311829,GLVAR,2267723,N,Y,36.1974629,-115.1680032
PAST SALE,March-26-2021,Single Family Residential,1715 Fall Pointe Ct,North Las Vegas,NV,89032,280000,4,2.0,HIDDEN CANYON HORIZONS,2011,6970,1994,28,139,10,Sold,,,http://www.redfin.com/NV/North-Las-Vegas/1715-Fall-Pointe-Ct-89032/home/29252538,GLVAR,2028211,N,Y,36.2232512,-115.1652472
PAST SALE,February-4-2021,Single Family Residential,3700 Blairmoor St,North Las Vegas,NV,89032,355000,5,3.0,Desert Horizons #8,2272,6098,1995,78,156,,Sold,,,http://www.redfin.com/NV/North-Las-Vegas/3700-Blairmoor-St-89032/home/29250592,GLVAR,2261951,N,Y,36.2265862,-115.17421
PAST SALE,February-11-2021,Single Family Residential,2720 Peaceful Hills Ave,North Las Vegas,NV,89032,250000,3,2.0,Victory Sub,1141,6098,1997,71,219,,Sold,,,http://www.redfin.com/NV/North-Las-Vegas/2720-Peaceful-Hills-Ave-89032/home/29308572,GLVAR,2257608,N,Y,36.2025975,-115.177545
PAST SALE,February-12-2021,Single Family Residential,819 Agave Ave,North Las Vegas,NV,89032,314900,4,3.0,Cheyenne Plateau,1702,6098,1995,70,185,,Sold,,,http://www.redfin.com/NV/North-Las-Vegas/819-Agave-Ave-89032/home/29254483,GLVAR,2246056,N,Y,36.2250799,-115.1530879
PAST SALE,January-27-2021,Single Family Residential,3117 Emeritus Cir,North Las Vegas,NV,89032,285000,4,2.5,Desert Highlands Phase 2,1811,6098,1995,86,157,,Sold,,,http://www.redfin.com/NV/North-Las-Vegas/3117-Emeritus-Cir-89032/home/29249659,GLVAR,2241285,N,Y,36.2216867,-115.1827789
PAST SALE,January-28-2021,Single Family Residential,1909 W Mcdonald Ave,North Las Vegas,NV,89032,203900,4,2.0,HIGHLAND VILLAGE,1161,6098,1963,85,176,,Sold,,,http://www.redfin.com/NV/North-Las-Vegas/1909-W-Mcdonald-Ave-89032/home/29304015,GLVAR,2113151,N,Y,36.2036223,-115.1680032
PAST SALE,February-8-2021,Single Family Residential,1108 Pueblo Hills Ave,North Las Vegas,NV,89032,349900,3,2.0,North Meadows,1871,6098,2004,74,187,17,Sold,,,http://www.redfin.com/NV/North-Las-Vegas/1108-Pueblo-Hills-Ave-89032/home/28987415,GLVAR,2252244,N,Y,36.2355126,-115.1562609
PAST SALE,February-4-2021,Single Family Residential,4040 Coburn St,North Las Vegas,NV,89032,260000,2,2.0,Brentwood,1485,6098,2002,78,175,14,Sold,,,http://www.redfin.com/NV/North-Las-Vegas/4040-Coburn-St-89032/home/29237884,GLVAR,2259896,N,Y,36.2336107,-115.147367
PAST SALE,February-4-2021,Single Family Residential,1804 Quartet Dr,Las Vegas,NV,89032,267500,3,1.75,Symphaseony West-Phase 1,1238,7405,1993,78,216,11,Sold,,,http://www.redfin.com/NV/North-Las-Vegas/1804-Quartet-Dr-89032/home/29250683,GLVAR,2257493,N,Y,36.22987,-115.1673547
PAST SALE,February-4-2021,Single Family Residential,3412 Beca Faith Dr,North Las Vegas,NV,89032,338000,6,2.5,Hidden Canyon Horizons Premier,2321,4792,1996,78,146,11,Sold,,,http://www.redfin.com/NV/North-Las-Vegas/3412-Beca-Faith-Dr-89032/home/29252526,GLVAR,2248404,N,Y,36.2214616,-115.1617963
PAST SALE,January-27-2021,Single Family Residential,3637 Zug Bug St,North Las Vegas,NV,89032,275000,3,2.5,Riverstone,1480,2614,2019,86,186,71,Sold,,,http://www.redfin.com/NV/North-Las-Vegas/3637-Zug-Bug-St-89032/home/165833725,GLVAR,2251202,N,Y,36.2258856,-115.14681
PAST SALE,January-27-2021,Single Family Residential,3701 Seneca Highland St,North Las Vegas,NV,89032,280000,3,2.0,Seneca Falls,1473,6534,2003,86,190,22,Sold,,,http://www.redfin.com/NV/North-Las-Vegas/3701-Seneca-Highland-St-89032/home/29859369,GLVAR,2251216,N,Y,36.2263764,-115.1886149
PAST SALE,February-2-2021,Single Family Residential,1645 Sandglass Ave,North Las Vegas,NV,89032,289000,2,2.0,Meridian Hills,1615,4792,2005,80,179,50,Sold,,,http://www.redfin.com/NV/North-Las-Vegas/1645-Sandglass-Ave-89032/home/29012197,GLVAR,2244039,N,Y,36.2322912,-115.1649692
PAST SALE,February-12-2021,Single Family Residential,3824 Trestle Bridge St,North Las Vegas,NV,89032,310000,3,2.0,Alexander Station,1459,8276,1999,70,212,38,Sold,,,http://www.redfin.com/NV/North-Las-Vegas/3824-Trestle-Bridge-St-89032/home/29255617,GLVAR,2259554,N,Y,36.2292173,-115.1482703
PAST SALE,,Single Family Residential,3406 Genesee Gorge Ave,North Las Vegas,NV,89032,215000,4,3.0,,2222,6098,2001,,97,,,,,http://www.redfin.com/NV/North-Las-Vegas/3406-Genesee-Gorge-Ave-89032/home/29891905,,,N,Y,36.2272464,-115.1859748
PAST SALE,January-27-2021,Single Family Residential,4032 Rustic Oak Ct,North Las Vegas,NV,89032,278000,3,1.75,Montero,1513,5663,1992,86,184,,Sold,,,http://www.redfin.com/NV/North-Las-Vegas/4032-Rustic-Oak-Ct-89032/home/29240384,GLVAR,2255414,N,Y,36.2328245,-115.1740247
PAST SALE,January-29-2021,Single Family Residential,4225 Totano Dr,North Las Vegas,NV,89032,292000,3,1.75,Las Brisas Norte-Phase 1,1342,6098,1993,84,218,,Sold,,,http://www.redfin.com/NV/North-Las-Vegas/4225-Totano-Dr-89032/home/29242932,GLVAR,2254158,N,Y,36.2365403,-115.1980171
PAST SALE,April-20-2021,Single Family Residential,326 Parrot Hill Ave,North Las Vegas,NV,89032,321000,5,2.75,Gleneagles,1981,6098,2003,3,162,60,Sold,,,http://www.redfin.com/NV/North-Las-Vegas/326-Parrot-Hill-Ave-89032/home/29919895,GLVAR,2221319,N,Y,36.2303921,-115.1447961
PAST SALE,April-21-2021,Single Family Residential,2816 Glory View Ln,North Las Vegas,NV,89032,278000,4,2.0,Victory 2,1342,5663,1998,2,207,,Sold,,,http://www.redfin.com/NV/North-Las-Vegas/2816-Glory-View-Ln-89032/home/29308634,GLVAR,2281451,N,Y,36.2012118,-115.1780545
PAST SALE,April-22-2021,Single Family Residential,3735 True Springs Pl,Las Vegas,NV,89032,319000,3,2.0,Laredo At Davyn Ridge,1692,4356,2008,1,189,42,Sold,,,http://www.redfin.com/NV/North-Las-Vegas/3735-True-Springs-Pl-89032/home/29781580,GLVAR,2282254,N,Y,36.227496,-115.194847
PAST SALE,January-27-2021,Single Family Residential,3456 Lonesome Drum St,North Las Vegas,NV,89032,282000,4,2.75,Revere Gowan,2141,3920,2005,86,132,60,Sold,,,http://www.redfin.com/NV/North-Las-Vegas/3456-Lonesome-Drum-St-89032/home/28987265,GLVAR,2257025,N,Y,36.2229521,-115.1501696
PAST SALE,January-29-2021,Single Family Residential,3799 Delhi,North Las Vegas,NV,89032,325000,4,2.0,Colton & Allen,2022,6098,2019,84,161,50,Sold,,,http://www.redfin.com/NV/North-Las-Vegas/3799-W-Delhi-Ave-89032/home/148724148,GLVAR,2185952,N,Y,36.2227095,-115.1908581
PAST SALE,January-29-2021,Single Family Residential,3319 Flying Colt Ct,North Las Vegas,NV,89032,272500,4,2.0,Silverwood Ranch,1753,5663,2002,84,155,17,Sold,,,http://www.redfin.com/NV/North-Las-Vegas/3319-Flying-Colt-Ct-89032/home/29918025,GLVAR,2255735,N,Y,36.2197818,-115.2027875
PAST SALE,January-29-2021,Single Family Residential,1216 Basin Brook Dr,North Las Vegas,NV,89032,270000,3,2.0,Del Prado Highlands South,1393,6534,1995,84,194,,Sold,,,http://www.redfin.com/NV/North-Las-Vegas/1216-Basin-Brook-Dr-89032/home/29254595,GLVAR,2217206,N,Y,36.2225037,-115.1587391
PAST SALE,April-21-2021,Single Family Residential,2214 Grand Prize Ave,North Las Vegas,NV,89032,260000,3,2.0,Aspen Hills 2,1206,6534,1999,2,216,23,Sold,,,http://www.redfin.com/NV/North-Las-Vegas/2214-Grand-Prize-Ave-89032/home/29309671,GLVAR,2282282,N,Y,36.2026248,-115.1715698
PAST SALE,March-3-2021,Single Family Residential,4113 Aaron Scott St,North Las Vegas,NV,89032,285000,4,2.0,North Meadows,1574,6098,2004,51,181,22,Sold,,,http://www.redfin.com/NV/North-Las-Vegas/4113-Aaron-Scott-St-89032/home/29955562,GLVAR,2258773,N,Y,36.2342334,-115.1576274
PAST SALE,,Single Family Residential,4012 Mill Point Cir,North Las Vegas,NV,89032,255500,3,2.0,,1513,6098,1993,,169,,,,,http://www.redfin.com/NV/North-Las-Vegas/4012-Mill-Point-Cir-89032/home/29240464,,,N,Y,36.2327408,-115.1713845
PAST SALE,March-2-2021,Single Family Residential,3502 Golden Sage Dr,North Las Vegas,NV,89032,265000,3,2.0,Silverwood Ranch,1270,4792,1995,52,209,17,Sold,,,http://www.redfin.com/NV/North-Las-Vegas/3502-Golden-Sage-89032/home/29246233,GLVAR,2262878,N,Y,36.2229079,-115.2049643
PAST SALE,March-3-2021,Single Family Residential,3916 Fuselier Dr,North Las Vegas,NV,89032,350000,4,3.5,Coleman & Gilmore,3163,6098,2007,51,111,50,Sold,,,http://www.redfin.com/NV/North-Las-Vegas/3916-Fuselier-Dr-89032/home/29599383,GLVAR,2236301,N,Y,36.2307395,-115.1775681
PAST SALE,March-2-2021,Single Family Residential,3530 Flaming Thorn Dr,North Las Vegas,NV,89032,293000,2,2.0,Del Prado Highlands South,1340,5227,1996,52,219,,Sold,,,http://www.redfin.com/NV/North-Las-Vegas/3530-Flaming-Thorn-Dr-89032/home/29254548,GLVAR,2262621,N,Y,36.2238819,-115.1600361
PAST SALE,March-8-2021,Single Family Residential,4341 Silvercrest Ct,North Las Vegas,NV,89032,365000,3,2.0,Silver Mesa,1705,10019,1990,46,214,,Sold,,,http://www.redfin.com/NV/North-Las-Vegas/4341-Silvercrest-Ct-89032/home/29240892,GLVAR,2266564,N,Y,36.2340742,-115.1998928
PAST SALE,March-8-2021,Single Family Residential,4304 Threshold Ct,North Las Vegas,NV,89032,310000,5,2.75,Village At Craig Ranch-Unit 2,2174,7841,1997,46,143,51,Sold,,,http://www.redfin.com/NV/North-Las-Vegas/4304-Threshold-Ct-89032/home/29238141,GLVAR,2192902,N,Y,36.2374498,-115.1420167
PAST SALE,February-26-2021,Single Family Residential,2318 Chipplegate Way,North Las Vegas,NV,89032,255000,3,2.0,Cambridge Heights Phase 2,1080,7405,1998,56,236,35,Sold,,,http://www.redfin.com/NV/North-Las-Vegas/2318-Chipplegate-Way-89032/home/29309408,GLVAR,2251105,N,Y,36.1983034,-115.1736542
PAST SALE,February-10-2021,Single Family Residential,700 Terrace Point Dr,North Las Vegas,NV,89032,300000,3,2.0,Craig Revere 80,1507,7405,1997,72,199,,Sold,,,http://www.redfin.com/NV/North-Las-Vegas/700-Terrace-Point-Dr-89032/home/29236842,GLVAR,2264661,N,Y,36.2356958,-115.151096
PAST SALE,February-22-2021,Single Family Residential,546 Wing Gull Ct,North Las Vegas,NV,89032,258500,3,2.0,Gleneagles,1280,8276,2000,60,202,30,Sold,,,http://www.redfin.com/NV/North-Las-Vegas/546-Wing-Gull-Ct-89032/home/29826006,GLVAR,2240022,N,Y,36.2255553,-115.1490115
PAST SALE,February-17-2021,Single Family Residential,358 Common Ct,North Las Vegas,NV,89032,275000,2,2.0,Brentwood,1501,6534,2001,65,183,15,Sold,,,http://www.redfin.com/NV/North-Las-Vegas/358-Common-Ct-89032/home/29237932,GLVAR,2247889,N,Y,36.2341799,-115.1465101
PAST SALE,February-22-2021,Single Family Residential,3716 Hedge Grove Dr,North Las Vegas,NV,89032,275000,3,2.0,Del Prado Highlands North-88,1581,5227,1995,60,174,,Sold,,,http://www.redfin.com/NV/North-Las-Vegas/3716-Hedge-Grove-Dr-89032/home/29254286,GLVAR,2262861,N,Y,36.226844,-115.1608236
PAST SALE,February-24-2021,Single Family Residential,3825 White Quail Ct,North Las Vegas,NV,89032,265000,4,2.0,Gleneagles Amd,1520,4792,2001,58,174,30,Sold,,,http://www.redfin.com/NV/North-Las-Vegas/3825-White-Quail-Ct-89032/home/29893995,GLVAR,2260139,N,Y,36.229285,-115.1442402
PAST SALE,February-25-2021,Single Family Residential,3622 Quail Creek Dr,North Las Vegas,NV,89032,316000,3,2.5,Cheyenne Ridge,2130,5227,1994,57,148,15,Sold,,,http://www.redfin.com/NV/North-Las-Vegas/3622-Quail-Creek-Dr-89032/home/29252351,GLVAR,2256313,N,Y,36.2255115,-115.1641123
PAST SALE,February-26-2021,Single Family Residential,3612 Nairobi Ln,North Las Vegas,NV,89032,310000,3,2.0,Terrace Farms-Phase 2,1637,8276,1999,56,189,40,Sold,,,http://www.redfin.com/NV/North-Las-Vegas/3612-Nairobi-Ln-89032/home/29254662,GLVAR,2263048,N,Y,36.2252904,-115.1549871
PAST SALE,February-25-2021,Single Family Residential,3918 Blue Gull St,North Las Vegas,NV,89032,409000,5,4.0,Gleneagles,3224,6098,2001,57,127,30,Sold,,,http://www.redfin.com/NV/North-Las-Vegas/3918-Blue-Gull-St-89032/home/29859992,GLVAR,2249760,N,Y,36.2308773,-115.1470659
PAST SALE,March-1-2021,Single Family Residential,124 Spur Ranch Avenue Ave,North Las Vegas,NV,89032,392000,5,3.5,Alexander & Commerce,3079,6534,2009,53,127,28,Sold,,,http://www.redfin.com/NV/North-Las-Vegas/124-Spur-Ranch-Ave-89032/home/29280663,GLVAR,2265305,N,Y,36.2310348,-115.1408586
PAST SALE,February-12-2021,Single Family Residential,4046 Allyson Rae St,North Las Vegas,NV,89032,345000,4,3.0,North Meadows,2259,6970,2003,70,153,18,Sold,,,http://www.redfin.com/NV/North-Las-Vegas/4046-Allyson-Rae-St-89032/home/29859117,GLVAR,2265090,N,Y,36.2335986,-115.1533658
PAST SALE,March-1-2021,Single Family Residential,705 Heritage Cliff Ave,Las Vegas,NV,89032,335000,5,3.0,Alexander Station,2475,6534,1999,53,135,55,Sold,,,http://www.redfin.com/NV/North-Las-Vegas/705-Heritage-Cliff-Ave-89032/unit-AFE/home/29255675,GLVAR,2262902,N,Y,36.229762,-115.1510728
PAST SALE,March-11-2021,Single Family Residential,3411 Spinet Dr,North Las Vegas,NV,89032,325000,4,2.75,Tempo,2086,6534,2001,43,156,50,Sold,,,http://www.redfin.com/NV/North-Las-Vegas/3411-Spinet-Dr-89032/home/29860293,GLVAR,2257142,N,Y,36.221548,-115.156632
PAST SALE,April-2-2021,Condo/Co-op,475 Dorchester Bend Ave #102,North Las Vegas,NV,89032,218000,3,2.5,Tripoly At Kings Hill,1447,,2006,21,151,210,Sold,,,http://www.redfin.com/NV/North-Las-Vegas/475-Dorchester-Bend-Ave-89032/unit-102/home/170680992,GLVAR,2279269,N,Y,36.2375831,-115.147367
PAST SALE,April-6-2021,Townhouse,640 Twilight Blue Ave,North Las Vegas,NV,89032,227000,3,2.5,Revere & Colton,1466,3049,2007,17,155,71,Sold,,,http://www.redfin.com/NV/North-Las-Vegas/640-Twilight-Blue-Ave-89032/home/29044420,GLVAR,2271537,N,Y,36.2209109,-115.1503989
PAST SALE,April-8-2021,Single Family Residential,317 Moonlight Glow Ave,North Las Vegas,NV,89032,398000,5,3.0,Alexander & N Fifth,3079,6098,2006,15,129,28,Sold,,,http://www.redfin.com/NV/North-Las-Vegas/317-Moonlight-Glow-Ave-89032/home/29051798,GLVAR,2243838,N,Y,36.229677,-115.1352071
PAST SALE,April-9-2021,Single Family Residential,546 Sparrow Gull Ct,North Las Vegas,NV,89032,270000,3,2.0,Gleneagles,1415,7841,2000,14,191,30,Sold,,,http://www.redfin.com/NV/North-Las-Vegas/546-Sparrow-Gull-Ct-89032/home/29825970,GLVAR,2275993,N,Y,36.2262705,-115.1490115
PAST SALE,April-9-2021,Single Family Residential,3616 Silver Sand Ct,North Las Vegas,NV,89032,244900,2,2.0,Del Prado Highlands North,1222,4792,1997,14,200,,Sold,,,http://www.redfin.com/NV/North-Las-Vegas/3616-Silver-Sand-Ct-89032/home/29254309,GLVAR,2252145,N,Y,36.2254989,-115.1581369
PAST SALE,March-25-2021,Single Family Residential,1221 Airborne Ct,North Las Vegas,NV,89032,343000,3,2.5,Northstar Estate,2527,7405,2008,29,136,16,Sold,,,http://www.redfin.com/NV/North-Las-Vegas/1221-Airborne-Ct-89032/home/29061916,GLVAR,2258955,N,Y,36.2329221,-115.1597582
PAST SALE,April-13-2021,Single Family Residential,3832 Trestle Bridge St,North Las Vegas,NV,89032,289950,3,2.0,Alexander Station,1459,7405,1999,10,199,38,Sold,,,http://www.redfin.com/NV/North-Las-Vegas/3832-Trestle-Bridge-St-89032/home/29255683,GLVAR,2262947,N,Y,36.2295645,-115.1483167
PAST SALE,,Single Family Residential,1729 Woodward Heights Way,North Las Vegas,NV,89032,215000,5,3.0,,2752,12197,1994,,78,,,,,http://www.redfin.com/NV/North-Las-Vegas/1729-Woodward-Heights-Way-89032/home/29252558,,,N,Y,36.2240136,-115.1660115
PAST SALE,April-15-2021,Single Family Residential,4122 Neighborly Ct,North Las Vegas,NV,89032,253000,2,2.5,Renaissance 2,1689,3485,2001,8,150,85,Sold,,,http://www.redfin.com/NV/North-Las-Vegas/4122-Neighborly-Ct-89032/home/29823621,GLVAR,2271448,N,Y,36.2346759,-115.1412755
PAST SALE,,Single Family Residential,2117 Quinton Ave,North Las Vegas,NV,89032,200414,4,2.0,,1785,5663,1993,,112,,,,,http://www.redfin.com/NV/North-Las-Vegas/2117-Quinton-Ave-89032/home/29249285,,,N,Y,36.2299234,-115.1731447
PAST SALE,,Single Family Residential,3821 Blake Canyon Dr,North Las Vegas,NV,89032,307000,3,2.5,,1713,3920,2018,,179,,,,,http://www.redfin.com/NV/North-Las-Vegas/3821-Blake-Canyon-Dr-89032/home/144237328,,,N,Y,36.2292978,-115.1930966
PAST SALE,,Single Family Residential,2305 Saber Dr,North Las Vegas,NV,89032,135000,4,2.0,,1120,6970,1966,,121,,,,,http://www.redfin.com/NV/North-Las-Vegas/2305-Saber-Dr-89032/home/29304968,,,N,Y,36.2081388,-115.1735616
PAST SALE,,Single Family Residential,3706 Newton Falls St,North Las Vegas,NV,89032,310000,4,3.0,,2222,6098,2001,,140,,,,,http://www.redfin.com/NV/North-Las-Vegas/3706-Newton-Falls-St-89032/home/29889994,,,N,Y,36.2267788,-115.1850485
PAST SALE,February-24-2021,Single Family Residential,2201 Farmouth Cir,North Las Vegas,NV,89032,275000,3,2.0,Desert Horizons #1,1244,5663,1992,58,221,,Sold,,,http://www.redfin.com/NV/North-Las-Vegas/2201-Farmouth-Cir-89032/home/29250285,GLVAR,2262745,N,Y,36.2306159,-115.1734226
PAST SALE,February-5-2021,Townhouse,4120 Thomas Patrick Ave,North Las Vegas,NV,89032,270000,3,2.75,Cheyenne Valley Innovative Resort Communities,1653,3485,2008,77,163,84,Sold,,,http://www.redfin.com/NV/North-Las-Vegas/4120-Thomas-Patrick-Ave-89032/home/29027487,GLVAR,2250164,N,Y,36.2207333,-115.1951098
PAST SALE,February-22-2021,Single Family Residential,4005 Mill Point Cir,North Las Vegas,NV,89032,235000,2,2.0,Montero,959,5663,1993,60,245,,Sold,,,http://www.redfin.com/NV/North-Las-Vegas/4005-Mill-Point-Cir-89032/home/29240468,GLVAR,2260892,N,Y,36.2324574,-115.1719404
PAST SALE,February-10-2021,Single Family Residential,3515 Kemp St,North Las Vegas,NV,89032,300000,3,2.0,Carlton Square,1706,10454,1989,72,176,,Sold,,,http://www.redfin.com/NV/North-Las-Vegas/3515-Kemp-St-89032/home/29250657,GLVAR,2247534,N,Y,36.2236517,-115.1772902
PAST SALE,January-29-2021,Single Family Residential,4116 Herblinda Ln,North Las Vegas,NV,89032,300000,3,2.0,Las Brisas Norte-Phase 5,1347,6970,1995,84,223,,Sold,,,http://www.redfin.com/NV/North-Las-Vegas/4116-Herblinda-Ln-89032/home/29244196,GLVAR,2256650,N,Y,36.2354865,-115.1961645
PAST SALE,February-22-2021,Single Family Residential,1824 Mcdonald Ave,North Las Vegas,NV,89032,181000,2,1.0,Highland Village,837,6098,1963,60,216,,Sold,,,http://www.redfin.com/NV/North-Las-Vegas/1824-W-Mcdonald-Ave-89032/home/29303995,GLVAR,2255437,N,Y,36.2040008,-115.1668452
PAST SALE,February-25-2021,Single Family Residential,3106 Atwater Dr,North Las Vegas,NV,89032,336000,4,3.0,Casa Linda,2018,6098,1993,57,167,,Sold,,,http://www.redfin.com/NV/North-Las-Vegas/3106-Atwater-Dr-89032/home/29248463,GLVAR,2265557,N,Y,36.2293799,-115.1825705
PAST SALE,,Single Family Residential,2024 Pilar Ave,North Las Vegas,NV,89032,275000,4,2.0,,1785,6534,1993,,154,,,,,http://www.redfin.com/NV/North-Las-Vegas/2024-Pilar-Ave-89032/home/29250340,,,N,Y,36.229654,-115.1717574
PAST SALE,February-26-2021,Single Family Residential,3244 Sutters Fort St,North Las Vegas,NV,89032,247500,3,2.0,Sutter Creek-Phase 1,1104,4356,1999,56,224,85,Sold,,,http://www.redfin.com/NV/North-Las-Vegas/3244-Sutter-s-Fort-St-89032/home/29249520,GLVAR,2264183,N,Y,36.2192251,-115.1877349
PAST SALE,February-3-2021,Single Family Residential,3821 Blake Canyon Dr,North Las Vegas,NV,89032,307000,3,2.5,Allora At Davyn Ridge,1713,3920,2018,79,179,45,Sold,,,http://www.redfin.com/NV/North-Las-Vegas/3821-Blake-Canyon-Dr-89032/home/171369720,GLVAR,2242028,N,Y,36.2292978,-115.1930966
PAST SALE,February-24-2021,Single Family Residential,2103 Jardine Ave,North Las Vegas,NV,89032,320000,4,2.0,Desert Horizons #3,1785,7841,1993,58,179,,Sold,,,http://www.redfin.com/NV/North-Las-Vegas/2103-Jardine-Ave-89032/home/29250361,GLVAR,2260092,N,Y,36.2285397,-115.1724175
PAST SALE,February-24-2021,Single Family Residential,3409 Gilmore Ave,North Las Vegas,NV,89032,307500,4,3.0,Seneca Falls,2222,6098,2001,58,138,22,Sold,,,http://www.redfin.com/NV/North-Las-Vegas/3409-W-Gilmore-Ave-89032/home/29859322,GLVAR,2223070,N,Y,36.2281997,-115.1859748
PAST SALE,February-25-2021,Condo/Co-op,1881 Alexander Rd #1142,North Las Vegas,NV,89032,102000,1,1.0,Villas At Hidden Canyon-Amd,724,,1998,57,141,164,Sold,,,http://www.redfin.com/NV/North-Las-Vegas/1881-W-Alexander-Rd-89032/unit-1142/home/29251700,GLVAR,2216640,N,Y,36.231117,-115.1697223
PAST SALE,February-25-2021,Condo/Co-op,1881 Alexander Rd #2049,North Las Vegas,NV,89032,148000,2,2.0,Villas At Hidden Canyon,968,2767,2002,57,153,150,Sold,,,http://www.redfin.com/NV/North-Las-Vegas/1881-W-Alexander-Rd-89032/unit-2049/home/29860387,GLVAR,2262156,N,Y,36.231117,-115.1697223
PAST SALE,March-5-2021,Single Family Residential,2000 Lawry Ave,North Las Vegas,NV,89032,237000,5,2.0,College Heights #2,1461,6098,1964,49,162,,Sold,,,http://www.redfin.com/NV/North-Las-Vegas/2000-Lawry-Ave-89032/home/29311590,GLVAR,2262026,N,Y,36.1988279,-115.1675863
PAST SALE,March-11-2021,Single Family Residential,4308 Yorkwood Dr,North Las Vegas,NV,89032,305000,4,2.0,Silver Mesa,2216,10019,1993,43,138,,Sold,,,http://www.redfin.com/NV/North-Las-Vegas/4308-Yorkwood-Dr-89032/home/29243856,GLVAR,2271194,N,Y,36.2288673,-115.1983181
PAST SALE,March-12-2021,Single Family Residential,2915 W Colton Ave,Las Vegas,NV,89032,295000,3,2.0,Sutter Creek Estate,1441,6098,2000,42,205,,Sold,,,http://www.redfin.com/NV/North-Las-Vegas/2915-W-Colton-Ave-89032/home/29249394,GLVAR,2260726,N,Y,36.2209968,-115.1801851
PAST SALE,March-17-2021,Single Family Residential,3122 Atwater Dr,North Las Vegas,NV,89032,330000,4,3.0,Casa Linda,2018,6098,1993,37,164,,Sold,,,http://www.redfin.com/NV/North-Las-Vegas/3122-Atwater-Dr-89032/home/29248541,GLVAR,2269150,N,Y,36.2293519,-115.1834042
PAST SALE,March-18-2021,Single Family Residential,2033 Keller Ct,North Las Vegas,NV,89032,327000,4,2.5,Desert Horizons #7,1944,5663,1994,36,168,,Sold,,,http://www.redfin.com/NV/North-Las-Vegas/2033-Keller-Ct-89032/home/29250470,GLVAR,2268308,N,Y,36.2250793,-115.1718941
PAST SALE,March-19-2021,Single Family Residential,3748 Coleman St,North Las Vegas,NV,89032,350000,5,2.5,Desert Horizons #8,2271,6534,1995,35,154,,Sold,,,http://www.redfin.com/NV/North-Las-Vegas/3748-Coleman-St-89032/home/29250570,GLVAR,2238787,N,Y,36.2282354,-115.1751827
PAST SALE,April-7-2021,Single Family Residential,4113 Palamos Dr,North Las Vegas,NV,89032,289900,2,2.0,Las Brisas Norte-Phase 1,1355,6098,1993,16,214,,Sold,,,http://www.redfin.com/NV/North-Las-Vegas/4113-Palamos-Dr-89032/home/29243141,GLVAR,2276015,N,Y,36.2383837,-115.1963497
PAST SALE,March-18-2021,Townhouse,3844 Thomas Patrick Ave,North Las Vegas,NV,89032,255000,3,2.25,Cheyenne Valley Innovative Resort Communities,1491,3485,2008,36,171,85,Sold,,,http://www.redfin.com/NV/North-Las-Vegas/3844-Thomas-Patrick-Ave-89032/home/29027476,GLVAR,2265741,N,Y,36.220865,-115.191195
PAST SALE,April-7-2021,Single Family Residential,2425 Raymond Ave,North Las Vegas,NV,89032,220000,4,2.0,Highland Village,1161,6098,1963,16,189,,Sold,,,http://www.redfin.com/NV/North-Las-Vegas/2425-Raymond-Ave-89032/home/29303943,GLVAR,2269684,N,Y,36.2042475,-115.1691149
PAST SALE,April-8-2021,Single Family Residential,4220 Laurel Hill Dr,North Las Vegas,NV,89032,300000,3,2.0,Montero Amd,1633,6098,1990,15,184,,Sold,,,http://www.redfin.com/NV/North-Las-Vegas/4220-Laurel-Hill-Dr-89032/home/29240752,GLVAR,2259681,N,Y,36.2364096,-115.1739784
PAST SALE,April-9-2021,Single Family Residential,2232 Rejoice Dr,North Las Vegas,NV,89032,270000,4,2.0,Victory 2,1575,6098,1999,14,171,,Sold,,,http://www.redfin.com/NV/North-Las-Vegas/2232-Rejoice-Dr-89032/home/29308416,GLVAR,2272583,N,Y,36.2005422,-115.175368
PAST SALE,April-9-2021,Single Family Residential,3524 Kidd St,Las Vegas,NV,89032,330000,4,2.0,CARLTON SQUARE,2108,10019,1978,14,157,,Sold,,,http://www.redfin.com/NV/North-Las-Vegas/3524-Kidd-St-89032/home/29250678,GLVAR,2269570,N,Y,36.2239882,-115.1758775
PAST SALE,April-9-2021,Single Family Residential,3717 Bach Way,North Las Vegas,NV,89032,260000,3,2.0,Symphaseony West-Phase 2,1238,4792,1993,14,210,12,Sold,,,http://www.redfin.com/NV/North-Las-Vegas/3717-Bach-Way-89032/home/29251415,GLVAR,2212890,N,Y,36.2268732,-115.1681422
PAST SALE,March-24-2021,Single Family Residential,4089 Trillium Bay Ln,North Las Vegas,NV,89032,347000,3,3.0,Laredo At Davyn Ridge,2185,4792,2019,30,159,42,Sold,,,http://www.redfin.com/NV/North-Las-Vegas/4089-Trillium-Bay-Ln-89032/home/165831058,GLVAR,2255682,N,Y,36.229116,-115.194841
PAST SALE,,Single Family Residential,4240 Totano Dr,North Las Vegas,NV,89032,310000,4,2.0,,1885,6098,1993,,164,,,,,http://www.redfin.com/NV/North-Las-Vegas/4240-Totano-Dr-89032/home/29242935,,,N,Y,36.2372106,-115.1975076
PAST SALE,March-31-2021,Single Family Residential,2042 Cardigan Ave,North Las Vegas,NV,89032,310700,3,2.0,Desert Horizons #7,1696,6098,1995,23,183,,Sold,,,http://www.redfin.com/NV/North-Las-Vegas/2042-Cardigan-Ave-89032/home/29250518,GLVAR,2270182,N,Y,36.2261777,-115.1723109
PAST SALE,April-19-2021,Single Family Residential,3604 La Scala Ct,North Las Vegas,NV,89032,329000,4,2.5,Mira Vista,1786,4792,2005,4,184,85,Sold,,,http://www.redfin.com/NV/North-Las-Vegas/3604-la-Scala-Ct-89032/home/29009918,GLVAR,2277088,N,Y,36.225081,-115.169138
PAST SALE,March-26-2021,Single Family Residential,2229 Heroic Hills Ln,North Las Vegas,NV,89032,295000,4,2.0,Victory 2,1585,6098,2000,28,186,,Sold,,,http://www.redfin.com/NV/North-Las-Vegas/2229-Heroic-Hills-Ln-89032/home/29308436,GLVAR,2278294,N,Y,36.2005353,-115.1750438
PAST SALE,February-22-2021,Single Family Residential,3342 Capitol Reef Dr,North Las Vegas,NV,89032,275000,3,2.0,Echoes 2-Phase 5 Amd,1534,4792,1995,60,179,30,Sold,,,http://www.redfin.com/NV/North-Las-Vegas/3342-Capitol-Reef-Dr-89032/home/29253497,GLVAR,2258815,N,Y,36.2208612,-115.1664283
PAST SALE,February-12-2021,Single Family Residential,4429 Broken Bow Cir,Las Vegas,NV,89032,363000,4,2.0,Silver Mesa,1929,11761,1990,70,188,,Sold,,,http://www.redfin.com/NV/North-Las-Vegas/4429-Broken-Bow-Cir-89032/home/29243793,GLVAR,2260100,N,Y,36.2312451,-115.2023244
PAST SALE,February-4-2021,Single Family Residential,3708 Valley Dr,North Las Vegas,NV,89032,290000,3,2.0,Parcel Map File 78 Page 98,1466,7841,1996,78,198,,Sold,,,http://www.redfin.com/NV/North-Las-Vegas/3708-Valley-Dr-89032/home/29247461,GLVAR,2255056,N,Y,36.2269682,-115.1975771
PAST SALE,January-29-2021,Single Family Residential,3423 Fort Niagara Ave,North Las Vegas,NV,89032,300000,3,2.5,Seneca Falls,1667,6534,2001,84,180,22,Sold,,,http://www.redfin.com/NV/North-Las-Vegas/3423-Fort-Niagara-Ave-89032/home/29859305,GLVAR,2250885,N,Y,36.2275129,-115.1866464
PAST SALE,,Single Family Residential,2108 Twisted Oak Ave,North Las Vegas,NV,89032,215000,4,2.5,,1977,5663,1992,,109,,,,,http://www.redfin.com/NV/North-Las-Vegas/2108-Twisted-Oak-Ave-89032/home/29249291,,,N,Y,36.2317163,-115.1725888
PAST SALE,February-17-2021,Single Family Residential,4335 Twin Peaks Dr,North Las Vegas,NV,89032,272000,3,2.0,SILVER MESA,1851,7405,1990,65,147,,Sold,,,http://www.redfin.com/NV/North-Las-Vegas/4335-Twin-Peaks-Dr-89032/home/29240803,GLVAR,2160217,N,Y,36.2323139,-115.1996844
PAST SALE,,Single Family Residential,3410 Kemp St,North Las Vegas,NV,89032,345000,4,2.0,,2028,10019,2001,,170,,,,,http://www.redfin.com/NV/North-Las-Vegas/3410-Kemp-St-89032/home/29824896,,,N,Y,36.2218358,-115.1766186
PAST SALE,March-12-2021,Single Family Residential,3438 Ferrell St,North Las Vegas,NV,89032,305000,3,1.75,Desert Highlands Phase 2,1494,6970,1994,42,204,,Sold,,,http://www.redfin.com/NV/North-Las-Vegas/3438-Ferrell-St-89032/home/29249680,GLVAR,2260854,N,Y,36.2224746,-115.18396
PAST SALE,,Single Family Residential,3841 Bach Way,North Las Vegas,NV,89032,235000,3,2.0,,1146,4792,1993,,205,,,,,http://www.redfin.com/NV/North-Las-Vegas/3841-Bach-Way-89032/home/29251483,,,N,Y,36.2289128,-115.1687907
PAST SALE,March-18-2021,Single Family Residential,4422 Erica Dr,North Las Vegas,NV,89032,325000,3,1.75,Vista Del Sol-Phase 3,2132,6534,1994,36,152,,Sold,,,http://www.redfin.com/NV/North-Las-Vegas/4422-Erica-Dr-89032/home/29245220,GLVAR,2262505,N,Y,36.2254013,-115.2013749
PAST SALE,March-18-2021,Single Family Residential,3316 Strawberry Roan Rd,North Las Vegas,NV,89032,285000,3,2.0,Silverwood Ranch,1336,5227,2002,36,213,23,Sold,,,http://www.redfin.com/NV/North-Las-Vegas/3316-Strawberry-Roan-Rd-89032/home/29915906,GLVAR,2269874,N,Y,36.2196589,-115.2031581
PAST SALE,March-19-2021,Single Family Residential,3804 Intermezzo Way,North Las Vegas,NV,89032,285000,3,2.0,Symphaseony West-Phase 3,1459,5227,1994,35,195,11,Sold,,,http://www.redfin.com/NV/North-Las-Vegas/3804-Intermezzo-Way-89032/home/29252288,GLVAR,2269980,N,Y,36.2282894,-115.1685591
PAST SALE,March-23-2021,Single Family Residential,4005 Coleman St,North Las Vegas,NV,89032,340000,4,3.0,Alexander & Simmons,2338,6098,2008,31,145,50,Sold,,,http://www.redfin.com/NV/North-Las-Vegas/4005-Coleman-St-89032/home/29598952,GLVAR,2266204,N,Y,36.2322107,-115.1758775
PAST SALE,March-18-2021,Single Family Residential,3535 Parada Cir,North Las Vegas,NV,89032,318000,3,2.0,Silverwood Ranch,1852,6970,1995,36,172,23,Sold,,,http://www.redfin.com/NV/North-Las-Vegas/3535-Parada-89032/home/29245020,GLVAR,2271986,N,Y,36.2243072,-115.2055433
PAST SALE,March-23-2021,Single Family Residential,3725 Gioeli Pl,North Las Vegas,NV,89032,300000,3,2.5,Lady Christines Court,1506,6098,2001,31,199,,Sold,,,http://www.redfin.com/NV/North-Las-Vegas/3725-Gioeli-Pl-89032/home/29858981,GLVAR,2270365,N,Y,36.2276151,-115.1822926
PAST SALE,March-23-2021,Condo/Co-op,1881 Alexander Rd #204,North Las Vegas,NV,89032,103750,1,1.0,Villas At Hidden Canyon-Amd,724,,1997,31,143,150,Sold,,,http://www.redfin.com/NV/North-Las-Vegas/1881-W-Alexander-Rd-89032/unit-204/home/29251646,GLVAR,2269642,N,Y,36.231117,-115.1697223
PAST SALE,March-26-2021,Single Family Residential,3838 Coleman St,North Las Vegas,NV,89032,320000,4,2.0,Desert Horizons #4,1784,6098,1993,28,179,,Sold,,,http://www.redfin.com/NV/North-Las-Vegas/3838-Coleman-St-89032/home/29250391,GLVAR,2257841,N,Y,36.2294961,-115.175229
PAST SALE,March-31-2021,Single Family Residential,4014 Extenso Dr,North Las Vegas,NV,89032,320000,3,2.0,Las Brisas Norte-Phase 1A,1342,7405,1994,23,238,,Sold,,,http://www.redfin.com/NV/North-Las-Vegas/4014-Extenso-Dr-89032/home/29243172,GLVAR,2279235,N,Y,36.2367849,-115.1948908
PAST SALE,March-25-2021,Single Family Residential,4704 Denali Ave,North Las Vegas,NV,89032,305000,3,2.0,Paseo Vista #1,1404,6098,1995,29,217,,Sold,,,http://www.redfin.com/NV/North-Las-Vegas/4704-Denali-Ave-89032/home/29244822,GLVAR,2270040,N,Y,36.2282273,-115.2060534
PAST SALE,,Single Family Residential,3407 Strawberry Roan Rd,North Las Vegas,NV,89032,350000,4,3.0,,2108,4356,1997,,166,,,,,http://www.redfin.com/NV/North-Las-Vegas/3407-Strawberry-Roan-Rd-89032/home/29246186,,,N,Y,36.2210833,-115.2037138
PAST SALE,April-1-2021,Condo/Co-op,1881 Alexander Rd #1073,North Las Vegas,NV,89032,155000,2,2.0,Villas At Hidden Canyon,1151,,2000,22,135,164,Sold,,,http://www.redfin.com/NV/North-Las-Vegas/1881-W-Alexander-Rd-89032/unit-1073/home/29251730,GLVAR,2239132,N,Y,36.231117,-115.1697223
PAST SALE,April-1-2021,Condo/Co-op,1881 Alexander Rd #1120,North Las Vegas,NV,89032,150000,2,2.0,Villas At Hidden Canyon,1151,1151,2000,22,130,150,Sold,,,http://www.redfin.com/NV/North-Las-Vegas/1881-W-Alexander-Rd-89032/unit-1120/home/29251249,GLVAR,2265959,N,Y,36.231117,-115.1697223
PAST SALE,March-31-2021,Single Family Residential,3236 Aiken St,North Las Vegas,NV,89032,305000,4,2.5,Diamante east,1826,4356,2012,23,167,80,Sold,,,http://www.redfin.com/NV/North-Las-Vegas/3236-Aiken-Way-89032/home/40547897,GLVAR,2270716,N,Y,36.2190708,-115.1625374
PAST SALE,March-30-2021,Single Family Residential,1805 Cartier Ave,North Las Vegas,NV,89032,200000,4,1.75,Highland Village,1152,6534,1971,24,174,,Sold,,,http://www.redfin.com/NV/North-Las-Vegas/1805-W-Cartier-Ave-89032/home/29302876,GLVAR,2272333,N,Y,36.2064215,-115.165085
PAST SALE,,Single Family Residential,3837 Oak Peak Ct,North Las Vegas,NV,89032,340000,4,2.5,,2706,6098,2006,,126,,,,,http://www.redfin.com/NV/North-Las-Vegas/3837-Oak-Peak-Ct-89032/home/29061814,,,N,Y,36.2297186,-115.1371527
PAST SALE,March-22-2021,Single Family Residential,105 Spur Ranch Ave,North Las Vegas,NV,89032,345000,4,2.0,Alexander & Commerce,1928,6970,2008,32,179,29,Sold,,,http://www.redfin.com/NV/North-Las-Vegas/105-Spur-Ranch-Ave-89032/home/29280673,GLVAR,2271547,N,Y,36.2306272,-115.1398395
PAST SALE,March-24-2021,Single Family Residential,3828 Goldfield St,North Las Vegas,NV,89032,340000,4,2.0,Alexander & N Fifth,2212,6098,2006,30,154,55,Sold,,,http://www.redfin.com/NV/North-Las-Vegas/3828-N-Goldfield-St-89032/home/29061840,GLVAR,2269897,N,Y,36.2297169,-115.1384034
PAST SALE,March-19-2021,Single Family Residential,815 Royalmile Way,North Las Vegas,NV,89032,345000,3,2.5,Highland Hills,2059,5663,1999,35,168,,Sold,,,http://www.redfin.com/NV/North-Las-Vegas/815-Royalmile-Way-89032/home/29253312,GLVAR,2269508,N,Y,36.229158,-115.1535048
PAST SALE,March-23-2021,Single Family Residential,4032 Open Door Dr,Las Vegas,NV,89032,250000,3,2.5,Harmony 2 Aka Renaissance 2,1451,3049,2006,31,172,70,Sold,,,http://www.redfin.com/NV/North-Las-Vegas/4032-N-Open-Door-Dr-89032/home/29061986,GLVAR,2255461,N,Y,36.2332198,-115.1419241
PAST SALE,March-29-2021,Single Family Residential,1312 High Altitude Ave,North Las Vegas,NV,89032,385000,4,3.5,Northstar Estate,3247,6534,2006,25,119,17,Sold,,,http://www.redfin.com/NV/North-Las-Vegas/1312-High-Altitude-Ave-89032/home/29051766,GLVAR,2251731,N,Y,36.2369452,-115.1601519
PAST SALE,April-1-2021,Single Family Residential,23 Pinnacle Hill Ct,North Las Vegas,NV,89032,310000,3,2.0,Village At Craig Ranch,1587,5227,1995,22,195,68,Sold,,,http://www.redfin.com/NV/North-Las-Vegas/23-Pinnacle-Hill-Ct-89032/home/29238006,GLVAR,2271468,N,Y,36.2380121,-115.13977
PAST SALE,April-1-2021,Single Family Residential,4108 Mattray St,North Las Vegas,NV,89032,362500,3,2.5,North Meadows,1870,6534,2003,22,194,17,Sold,,,http://www.redfin.com/NV/North-Las-Vegas/4108-Mattray-St-89032/home/29894150,GLVAR,2269604,N,Y,36.2340386,-115.1561914
PAST SALE,April-2-2021,Single Family Residential,817 Bolivar Ave,North Las Vegas,NV,89032,310000,3,2.0,Devonridge,1815,6098,2005,21,171,33,Sold,,,http://www.redfin.com/NV/North-Las-Vegas/817-Bolivar-Ave-89032/home/29012677,GLVAR,2268800,N,Y,36.2298713,-115.15369
PAST SALE,March-19-2021,Single Family Residential,608 Terrace Point Dr,North Las Vegas,NV,89032,280000,3,2.0,Craig Revere 80,1170,6098,1996,35,239,,Sold,,,http://www.redfin.com/NV/North-Las-Vegas/608-Terrace-Point-Dr-89032/home/29237274,GLVAR,2269773,N,Y,36.2374075,-115.14966
PAST SALE,March-23-2021,Single Family Residential,1423 Crystal View Dr,North Las Vegas,NV,89032,238000,3,2.0,Del Prado Highlands North,1459,7405,1995,31,163,,Sold,,,http://www.redfin.com/NV/North-Las-Vegas/1423-Crystal-View-Dr-89032/home/29253720,GLVAR,2248264,N,Y,36.228578,-115.1612404
PAST SALE,April-7-2021,Single Family Residential,3526 Farina Dr,Las Vegas,NV,89032,295000,3,2.5,Desert Highlands #2 Phase 2,1497,6098,1993,16,197,,Sold,,,http://www.redfin.com/NV/North-Las-Vegas/3526-Farina-Dr-89032/home/29249607,GLVAR,2274417,N,Y,36.2239973,-115.1871791
PAST SALE,April-7-2021,Single Family Residential,4310 Valley Regents Dr,Las Vegas,NV,89032,295000,2,2.0,San Mateo Valley,1129,6098,1993,16,261,,Sold,,,http://www.redfin.com/NV/North-Las-Vegas/4310-Valley-Regents-Dr-89032/home/29240947,GLVAR,2270704,N,Y,36.2370837,-115.2012591
PAST SALE,April-8-2021,Single Family Residential,348 Copeland Ct,North Las Vegas,NV,89032,275000,3,2.0,BRENTWOOD,1719,6098,2001,15,160,14,Sold,,,http://www.redfin.com/NV/North-Las-Vegas/348-Copeland-Ct-89032/home/29237835,GLVAR,1986305,N,Y,36.2348984,-115.1461395
PAST SALE,April-8-2021,Single Family Residential,3435 Dapple Dr,North Las Vegas,NV,89032,335000,5,2.25,Silverwood Ranch,2435,4356,1995,15,138,17,Sold,,,http://www.redfin.com/NV/North-Las-Vegas/3435-Dapple-Dr-89032/home/29245014,GLVAR,2273131,N,Y,36.2220223,-115.2071411
PAST SALE,April-9-2021,Single Family Residential,913 Baritone Way,North Las Vegas,NV,89032,265000,3,2.0,Tempo,1247,6534,2002,14,213,50,Sold,,,http://www.redfin.com/NV/North-Las-Vegas/913-Baritone-Way-89032/home/29894025,GLVAR,2273649,N,Y,36.2241332,-115.1544775
PAST SALE,March-24-2021,Single Family Residential,3629 Seneca Highland St,North Las Vegas,NV,89032,285000,3,2.5,Seneca Falls,1252,6098,2001,30,228,24,Sold,,,http://www.redfin.com/NV/North-Las-Vegas/3629-Seneca-Highland-St-89032/home/29859365,GLVAR,2267857,N,Y,36.2260587,-115.1886149
PAST SALE,April-13-2021,Condo/Co-op,495 Dorchester Bend Ave #1,North Las Vegas,NV,89032,245000,3,2.5,Tripoly At Kings Hill,1648,,2006,10,149,210,Sold,,,http://www.redfin.com/NV/North-Las-Vegas/495-Dorchester-Bend-Ave-89032/unit-1/home/29280945,GLVAR,2280520,N,Y,36.2376004,-115.147645
PAST SALE,April-13-2021,Single Family Residential,4037 Mystic Canyon Ct,North Las Vegas,NV,89032,313000,2,2.0,Montero,1156,6098,1992,10,271,,Sold,,,http://www.redfin.com/NV/North-Las-Vegas/4037-Mystic-Canyon-Ct-89032/home/29240391,GLVAR,2280877,N,Y,36.2330001,-115.175368
PAST SALE,April-9-2021,Single Family Residential,201 Gracious Crest Ave,North Las Vegas,NV,89032,294000,3,2.5,Renaissance 2,1759,3049,2004,14,167,85,Sold,,,http://www.redfin.com/NV/North-Las-Vegas/201-Gracious-Crest-Ave-89032/home/29824947,GLVAR,2274248,N,Y,36.2343322,-115.1419241
PAST SALE,March-29-2021,Single Family Residential,3733 Covewick Dr,North Las Vegas,NV,89032,370000,4,2.0,Cheyenne Ridge,1861,13939,1994,25,199,12,Sold,,,http://www.redfin.com/NV/North-Las-Vegas/3733-Covewick-Dr-89032/home/29252313,GLVAR,2268705,N,Y,36.2276939,-115.1638576
PAST SALE,April-14-2021,Townhouse,4221 Thomas Patrick Ave,North Las Vegas,NV,89032,325000,5,3.0,Cheyenne Valley Innovative Resort Communities,2337,3049,2018,9,139,84,Sold,,,http://www.redfin.com/NV/North-Las-Vegas/4221-Thomas-Patrick-Ave-89032/home/147763953,GLVAR,2274624,N,Y,36.220434,-115.19655
PAST SALE,April-13-2021,Townhouse,335 Kensington Palace Ave #2,North Las Vegas,NV,89032,194000,3,2.5,Tripoly At Kings Hill,1447,1500,2006,10,134,210,Sold,,,http://www.redfin.com/NV/North-Las-Vegas/335-Kensington-Palace-Ave-89032/unit-2/home/29280707,GLVAR,2268649,N,Y,36.2376283,-115.1446803
PAST SALE,April-12-2021,Single Family Residential,1920 Pinsky Ln,North Las Vegas,NV,89032,340000,3,2.5,Diamante West,2037,4356,2018,11,167,77,Sold,,,http://www.redfin.com/NV/North-Las-Vegas/1920-Pinsky-Ln-89032/home/145863069,GLVAR,2272804,N,Y,36.218347,-115.168767
PAST SALE,April-15-2021,Condo/Co-op,415 Dorchester Bend Ave #101,North Las Vegas,NV,89032,233500,3,2.5,Tripoly At Kings Hill,1648,1648,2006,8,142,210,Sold,,,http://www.redfin.com/NV/North-Las-Vegas/415-Dorchester-Bend-Ave-89032/unit-101/home/170673437,GLVAR,2270157,N,Y,36.2375901,-115.1466259
PAST SALE,April-15-2021,Single Family Residential,3414 Guardsman Ln,North Las Vegas,NV,89032,315000,3,2.0,Casa Lindaa,1456,6098,1995,8,216,,Sold,,,http://www.redfin.com/NV/North-Las-Vegas/3414-Guardsman-89032/home/29238344,GLVAR,2280915,N,Y,36.2368405,-115.1867622
PAST SALE,April-15-2021,Single Family Residential,409 Finch Ridge Ave,North Las Vegas,NV,89032,388000,6,4.5,Gleneagles,3224,6098,2002,8,120,40,Sold,,,http://www.redfin.com/NV/North-Las-Vegas/409-Finch-Ridge-Ave-89032/home/29918939,GLVAR,2271285,N,Y,36.2313455,-115.1458615
PAST SALE,March-31-2021,Single Family Residential,4529 Denali Ave,North Las Vegas,NV,89032,297600,3,2.0,Vista Del Sol-Phase 4,1370,6098,1992,23,217,,Sold,,,http://www.redfin.com/NV/North-Las-Vegas/4529-Denali-Ave-89032/home/29245058,GLVAR,2269807,N,Y,36.227804,-115.2042001
PAST SALE,April-19-2021,Single Family Residential,4333 Valley Regal Way,North Las Vegas,NV,89032,285000,3,2.0,San Mateo Valley,1440,6098,1992,4,198,,Sold,,,http://www.redfin.com/NV/North-Las-Vegas/4333-Valley-Regal-Way-89032/home/29241014,GLVAR,2273913,N,Y,36.2357416,-115.1994529
PAST SALE,March-18-2021,Single Family Residential,3602 Gold Sluice Ave,North Las Vegas,NV,89032,265000,4,2.5,Sutter Creek-Phase 2,1439,3049,2000,36,184,85,Sold,,,http://www.redfin.com/NV/North-Las-Vegas/3602-Gold-Sluice-Ave-89032/home/29249391,GLVAR,2263868,N,Y,36.2209368,-115.1873643
PAST SALE,February-18-2021,Single Family Residential,342 Common Ct,North Las Vegas,NV,89032,260000,3,2.0,Brentwood,1485,6098,2001,64,175,14,Sold,,,http://www.redfin.com/NV/North-Las-Vegas/342-Common-Ct-89032/home/29237936,GLVAR,2261174,N,Y,36.2341972,-115.1457226
PAST SALE,February-24-2021,Single Family Residential,4218 Oak Bay Way,North Las Vegas,NV,89032,360000,5,2.0,Casa Lindab,1840,7841,1996,58,196,,Sold,,,http://www.redfin.com/NV/North-Las-Vegas/4218-Oak-Bay-89032/home/29238402,GLVAR,2263275,N,Y,36.2364355,-115.1885686
PAST SALE,February-25-2021,Single Family Residential,826 Holly Sprig Ct,North Las Vegas,NV,89032,280000,4,2.5,Cheyenne Plateau,2130,5663,1995,57,131,,Sold,,,http://www.redfin.com/NV/North-Las-Vegas/826-Holly-Sprig-Ct-89032/home/29254452,GLVAR,2234568,N,Y,36.2281838,-115.1535974
PAST SALE,February-25-2021,Single Family Residential,1010 Harp Way,North Las Vegas,NV,89032,310000,4,2.0,Tempo,1844,6098,2001,57,168,50,Sold,,,http://www.redfin.com/NV/North-Las-Vegas/1010-Harp-Way-89032/home/29860333,GLVAR,2258476,N,Y,36.2232,-115.156055
PAST SALE,February-24-2021,Single Family Residential,537 Wing Gull Ct,North Las Vegas,NV,89032,270000,3,2.0,Gleneagles,1280,4792,2001,58,211,30,Sold,,,http://www.redfin.com/NV/North-Las-Vegas/537-Wing-Gull-Ct-89032/home/29826003,GLVAR,2259919,N,Y,36.2251572,-115.1485714
PAST SALE,February-17-2021,Single Family Residential,2202 Farmouth Cir,North Las Vegas,NV,89032,235000,2,2.0,Desert Horizons #1,969,5663,1992,65,243,,Sold,,,http://www.redfin.com/NV/North-Las-Vegas/2202-Farmouth-Cir-89032/home/29250279,GLVAR,2260509,N,Y,36.2310424,-115.1734689
PAST SALE,March-3-2021,Single Family Residential,403 Hopedale Ave,North Las Vegas,NV,89032,280000,3,2.0,Brentwood,1719,6534,2001,51,163,13,Sold,,,http://www.redfin.com/NV/North-Las-Vegas/403-Hopedale-Ave-89032/home/29237842,GLVAR,2247098,N,Y,36.2351765,-115.1461395
PAST SALE,March-5-2021,Condo/Co-op,1881 Alexander Rd #1016,Las Vegas,NV,89032,139000,2,2.0,Villas At Hidden Canyon,968,,2001,49,144,164,Sold,,,http://www.redfin.com/NV/North-Las-Vegas/1881-W-Alexander-Rd-89032/unit-1016/home/29860370,GLVAR,2241308,N,Y,36.231117,-115.1697223
PAST SALE,March-12-2021,Single Family Residential,3231 Kidd St,North Las Vegas,NV,89032,295000,3,2.0,,1513,5227,2009,42,195,,Sold,,,http://www.redfin.com/NV/North-Las-Vegas/3231-Kidd-St-89032/home/29819634,GLVAR,2246042,N,Y,36.2188116,-115.1761091
PAST SALE,January-29-2021,Single Family Residential,2205 Riderwood Ave,Las Vegas,NV,89032,305000,4,2.5,Desert Horizons #5,2004,6098,1994,84,152,,Sold,,,http://www.redfin.com/NV/North-Las-Vegas/2205-Riderwood-Ave-89032/home/29250302,GLVAR,2241373,N,Y,36.2278604,-115.1733994
PAST SALE,March-25-2021,Single Family Residential,116 Purple Passion Ave,North Las Vegas,NV,89032,335000,4,1.75,Alexander & N Fifth,1928,6534,2006,29,174,29,Sold,,,http://www.redfin.com/NV/North-Las-Vegas/116-Purple-Passion-Ave-89032/home/29046501,GLVAR,2272573,N,Y,36.229342,-115.13706
PAST SALE,February-26-2021,Single Family Residential,617 Blooming View Ave,North Las Vegas,NV,89032,325000,3,2.0,Craig Revere 80,1506,6098,1997,56,216,,Sold,,,http://www.redfin.com/NV/North-Las-Vegas/617-Blooming-View-Ave-89032/home/29236919,GLVAR,2264895,N,Y,36.234259,-115.1497063
PAST SALE,March-8-2021,Condo/Co-op,370 Clarence House Ave #103 Ave #3,Las Vegas,NV,89032,175000,2,2.0,Tripoly At Kings Hill,1220,,2006,46,143,205,Sold,,,http://www.redfin.com/NV/North-Las-Vegas/370-Clarence-House-Ave-89032/unit-3/home/29280996,GLVAR,2264025,N,Y,36.2385367,-115.1452362
PAST SALE,April-20-2021,Single Family Residential,4316 Brazil Palm Ct,North Las Vegas,NV,89032,330000,3,2.25,Craig & Palm,1981,6534,2016,3,167,66,Sold,,,http://www.redfin.com/NV/North-Las-Vegas/4316-Brazil-Palm-Ct-89032/home/109828046,GLVAR,2276779,N,Y,36.2380905,-115.155126
PAST SALE,April-22-2021,Single Family Residential,2508 Splendid Manor Ct,North Las Vegas,NV,89032,360000,3,2.5,Gilmore & Fuselier 1,2153,6098,2017,1,167,50,Sold,,,http://www.redfin.com/NV/North-Las-Vegas/2508-Splendid-Manor-Ct-89032/home/144624158,GLVAR,2276067,N,Y,36.2278479,-115.1765554
PAST SALE,April-22-2021,Single Family Residential,3736 Cima Dr,North Las Vegas,NV,89032,340000,3,2.0,Gowan Estate #2A,1247,6098,1995,1,273,,Sold,,,http://www.redfin.com/NV/North-Las-Vegas/3736-Cima-Dr-89032/home/29248358,GLVAR,2277441,N,Y,36.2278816,-115.1829642
PAST SALE,January-29-2021,Single Family Residential,3411 Chinacandle Ct,North Las Vegas,NV,89032,295000,3,2.0,Del Prado Highlands South,1515,10454,1996,84,195,,Sold,,,http://www.redfin.com/NV/North-Las-Vegas/3411-Chinacandle-Ct-89030/home/29254617,GLVAR,2258423,N,Y,36.2217349,-115.159156
PAST SALE,,Single Family Residential,325 Winter Breeze Ave,North Las Vegas,NV,89032,265000,3,2.0,,1659,6970,2006,,160,,,,,http://www.redfin.com/NV/North-Las-Vegas/325-Winter-Breeze-Ave-89032/home/29046479,,,N,Y,36.2303853,-115.1348828
PAST SALE,February-4-2021,Single Family Residential,413 Finch Ridge Ave,North Las Vegas,NV,89032,397000,5,4.5,Gleneagles,3224,6098,2002,78,123,30,Sold,,,http://www.redfin.com/NV/North-Las-Vegas/413-Finch-Ridge-Ave-89032/home/29909687,GLVAR,2256778,N,Y,36.2313585,-115.14607
PAST SALE,February-5-2021,Single Family Residential,3825 Blake Canyon Dr,North Las Vegas,NV,89032,346000,3,3.0,Allora At Davyn Ridge 2nd Amd,2184,3920,2018,77,158,42,Sold,,,http://www.redfin.com/NV/North-Las-Vegas/3825-Blake-Canyon-Dr-89032/home/145873550,GLVAR,2258340,N,Y,36.229268,-115.193217
PAST SALE,March-3-2021,Townhouse,3303 Dragon Fly St,North Las Vegas,NV,89032,190000,3,2.5,Cheyenne Gardens,1159,1307,2001,51,164,75,Sold,,,http://www.redfin.com/NV/North-Las-Vegas/3303-Dragon-Fly-St-89032/home/29858947,GLVAR,2250977,N,Y,36.2193939,-115.1846779
PAST SALE,March-8-2021,Single Family Residential,2705 Glory View Ln,North Las Vegas,NV,89032,257000,4,2.0,Victory 2,1342,6970,1999,46,192,,Sold,,,http://www.redfin.com/NV/North-Las-Vegas/2705-Glory-View-Ln-89032/home/29308454,GLVAR,2260181,N,Y,36.2007474,-115.1767576
PAST SALE,March-16-2021,Single Family Residential,2316 Hedgewood Dr,North Las Vegas,NV,89032,380000,3,2.5,Montero Amd,2152,10454,1990,38,177,,Sold,,,http://www.redfin.com/NV/North-Las-Vegas/2316-Hedgewood-Dr-89032/home/29240778,GLVAR,2269799,N,Y,36.2370722,-115.1752754
PAST SALE,February-16-2021,Single Family Residential,3974 Fire Fox Dr,North Las Vegas,NV,89032,354000,5,2.75,Laredo At Davyn Ridge,2859,6098,2008,66,124,42,Sold,,,http://www.redfin.com/NV/North-Las-Vegas/3974-Fire-Fox-Dr-89032/home/29781569,GLVAR,2260724,N,Y,36.2276859,-115.1932779
PAST SALE,February-18-2021,Single Family Residential,2121 Windhurst St,North Las Vegas,NV,89032,245000,3,2.0,Cambridge Heights Phase 2,1312,6098,1998,64,187,35,Sold,,,http://www.redfin.com/NV/North-Las-Vegas/2121-Windhurst-St-89032/home/29309630,GLVAR,2251766,N,Y,36.1980908,-115.1740711
PAST SALE,February-10-2021,Single Family Residential,4112 Bola Dr,North Las Vegas,NV,89032,312000,3,2.0,Las Brisas Norte Phase 2A,1618,6534,1994,72,193,,Sold,,,http://www.redfin.com/NV/North-Las-Vegas/4112-N-Bola-Dr-89032/home/29243012,GLVAR,2256028,N,Y,36.2345273,-115.1917644
PAST SALE,February-26-2021,Single Family Residential,4031 Blueberry Peak Ln,North Las Vegas,NV,89032,500000,6,4.5,Davyn Ridge,4070,6534,2020,56,123,,Sold,,,http://www.redfin.com/NV/North-Las-Vegas/4031-Blueberry-Peak-Ln-89032/home/166538149,GLVAR,2241524,N,Y,36.227777,-115.193846
PAST SALE,February-23-2021,Single Family Residential,4048 Rustic Oak Ct,North Las Vegas,NV,89032,298000,3,1.75,Montero,1334,6098,1992,59,223,,Sold,,,http://www.redfin.com/NV/North-Las-Vegas/4048-Rustic-Oak-Ct-89032/home/29240382,GLVAR,2263632,N,Y,36.233138,-115.1739553
PAST SALE,February-26-2021,Single Family Residential,3408 Helmsman Dr,North Las Vegas,NV,89032,333000,4,2.0,Casa Lindaa,1630,6098,1994,56,204,,Sold,,,http://www.redfin.com/NV/North-Las-Vegas/3408-Helmsman-89032/home/29238378,GLVAR,2263547,N,Y,36.2375383,-115.1864843
PAST SALE,March-2-2021,Single Family Residential,2111 Pilar Ave,North Las Vegas,NV,89032,325000,3,2.0,Desert Horizons #3,1522,5663,1993,52,214,,Sold,,,http://www.redfin.com/NV/North-Las-Vegas/2111-Pilar-Ave-89032/home/29250355,GLVAR,2263666,N,Y,36.2292517,-115.1727741
PAST SALE,March-8-2021,Single Family Residential,2316 Lone Ridge Ct,North Las Vegas,NV,89032,340000,3,2.5,Montero Amd,2324,9583,1989,46,146,,Sold,,,http://www.redfin.com/NV/North-Las-Vegas/2316-Lone-Ridge-Ct-89032/home/29239709,GLVAR,2255768,N,Y,36.2383328,-115.1753217
PAST SALE,,Single Family Residential,1932 Toscanini Way,North Las Vegas,NV,89032,166400,3,2.0,,1238,4356,1993,,134,,,,,http://www.redfin.com/NV/North-Las-Vegas/1932-Toscanini-Way-89032/home/29251312,,,N,Y,36.2268225,-115.1703192
PAST SALE,March-10-2021,Single Family Residential,4373 Valley Sage Dr,North Las Vegas,NV,89032,319000,3,2.0,San Mateo Valley,1440,7405,1993,44,222,,Sold,,,http://www.redfin.com/NV/North-Las-Vegas/4373-Valley-Sage-Dr-89032/home/29241248,GLVAR,2263711,N,Y,36.2370429,-115.2003792
PAST SALE,March-11-2021,Townhouse,3841 Thomas Patrick Ave,North Las Vegas,NV,89032,285000,3,2.5,Cheyenne Valley Innovative Resort Communities,1768,3049,2018,43,161,84,Sold,,,http://www.redfin.com/NV/North-Las-Vegas/3841-Thomas-Patrick-Ave-89032/home/146987735,GLVAR,2262102,N,Y,36.220452,-115.191085
PAST SALE,March-12-2021,Single Family Residential,4341 Yorkwood Dr,North Las Vegas,NV,89032,340000,4,2.0,Silver Mesa,1573,6098,1994,42,216,,Sold,,,http://www.redfin.com/NV/North-Las-Vegas/4341-Yorkwood-Dr-89032/home/29243892,GLVAR,2257813,N,Y,36.2292289,-115.1998928
PAST SALE,March-11-2021,Single Family Residential,1125 Frost Flower Dr,North Las Vegas,NV,89032,265000,3,2.5,Del Prado Highlands North,1727,6098,1996,43,153,,Sold,,,http://www.redfin.com/NV/North-Las-Vegas/1125-Frost-Flower-Dr-89032/home/29253693,GLVAR,2256842,N,Y,36.2286771,-115.1581369
PAST SALE,March-15-2021,Single Family Residential,1925 Pinsky Ln,North Las Vegas,NV,89032,291500,3,2.5,Diamante West,1719,4792,2018,39,170,77,Sold,,,http://www.redfin.com/NV/North-Las-Vegas/1925-Pinsky-Ln-89032/home/145863058,GLVAR,2232154,N,Y,36.217963,-115.16899
PAST SALE,March-5-2021,Single Family Residential,4122 Allyson Rae St,North Las Vegas,NV,89032,352400,4,2.0,North Meadows,1871,8276,2001,49,188,19,Sold,,,http://www.redfin.com/NV/North-Las-Vegas/4122-Allyson-Rae-St-89032/home/28964851,GLVAR,2267667,N,Y,36.2347006,-115.1534121
PAST SALE,March-3-2021,Condo/Co-op,1881 W Alexander Rd #2088,North Las Vegas,NV,89032,139500,2,2.0,Villas At Hidden Canyon,968,,2000,51,144,150,Sold,,,http://www.redfin.com/NV/North-Las-Vegas/1881-W-Alexander-Rd-89032/unit-2088/home/29251304,GLVAR,2263839,N,Y,36.231117,-115.1697223
PAST SALE,March-3-2021,Single Family Residential,4033 Celebration Cove St,North Las Vegas,NV,89032,315000,3,2.0,Alexander & Simmons,1987,6534,2014,51,159,50,Sold,,,http://www.redfin.com/NV/North-Las-Vegas/4033-Celebration-Cove-St-89032/home/65554532,GLVAR,2255855,N,Y,36.2333466,-115.1790503
PAST SALE,,Single Family Residential,3930 Blue Coral Dr,North Las Vegas,NV,89032,313000,4,2.0,,1718,9583,1995,,182,,,,,http://www.redfin.com/NV/North-Las-Vegas/3930-Blue-Coral-Dr-89032/home/29248640,,,N,Y,36.2245263,-115.1929686
PAST SALE,March-9-2021,Single Family Residential,3741 Round Robin St,North Las Vegas,NV,89032,293000,3,2.0,Gleneagles,1665,4792,2000,45,176,30,Sold,,,http://www.redfin.com/NV/North-Las-Vegas/3741-Round-Robin-St-89032/home/29825801,GLVAR,2268088,N,Y,36.227851,-115.1488725
PAST SALE,March-15-2021,Single Family Residential,337 Hopedale Ave,North Las Vegas,NV,89032,305000,3,2.0,Brentwood,1719,6534,2001,39,177,13,Sold,,,http://www.redfin.com/NV/North-Las-Vegas/337-Hopedale-Ave-89032/home/29237829,GLVAR,2251280,N,Y,36.2351627,-115.145491
PAST SALE,February-1-2021,Single Family Residential,4146 Dignified Ct,North Las Vegas,NV,89032,300000,4,2.5,Renaissance 2,1876,3920,2001,81,160,85,Sold,,,http://www.redfin.com/NV/North-Las-Vegas/4146-Dignified-Ct-89032/home/29823973,GLVAR,2256699,N,Y,36.2354739,-115.1409049
PAST SALE,March-16-2021,Single Family Residential,4121 Deep Space St,North Las Vegas,NV,89032,394888,4,3.5,Northstar Estate,3247,9583,2007,38,122,18,Sold,,,http://www.redfin.com/NV/North-Las-Vegas/4121-Deep-Space-St-89032/home/29061928,GLVAR,2265185,N,Y,36.2345626,-115.1605919
PAST SALE,February-11-2021,Single Family Residential,529 Robin Tree Ave,North Las Vegas,NV,89032,270000,3,2.0,Gleneagles Amd,1415,4792,2000,71,191,35,Sold,,,http://www.redfin.com/NV/North-Las-Vegas/529-Robin-Tree-Ave-89032/home/29825817,GLVAR,2253801,N,Y,36.2272603,-115.1483167
PAST SALE,January-25-2021,Single Family Residential,352 Copeland Ct,North Las Vegas,NV,89032,280000,3,2.0,Brentwood,1818,6098,2001,88,154,27,Sold,,,http://www.redfin.com/NV/North-Las-Vegas/352-Copeland-Ct-89032/home/29237821,GLVAR,2249225,N,Y,36.2348716,-115.1463479
