SALE TYPE,SOLD DATE,PROPERTY TYPE,ADDRESS,CITY,STATE OR PROVINCE,ZIP OR POSTAL CODE,PRICE,BEDS,BATHS,LOCATION,SQUARE FEET,LOT SIZE,YEAR BUILT,DAYS ON MARKET,$/SQUARE FEET,HOA/MONTH,STATUS,NEXT OPEN HOUSE START TIME,NEXT OPEN HOUSE END TIME,URL (SEE http://www.redfin.com/buy-a-home/comparative-market-analysis FOR INFO ON PRICING),SOURCE,MLS#,FAVORITE,INTERESTED,LATITUDE,LONGITUDE
PAST SALE,March-31-2021,Single Family Residential,4716 Mohawk River Ave,North Las Vegas,NV,89031,425000,4,3.0,Riverwalk Ranch Manor Estate,2357,7405,2007,21,180,20,Sold,,,http://www.redfin.com/NV/North-Las-Vegas/4716-Mohawk-River-Ave-89031/home/29597263,GLVAR,2270517,N,Y,36.2660134,-115.2061917
PAST SALE,January-28-2021,Single Family Residential,5616 Manzanita Trail St Lot 58,North Las Vegas,NV,89031,454000,5,3.5,Sedona Ranch,3166,5663,2020,83,143,47,Sold,,,http://www.redfin.com/NV/North-Las-Vegas/5616-Manzanita-Trail-St-89031/unit-58/home/173227236,GLVAR,2233204,N,Y,36.2623375,-115.1399826
PAST SALE,January-29-2021,Single Family Residential,3514 Ocatillo Mesa Way,North Las Vegas,NV,89031,320000,4,3.0,Schelling Estate Tr 1,2222,6098,2002,82,144,30,Sold,,,http://www.redfin.com/NV/North-Las-Vegas/3514-Ocatillo-Mesa-Way-89031/home/29892136,GLVAR,2257597,N,Y,36.2521705,-115.1876422
PAST SALE,January-26-2021,Single Family Residential,4532 Silverwind Rd,North Las Vegas,NV,89031,325000,4,2.0,Riverwalk Ranch Cove,1756,6098,2009,85,185,20,Sold,,,http://www.redfin.com/NV/North-Las-Vegas/4532-Silverwind-Rd-89031/home/30288569,GLVAR,2243225,N,Y,36.265004,-115.2039686
PAST SALE,February-5-2021,Single Family Residential,6041 Stern Cove Ct,North Las Vegas,NV,89031,357000,4,2.5,Riverwalk Ranch Twilight,2325,4792,2010,75,154,53,Sold,,,http://www.redfin.com/NV/North-Las-Vegas/6041-Stern-Cove-Ct-89031/home/39552375,GLVAR,2224975,N,Y,36.2702784,-115.2010739
PAST SALE,February-2-2021,Single Family Residential,4921 Finca St,North Las Vegas,NV,89031,350900,4,2.5,LA MADRE,1958,4356,2020,78,179,39,Sold,,,http://www.redfin.com/NV/North-Las-Vegas/Finca-St-89031/home/171695390,GLVAR,2258958,N,Y,36.2478,-115.1395
PAST SALE,January-29-2021,Single Family Residential,2018 El Campo Grande Ave,North Las Vegas,NV,89031,315000,4,2.0,Clayton El Campo Grande,1920,6098,2006,82,164,21,Sold,,,http://www.redfin.com/NV/North-Las-Vegas/2018-W-El-Campo-Grande-Ave-89031/home/29049341,GLVAR,2240384,N,Y,36.2657232,-115.1712919
PAST SALE,February-1-2021,Single Family Residential,2723 Frangipani Ct,North Las Vegas,NV,89031,287000,4,2.0,Tropical Breeze,1646,6098,1999,79,174,,Sold,,,http://www.redfin.com/NV/North-Las-Vegas/2723-Frangipani-Ct-89031/home/29079652,GLVAR,2256356,N,Y,36.2707489,-115.1789808
PAST SALE,February-12-2021,Single Family Residential,1942 Barrel Oak Ave Ave,North Las Vegas,NV,89031,310000,4,2.5,Eldorado Rcl #22 Tm #20 Phase 3,1984,3920,2007,68,156,21,Sold,,,http://www.redfin.com/NV/North-Las-Vegas/1942-Barrel-Oak-Ave-89031/home/29059984,GLVAR,2260427,N,Y,36.2614545,-115.1703192
PAST SALE,January-22-2021,Single Family Residential,5725 Bullhead St,North Las Vegas,NV,89031,360000,4,2.0,Riverwalk Ranch Cove,2397,6534,2009,89,150,39,Sold,,,http://www.redfin.com/NV/North-Las-Vegas/5725-Bullhead-St-89031/home/29477231,GLVAR,2257251,N,Y,36.2642303,-115.2034359
PAST SALE,March-5-2021,Townhouse,4650 Ranch House Rd #108,North Las Vegas,NV,89031,270000,4,3.25,MONTEVERDI,2026,1307,2008,47,133,225,Sold,,,http://www.redfin.com/NV/North-Las-Vegas/4650-Ranch-House-Rd-89031/unit-108/home/29779185,GLVAR,2154927,N,Y,36.2733483,-115.2041377
PAST SALE,January-22-2021,Single Family Residential,5121 Lydfort Ct,North Las Vegas,NV,89031,315000,4,1.75,Somerset Estate 1 Phase 1,1507,8276,1999,89,209,,Sold,,,http://www.redfin.com/NV/North-Las-Vegas/5121-Lydfort-Ct-89031/home/29081882,GLVAR,2254925,N,Y,36.2530399,-115.1860675
PAST SALE,,Single Family Residential,3612 Slapton Ave,North Las Vegas,NV,89031,290000,3,2.0,,1507,5663,1995,,192,,,,,http://www.redfin.com/NV/North-Las-Vegas/3612-Slapton-Ave-89031/home/29081918,,,N,Y,36.2539726,-115.1881054
PAST SALE,March-2-2021,Single Family Residential,3005 Robincrest Ct,North Las Vegas,NV,89031,282000,4,2.0,Hometown West,1381,6098,2001,50,204,19,Sold,,,http://www.redfin.com/NV/North-Las-Vegas/3005-Robincrest-Ct-89031/home/29889034,GLVAR,2263662,N,Y,36.2440109,-115.1815283
PAST SALE,April-6-2021,Single Family Residential,4604 Ferrell St,North Las Vegas,NV,89031,305000,4,2.0,Hometown West,1795,6098,2003,15,170,15,Sold,,,http://www.redfin.com/NV/North-Las-Vegas/4604-Ferrell-St-89031/home/29932512,GLVAR,2278392,N,Y,36.2432626,-115.1844232
PAST SALE,April-19-2021,Single Family Residential,4618 Zia Ridge St,North Las Vegas,NV,89031,260000,4,2.0,Hometown West,1775,6098,2003,2,146,17,Sold,,,http://www.redfin.com/NV/North-Las-Vegas/4618-Zia-Ridge-St-89031/home/29932486,GLVAR,2225499,N,Y,36.2438912,-115.1825936
PAST SALE,,Single Family Residential,4732 Petersburg Ln,North Las Vegas,NV,89031,268000,4,2.0,,1758,6098,1995,,152,,,,,http://www.redfin.com/NV/North-Las-Vegas/4732-Petersburg-Ln-89031/home/29239650,,,N,Y,36.2460841,-115.1756459
PAST SALE,April-19-2021,Single Family Residential,4347 Hera Temple Ave,North Las Vegas,NV,89031,293000,4,2.5,Maravilla,2006,2614,2005,2,146,115,Sold,,,http://www.redfin.com/NV/North-Las-Vegas/4347-Hera-Temple-Ave-89031/home/29012641,GLVAR,2278634,N,Y,36.262658,-115.199696
PAST SALE,March-15-2021,Single Family Residential,6225 Double Oak St,North Las Vegas,NV,89031,380000,4,3.0,Allen Manor,2362,6970,2007,37,161,62,Sold,,,http://www.redfin.com/NV/North-Las-Vegas/6225-Double-Oak-St-89031/home/29013593,GLVAR,2254088,N,Y,36.2736776,-115.1883138
PAST SALE,March-23-2021,Single Family Residential,3807 Shimmering Creek Ave,North Las Vegas,NV,89031,330000,4,2.0,Creekside One,1814,6098,2002,29,182,29,Sold,,,http://www.redfin.com/NV/North-Las-Vegas/3807-Shimmering-Creek-Ave-89031/home/29914680,GLVAR,2264098,N,Y,36.2680999,-115.190658
PAST SALE,April-12-2021,Single Family Residential,5113 Tropical Rain St,North Las Vegas,NV,89031,395000,4,3.5,Tierra De Las Palmas Village 4,2876,5663,1999,9,137,20,Sold,,,http://www.redfin.com/NV/North-Las-Vegas/5113-Tropical-Rain-St-89031/home/29082983,GLVAR,2275970,N,Y,36.2525353,-115.1778692
PAST SALE,February-12-2021,Single Family Residential,2918 Mastercraft Ave,North Las Vegas,NV,89031,327000,4,2.5,Somerset Ridge 3,2153,5663,2001,68,152,22,Sold,,,http://www.redfin.com/NV/North-Las-Vegas/2918-Mastercraft-Ave-89031/home/29925835,GLVAR,2260488,N,Y,36.2710939,-115.1807178
PAST SALE,April-2-2021,Single Family Residential,3021 Bayliner Ave,North Las Vegas,NV,89031,325000,4,2.5,Somerset Ridge 3,1842,5663,2001,19,176,17,Sold,,,http://www.redfin.com/NV/North-Las-Vegas/3021-Bayliner-Ave-89031/home/29852495,GLVAR,2278445,N,Y,36.2692798,-115.1819915
PAST SALE,February-22-2021,Single Family Residential,6040 Black Gold St,North Las Vegas,NV,89031,320000,4,2.5,Highland Hills,1946,4356,2003,58,164,55,Sold,,,http://www.redfin.com/NV/North-Las-Vegas/6040-N-Black-Gold-St-89031/home/29925724,GLVAR,2259702,N,Y,36.2701714,-115.1969518
PAST SALE,April-15-2021,Single Family Residential,4140 Midnight Crest Ave,North Las Vegas,NV,89031,405000,4,3.5,Centennial & Valley North,2508,4792,2019,6,161,63,Sold,,,http://www.redfin.com/NV/North-Las-Vegas/4140-Midnight-Crest-Ave-89084/home/167610944,GLVAR,2265360,N,Y,36.275957,-115.195843
PAST SALE,March-5-2021,Single Family Residential,2024 Port Antonio Ct,North Las Vegas,NV,89031,359900,4,2.5,Tierra De Las Palmas Village 1,2938,5663,1999,47,122,,Sold,,,http://www.redfin.com/NV/North-Las-Vegas/2024-Port-Antonio-Ct-89031/home/29083122,GLVAR,2253721,N,Y,36.2488666,-115.1718246
PAST SALE,March-10-2021,Single Family Residential,2112 Royal Antilles Ct,North Las Vegas,NV,89031,399900,6,4.5,Tierra De Las Palmas Village 1,3223,5663,1998,42,124,21,Sold,,,http://www.redfin.com/NV/North-Las-Vegas/2112-Royal-Antilles-Ct-89031/home/29083190,GLVAR,2250882,N,Y,36.2473875,-115.1723109
PAST SALE,March-5-2021,Single Family Residential,4520 Mohawk River Ave,North Las Vegas,NV,89031,420000,4,2.0,Riverwalk Ranch Manor Estate,2164,9583,2009,47,194,50,Sold,,,http://www.redfin.com/NV/North-Las-Vegas/4520-Mohawk-River-Ave-89031/home/29597271,GLVAR,2267720,N,Y,36.2659397,-115.2036907
PAST SALE,April-15-2021,Single Family Residential,4609 Catfish Bend Rd,North Las Vegas,NV,89031,385000,4,2.0,Riverwalk Ranch Cove Amd,2397,6970,2009,6,161,39,Sold,,,http://www.redfin.com/NV/North-Las-Vegas/4609-Catfish-Bend-Rd-89031/home/29792118,GLVAR,2277232,N,Y,36.2636632,-115.2045475
PAST SALE,April-6-2021,Single Family Residential,5539 Meedeldale St,North Las Vegas,NV,89031,430000,4,3.0,Annendale,2451,10454,2004,15,175,39,Sold,,,http://www.redfin.com/NV/North-Las-Vegas/5539-Meedeldale-St-89031/home/28982955,GLVAR,2272839,N,Y,36.2612609,-115.1977392
PAST SALE,February-8-2021,Single Family Residential,5130 Tropical Rain St,North Las Vegas,NV,89031,340000,5,2.5,Tierra De Las Palmas Village 4,2665,5663,2000,72,128,22,Sold,,,http://www.redfin.com/NV/North-Las-Vegas/5130-Tropical-Rain-St-89031/home/29083013,GLVAR,2240515,N,Y,36.2532555,-115.1773134
PAST SALE,February-24-2021,Single Family Residential,2410 Paradise Isle Ave,North Las Vegas,NV,89031,433000,6,3.5,Tierra De Las Palmas Village 4,3223,11326,2001,56,134,22,Sold,,,http://www.redfin.com/NV/North-Las-Vegas/2410-Paradise-Isle-Ave-89031/home/29847485,GLVAR,2258576,N,Y,36.2538951,-115.1758775
PAST SALE,March-12-2021,Single Family Residential,2417 Craggy Ledge Ave,North Las Vegas,NV,89031,415000,4,2.5,Granada Ridge,2791,7405,2005,40,149,,Sold,,,http://www.redfin.com/NV/North-Las-Vegas/2417-Craggy-Ledge-Ave-89031/home/28966817,GLVAR,2268721,N,Y,36.2739421,-115.176248
PAST SALE,February-16-2021,Single Family Residential,2112 W Caddo Mills Ave,Las Vegas,NV,89031,410000,4,3.0,Centennial Clayton By Pardee,2959,6970,2006,64,139,20,Sold,,,http://www.redfin.com/NV/North-Las-Vegas/2112-Caddo-Mills-Ave-89031/home/29060047,GLVAR,2261218,N,Y,36.2739954,-115.1723804
PAST SALE,April-1-2021,Single Family Residential,1902 Giant Rock Pl,North Las Vegas,NV,89031,305000,4,1.75,Eldorado 7-Rcl #14,1462,4356,1997,20,209,13,Sold,,,http://www.redfin.com/NV/North-Las-Vegas/1902-Giant-Rock-Pl-89031/home/29078067,GLVAR,2277707,N,Y,36.2706561,-115.1693002
PAST SALE,April-19-2021,Single Family Residential,4305 Shady Hollow Ave,North Las Vegas,NV,89031,525000,4,3.0,Meadow Valley,2509,21780,1983,2,209,,Sold,,,http://www.redfin.com/NV/North-Las-Vegas/4305-Shady-Hollow-Ave-89031/home/29240936,GLVAR,2274660,N,Y,36.2414719,-115.1987813
PAST SALE,February-19-2021,Single Family Residential,3584 Cantura Crest Ct,North Las Vegas,NV,89031,369000,4,3.0,Fiesta Del Centro,2283,6970,2005,61,162,37,Sold,,,http://www.redfin.com/NV/North-Las-Vegas/3584-Cantura-Crest-Ct-89031/home/29011217,GLVAR,2260925,N,Y,36.2630247,-115.1876654
PAST SALE,February-17-2021,Single Family Residential,4111 Amberdale Ave,North Las Vegas,NV,89031,320000,4,3.0,Annendale,2451,6098,2004,63,131,39,Sold,,,http://www.redfin.com/NV/North-Las-Vegas/4111-Amberdale-Ave-89031/home/28976736,GLVAR,2259640,N,Y,36.2610201,-115.1955392
PAST SALE,January-22-2021,Single Family Residential,5431 Cypress Creek St,North Las Vegas,NV,89031,285000,4,2.0,Northfork,1564,5663,1998,89,182,,Sold,,,http://www.redfin.com/NV/North-Las-Vegas/5431-Cypress-Creek-St-89031/home/29082486,GLVAR,2247307,N,Y,36.2591585,-115.1751596
PAST SALE,February-22-2021,Single Family Residential,5517 Cypress Creek St,North Las Vegas,NV,89031,314450,4,2.75,Northfork Amd,1882,5663,1997,58,167,,Sold,,,http://www.redfin.com/NV/North-Las-Vegas/5517-Cypress-Creek-St-89031/home/29082475,GLVAR,2254974,N,Y,36.2604041,-115.1751827
PAST SALE,February-26-2021,Single Family Residential,6102 Harvest Dance St,North Las Vegas,NV,89031,415000,5,3.0,Highland Hills,2879,6098,2002,54,144,55,Sold,,,http://www.redfin.com/NV/North-Las-Vegas/6102-Harvest-Dance-St-89031/home/29918072,GLVAR,2257575,N,Y,36.2707368,-115.1891244
PAST SALE,March-2-2021,Single Family Residential,5515 Amy Lynn St,North Las Vegas,NV,89031,399000,5,3.0,Ann & Allen,2877,6970,2004,50,139,37,Sold,,,http://www.redfin.com/NV/North-Las-Vegas/5515-Amy-Lynn-St-89031/home/28975995,GLVAR,2256027,N,Y,36.2603146,-115.1862064
PAST SALE,March-5-2021,Single Family Residential,1691 Running Creek Dr,North Las Vegas,NV,89031,375000,5,2.75,Eldorado-R1-65 #8,2365,6534,1994,47,159,10,Sold,,,http://www.redfin.com/NV/North-Las-Vegas/1691-Running-Creek-Dr-89031/home/29078416,GLVAR,2261047,N,Y,36.2647319,-115.165085
PAST SALE,April-7-2021,Single Family Residential,3732 Shimmering Creek Ave,Las Vegas,NV,89031,349000,4,2.5,Creekside One,1887,6098,2002,14,185,,Sold,,,http://www.redfin.com/NV/North-Las-Vegas/3732-Shimmering-Creek-Ave-89031/home/29916729,GLVAR,2241838,N,Y,36.2685024,-115.190236
PAST SALE,April-15-2021,Single Family Residential,5440 Whisper Bluff St,North Las Vegas,NV,89031,355000,4,2.5,Eldorado Rcl #22 Tm #20 Phase 2,2330,5227,2005,6,152,16,Sold,,,http://www.redfin.com/NV/North-Las-Vegas/5440-Whisper-Bluff-St-89031/home/29050243,GLVAR,2273525,N,Y,36.2593759,-115.1666599
PAST SALE,January-28-2021,Townhouse,4650 Ranch House Rd #119,North Las Vegas,NV,89031,265000,4,3.25,Monteverdi,2026,1307,2008,83,131,225,Sold,,,http://www.redfin.com/NV/North-Las-Vegas/4650-Ranch-House-Rd-89031/unit-119/home/29779213,GLVAR,2226649,N,Y,36.2733483,-115.2041377
PAST SALE,February-19-2021,Single Family Residential,4612 Dragon Fly Creek Ave,North Las Vegas,NV,89031,325000,4,2.0,Riverwalk Ranch High Noon Phase 2,1628,6098,2010,61,200,85,Sold,,,http://www.redfin.com/NV/North-Las-Vegas/4612-Dragon-Fly-Creek-Ave-89031/home/35654665,GLVAR,2248828,N,Y,36.27249,-115.2041307
PAST SALE,January-25-2021,Single Family Residential,4604 Mohawk River Ave,North Las Vegas,NV,89031,405000,4,3.0,Riverwalk Ranch Manor Estate,2357,7405,2007,86,172,39,Sold,,,http://www.redfin.com/NV/North-Las-Vegas/4604-Mohawk-River-Ave-89031/home/29597269,GLVAR,2251761,N,Y,36.2659945,-115.2041538
PAST SALE,February-18-2021,Single Family Residential,1320 Evans Canyon St,North Las Vegas,NV,89031,340000,4,2.5,Eldorado Rcl 23 Tentative Map 23 Phase 2,2392,6534,2014,62,142,48,Sold,,,http://www.redfin.com/NV/North-Las-Vegas/1320-Evans-Canyon-St-89031/home/65558359,GLVAR,2259085,N,Y,36.2602909,-115.1606683
PAST SALE,February-26-2021,Single Family Residential,4534 E Buddy Holly Ct,North Las Vegas,NV,89031,285000,4,2.0,Pizzaz,1257,11761,1994,54,227,,Sold,,,http://www.redfin.com/NV/North-Las-Vegas/4534-Buddy-Holly-Ct-89031/home/29080990,GLVAR,2256615,N,Y,36.2524381,-115.2045012
PAST SALE,February-25-2021,Single Family Residential,4521 Ocean Breeze Ave,North Las Vegas,NV,89031,340000,4,2.5,SUMMER BREEZE,1716,6970,1993,55,198,,Sold,,,http://www.redfin.com/NV/North-Las-Vegas/4521-Ocean-Breeze-Ave-89031/home/29081345,GLVAR,2261573,N,Y,36.2477377,-115.204038
PAST SALE,March-5-2021,Single Family Residential,1836 Monte Alban Dr,North Las Vegas,NV,89031,311000,4,2.5,Paseo Del Norte,1882,4356,1994,47,165,,Sold,,,http://www.redfin.com/NV/North-Las-Vegas/1836-Monte-Alban-Dr-89031/home/29084118,GLVAR,2264423,N,Y,36.250264,-115.1685127
PAST SALE,January-21-2021,Single Family Residential,2913 Chilly Nights Ave,North Las Vegas,NV,89031,325000,4,2.5,Autumn Chase,1887,6098,2004,90,172,42,Sold,,,http://www.redfin.com/NV/North-Las-Vegas/2913-Chilly-Nights-Ave-89031/home/28997990,GLVAR,2254878,N,Y,36.2495779,-115.1807872
PAST SALE,March-26-2021,Single Family Residential,4160 Rosada Way,North Las Vegas,NV,89031,505000,5,4.0,,3293,23522,2008,26,153,,Sold,,,http://www.redfin.com/NV/North-Las-Vegas/4160-W-Rosada-Way-89031/home/29050174,GLVAR,2269375,N,Y,36.2525368,-115.1961876
PAST SALE,March-26-2021,Single Family Residential,4533 Ferrell St,North Las Vegas,NV,89031,332000,4,2.0,Casa Linda -D,1860,6970,1990,26,178,,Sold,,,http://www.redfin.com/NV/North-Las-Vegas/4533-Ferrell-St-89031/home/29238682,GLVAR,2253954,N,Y,36.2428789,-115.1850716
PAST SALE,March-11-2021,Single Family Residential,1624 Golden Glen Ct,North Las Vegas,NV,89031,295000,4,2.5,Eldorado 3-Rcl #9,1722,6534,1995,41,171,,Sold,,,http://www.redfin.com/NV/North-Las-Vegas/1624-Golden-Glen-Ct-89031/home/29077409,GLVAR,2244492,N,Y,36.269954,-115.1649924
PAST SALE,March-11-2021,Single Family Residential,1316 Nature Loop Ave,North Las Vegas,NV,89031,328888,4,3.0,Eldorado Rcl 23 Tentative Map 23 Phase 2,2226,3485,2016,41,148,48,Sold,,,http://www.redfin.com/NV/North-Las-Vegas/1316-Nature-Loop-Ave-89031/home/109867341,GLVAR,2265199,N,Y,36.2605386,-115.1604067
PAST SALE,January-22-2021,Single Family Residential,1336 Red Hollow Dr,North Las Vegas,NV,89031,357500,4,3.0,Eldorado R1-65 #4,2328,6098,1990,89,154,12,Sold,,,http://www.redfin.com/NV/North-Las-Vegas/1336-Red-Hollow-Dr-89031/home/29079393,GLVAR,2243217,N,Y,36.2631558,-115.1607772
PAST SALE,February-11-2021,Single Family Residential,6308 Morning Roses Dr,North Las Vegas,NV,89031,335000,4,2.5,Highland Hills,1946,8712,2002,69,172,55,Sold,,,http://www.redfin.com/NV/North-Las-Vegas/6308-Morning-Roses-Dr-89031/home/29918943,GLVAR,2253758,N,Y,36.2743585,-115.1916486
PAST SALE,January-28-2021,Single Family Residential,6020 Estrapade St,North Las Vegas,NV,89031,355000,4,2.0,Rancho Del Sol Norte-Phase 1,2230,6534,1998,83,159,,Sold,,,http://www.redfin.com/NV/North-Las-Vegas/6020-Estrapade-St-89031/home/29079784,GLVAR,2247968,N,Y,36.2700668,-115.1721951
PAST SALE,January-21-2021,Single Family Residential,4632 Stearman Dr,North Las Vegas,NV,89031,335000,4,2.5,Skyview North,2099,6098,1993,90,160,,Sold,,,http://www.redfin.com/NV/North-Las-Vegas/4632-Stearman-89031/home/29242624,GLVAR,2250786,N,Y,36.244198,-115.1897265
PAST SALE,March-16-2021,Single Family Residential,5346 Ferrell St,North Las Vegas,NV,89031,310000,4,2.0,Celebrate Homes-8,1822,5663,2000,36,170,,Sold,,,http://www.redfin.com/NV/North-Las-Vegas/5346-Ferrell-St-89031/home/29843746,GLVAR,2268455,N,Y,36.2570583,-115.1842611
PAST SALE,March-3-2021,Single Family Residential,1844 Panther Pl,North Las Vegas,NV,89031,320000,4,2.0,Arroyo Grande,1823,5227,1998,49,176,,Sold,,,http://www.redfin.com/NV/North-Las-Vegas/1844-Panther-Pl-89031/home/29083378,GLVAR,2264053,N,Y,36.2556837,-115.1686054
PAST SALE,April-8-2021,Single Family Residential,2020 Port Antonio Ct,North Las Vegas,NV,89031,352000,5,2.5,Tierra De Las Palmas Village 1,2225,6534,1999,13,158,60,Sold,,,http://www.redfin.com/NV/North-Las-Vegas/2020-Port-Antonio-Ct-89031/home/29083129,GLVAR,2274314,N,Y,36.2488434,-115.1716625
PAST SALE,March-23-2021,Single Family Residential,1208 Teal Island Dr,North Las Vegas,NV,89031,295000,4,2.0,Sterling Pointe,1760,5663,1993,29,168,,Sold,,,http://www.redfin.com/NV/North-Las-Vegas/1208-Teal-Island-Dr-89031/home/29084797,GLVAR,2261041,N,Y,36.2475428,-115.1583222
PAST SALE,,Single Family Residential,5123 Del Shannon St,North Las Vegas,NV,89031,210000,4,2.0,,1257,5663,1994,,167,,,,,http://www.redfin.com/NV/North-Las-Vegas/5123-Del-Shannon-St-89031/home/29080828,,,N,Y,36.2532456,-115.2070948
PAST SALE,April-16-2021,Single Family Residential,4510 Turkey Ridge Ct,North Las Vegas,NV,89031,344100,4,2.5,Dove Canyon,2211,3920,2002,5,156,64,Sold,,,http://www.redfin.com/NV/North-Las-Vegas/4510-Turkey-Ridge-Ct-89031/home/29890891,GLVAR,2271690,N,Y,36.2565029,-115.2030191
PAST SALE,February-1-2021,Single Family Residential,6124 Paddleboat St,North Las Vegas,NV,89031,340000,4,3.0,Riverwalk Ranch Twilight,2961,4792,2012,79,115,54,Sold,,,http://www.redfin.com/NV/North-Las-Vegas/6124-Paddleboat-St-89031/home/45356343,GLVAR,2217976,N,Y,36.2714976,-115.2002402
PAST SALE,February-12-2021,Single Family Residential,5721 Bullhead St,North Las Vegas,NV,89031,372000,4,2.0,Riverwalk Ranch Cove,1936,6098,2009,68,192,39,Sold,,,http://www.redfin.com/NV/North-Las-Vegas/5721-Bullhead-St-89031/home/29477234,GLVAR,2262422,N,Y,36.2641112,-115.2034359
PAST SALE,February-25-2021,Single Family Residential,5041 Ruby Sunset St,North Las Vegas,NV,89031,360000,6,3.0,R & S Alexander 2,2424,7841,2009,55,149,47,Sold,,,http://www.redfin.com/NV/North-Las-Vegas/5041-Ruby-Sunset-St-89031/home/29312685,GLVAR,2258496,N,Y,36.2522919,-115.1403027
PAST SALE,March-26-2021,Single Family Residential,4721 Cedar Ranch Ct,North Las Vegas,NV,89031,330000,4,2.0,Lone Mountain & Commerce,1983,6534,2003,26,166,39,Sold,,,http://www.redfin.com/NV/North-Las-Vegas/4721-Cedar-Ranch-Ct-89031/home/28973332,GLVAR,2268458,N,Y,36.245885,-115.1405343
PAST SALE,March-5-2021,Single Family Residential,4913 Finca St,North Las Vegas,NV,89031,349900,4,2.5,LA MADRE,1958,4356,2020,47,179,39,Sold,,,http://www.redfin.com/NV/North-Las-Vegas/Finca-St-89031/home/171695392,GLVAR,2258965,N,Y,36.2478,-115.1395
PAST SALE,February-22-2021,Single Family Residential,351 Nativo Ave,North Las Vegas,NV,89031,351900,4,2.5,LA MADRE,1958,4356,2020,58,180,39,Sold,,,http://www.redfin.com/NV/North-Las-Vegas/Nativo-Ave-89031/home/171695395,GLVAR,2258967,N,Y,36.2478,-115.1395
PAST SALE,April-9-2021,Single Family Residential,4912 Madre Maria Ct,North Las Vegas,NV,89031,370000,5,3.0,La Madre Goldfield,2883,9148,2007,12,128,75,Sold,,,http://www.redfin.com/NV/North-Las-Vegas/4912-N-Madre-Maria-Ct-89031/home/29477721,GLVAR,2259133,N,Y,36.2491723,-115.1399553
PAST SALE,April-13-2021,Single Family Residential,359 Nativo Ave,North Las Vegas,NV,89031,353900,4,2.5,LA MADRE,1958,4356,2020,8,181,39,Sold,,,http://www.redfin.com/NV/North-Las-Vegas/Nativo-Ave-89031/home/171695397,GLVAR,2258970,N,Y,36.2478,-115.1395
PAST SALE,April-19-2021,Single Family Residential,208 Melon Aroma Ave,North Las Vegas,NV,89031,337500,4,3.0,Commerce Verde,1975,6098,2005,2,171,29,Sold,,,http://www.redfin.com/NV/North-Las-Vegas/208-Melon-Aroma-Ave-89031/home/29020251,GLVAR,2271645,N,Y,36.2522588,-115.1427579
PAST SALE,February-2-2021,Single Family Residential,25 Raptors View Ave,North Las Vegas,NV,89031,372000,5,3.0,Sierra Ranch-Village 6,3934,6970,2007,78,95,155,Sold,,,http://www.redfin.com/NV/North-Las-Vegas/25-Raptors-View-Ave-89031/home/29269809,GLVAR,2253463,N,Y,36.2670124,-115.1385887
PAST SALE,February-11-2021,Single Family Residential,305 Raptors View Ave,North Las Vegas,NV,89031,330000,4,2.5,Sierra Ranch-Village 6,2825,6534,2006,69,117,155,Sold,,,http://www.redfin.com/NV/North-Las-Vegas/305-Raptors-View-Ave-89031/home/29059957,GLVAR,2208557,N,Y,36.267017,-115.1365273
PAST SALE,March-3-2021,Single Family Residential,221 Raptors View Ave,North Las Vegas,NV,89031,415000,4,2.5,Sierra Ranch-Village 6,3934,6534,2007,49,105,139,Sold,,,http://www.redfin.com/NV/North-Las-Vegas/221-Raptors-View-Ave-89031/home/29059969,GLVAR,2261490,N,Y,36.2670135,-115.1368979
PAST SALE,February-8-2021,Single Family Residential,5736 Dazzling Sparks St,North Las Vegas,NV,89031,307000,4,2.0,Santa Rosa,1825,6098,2004,72,168,33,Sold,,,http://www.redfin.com/NV/North-Las-Vegas/5736-N-Dazzling-Sparks-St-89031/home/28996996,GLVAR,2248138,N,Y,36.264369,-115.1497758
PAST SALE,February-12-2021,Single Family Residential,205 Delighted Ave,North Las Vegas,NV,89031,377500,4,4.5,Mountain Shadow,3150,4792,2008,68,120,110,Sold,,,http://www.redfin.com/NV/North-Las-Vegas/205-Delighted-Ave-89031/home/29476786,GLVAR,2256667,N,Y,36.2738033,-115.1426652
PAST SALE,March-24-2021,Single Family Residential,4136 Midnight Crest Ave,North Las Vegas,NV,89031,405000,4,2.5,Centennial & Valley North,2381,4792,2019,28,170,63,Sold,,,http://www.redfin.com/NV/North-Las-Vegas/4136-Midnight-Crest-Ave-89031/home/167610943,GLVAR,2269452,N,Y,36.2759598,-115.1957895
PAST SALE,March-26-2021,Single Family Residential,4420 Cayuse St,North Las Vegas,NV,89031,425000,5,4.0,PALOMINO EST,3004,15246,1986,26,141,33,Sold,,,http://www.redfin.com/NV/North-Las-Vegas/4420-Cayuse-St-89031/home/29240651,GLVAR,2175823,N,Y,36.2434756,-115.2033896
PAST SALE,February-22-2021,Single Family Residential,4629 Silverwind Rd,North Las Vegas,NV,89031,375000,4,2.75,Riverwalk Ranch Cove,1672,6098,2007,58,224,39,Sold,,,http://www.redfin.com/NV/North-Las-Vegas/4629-Silverwind-Rd-89031/home/29477222,GLVAR,2262254,N,Y,36.264529,-115.2052885
PAST SALE,February-26-2021,Single Family Residential,4629 La Madre Way,North Las Vegas,NV,89031,315000,4,2.5,Summer Breeze Phase 1,1716,6970,1993,54,184,,Sold,,,http://www.redfin.com/NV/North-Las-Vegas/4629-W-La-Madre-Way-89031/home/29081290,GLVAR,2238177,N,Y,36.2502497,-115.2059369
PAST SALE,April-20-2021,Single Family Residential,6010 Kitamaya St,North Las Vegas,NV,89031,337000,4,2.0,Alexander Station #3,1726,6098,2001,1,195,19,Sold,,,http://www.redfin.com/NV/North-Las-Vegas/6010-Kitamaya-St-89031/home/29842691,GLVAR,2278402,N,Y,36.2696498,-115.1482703
PAST SALE,February-5-2021,Single Family Residential,6126 Rising Cir,North Las Vegas,NV,89031,350000,4,3.0,Eldorado #2B-R1-70 #1,2425,8276,1998,75,144,13,Sold,,,http://www.redfin.com/NV/North-Las-Vegas/6126-Rising-Cir-89031/home/29078713,GLVAR,2254217,N,Y,36.2718352,-115.1583685
PAST SALE,February-25-2021,Single Family Residential,913 Cascade Light Ave,North Las Vegas,NV,89031,395000,6,2.5,Granada Pointe,3304,6098,2006,55,120,45,Sold,,,http://www.redfin.com/NV/North-Las-Vegas/913-Cascade-Light-Ave-89031/home/29050088,GLVAR,2262325,N,Y,36.2499088,-115.154408
PAST SALE,April-7-2021,Single Family Residential,6117 Starpoint Rd,North Las Vegas,NV,89031,453000,5,2.75,Eldorado #2B-R1-70 #1,3040,6970,1999,14,149,18,Sold,,,http://www.redfin.com/NV/North-Las-Vegas/6117-Starpoint-Rd-89031/home/29078799,GLVAR,2271503,N,Y,36.2715644,-115.1617036
PAST SALE,,Single Family Residential,1353 Stable Glen Dr,North Las Vegas,NV,89031,360000,5,3.0,,2931,7841,1998,,123,,,,,http://www.redfin.com/NV/North-Las-Vegas/1353-Stable-Glen-Dr-89031/home/29078825,,,N,Y,36.2721623,-115.160453
PAST SALE,March-26-2021,Single Family Residential,2614 Paradise Isle Ave,North Las Vegas,NV,89031,340000,4,3.5,Tierra De Las Palmas Village 4,2665,5663,2001,26,128,60,Sold,,,http://www.redfin.com/NV/North-Las-Vegas/2614-Paradise-Isle-Ave-89031/home/29853339,GLVAR,2264715,N,Y,36.2539294,-115.1779387
PAST SALE,March-29-2021,Single Family Residential,529 Willowick Ave,North Las Vegas,NV,89031,285000,4,2.0,Rancho Ridge 2,1498,6098,1995,23,190,,Sold,,,http://www.redfin.com/NV/North-Las-Vegas/529-Willowick-Ave-89031/home/29076985,GLVAR,2268912,N,Y,36.2655681,-115.1494747
PAST SALE,January-21-2021,Single Family Residential,3601 Hammer Ln,North Las Vegas,NV,89031,335000,4,2.75,Ann Allen By Pardee,2283,6098,2002,90,147,25,Sold,,,http://www.redfin.com/NV/North-Las-Vegas/3601-W-Hammer-Ln-89031/home/29891767,GLVAR,2254839,N,Y,36.2576421,-115.1879433
PAST SALE,March-9-2021,Single Family Residential,17 Deseo Ct,North Las Vegas,NV,89031,370900,4,2.5,LA MADRE,2208,4512,2021,43,168,39,Sold,,,http://www.redfin.com/NV/North-Las-Vegas/Unknown-89031/home/171695421,GLVAR,2264169,N,Y,36.2478,-115.1395
PAST SALE,February-22-2021,Single Family Residential,137 Rosa Rosales Ct,North Las Vegas,NV,89031,281000,5,2.5,Commerce Village,2116,5227,2009,58,133,44,Sold,,,http://www.redfin.com/NV/North-Las-Vegas/137-Rosa-Rosales-Ct-89031/home/29027308,GLVAR,2259129,N,Y,36.2437847,-115.1431748
PAST SALE,February-26-2021,Single Family Residential,4905 Finca St,North Las Vegas,NV,89031,351900,4,2.5,LA MADRE,1958,4356,2020,54,180,39,Sold,,,http://www.redfin.com/NV/North-Las-Vegas/Finca-St-89031/home/171695394,GLVAR,2258966,N,Y,36.2478,-115.1395
PAST SALE,March-26-2021,Single Family Residential,4628 Del Laguna Ct,North Las Vegas,NV,89031,350000,4,2.0,Goldfield 4,2091,6970,2013,26,167,47,Sold,,,http://www.redfin.com/NV/North-Las-Vegas/4628-N-Del-Laguna-Ct-89031/home/65555911,GLVAR,2272731,N,Y,36.2443861,-115.1383571
PAST SALE,February-3-2021,Single Family Residential,5921 Vista Creek St,North Las Vegas,NV,89031,410000,4,2.5,Sierra Ranch-Village 6,3934,6098,2008,77,104,155,Sold,,,http://www.redfin.com/NV/North-Las-Vegas/5921-Vista-Creek-St-89031/home/29269759,GLVAR,2250443,N,Y,36.2679423,-115.1373611
PAST SALE,March-2-2021,Single Family Residential,5925 Vista Creek St,North Las Vegas,NV,89031,322000,4,2.0,Sierra Ranch-Village 6,2155,6098,2008,50,149,139,Sold,,,http://www.redfin.com/NV/North-Las-Vegas/5925-Vista-Creek-St-89031/home/29269758,GLVAR,2238436,N,Y,36.2681012,-115.1373611
PAST SALE,March-16-2021,Single Family Residential,5016 Monte Del Sol Ln,North Las Vegas,NV,89031,375000,5,2.5,La Quinta Spgs,2242,6098,1990,36,167,,Sold,,,http://www.redfin.com/NV/North-Las-Vegas/5016-Monte-Del-Sol-Ln-89031/home/29083767,GLVAR,2253366,N,Y,36.2511204,-115.1641586
PAST SALE,February-23-2021,Single Family Residential,107 Red Sandstone Lot 47,North Las Vegas,NV,89031,429990,5,4.0,Sedona Ranch,3166,5227,2020,57,136,50,Sold,,,http://www.redfin.com/NV/North-Las-Vegas/107-Red-Sandstone-Ave-89031/unit-47/home/172031635,GLVAR,2263149,N,Y,36.262057,-115.141389
PAST SALE,February-22-2021,Single Family Residential,3 Red Sandstone Lot 56,North Las Vegas,NV,89031,401666,4,3.0,Sedona Ranch,2021,7841,2020,58,199,47,Sold,,,http://www.redfin.com/NV/North-Las-Vegas/3-Red-Sandstone-Ave-89031/unit-56/home/173227122,GLVAR,2233193,N,Y,36.2618432,-115.1396098
PAST SALE,January-29-2021,Single Family Residential,208 Iron Summit Ave,North Las Vegas,NV,89031,333000,4,2.75,Sierra Ranch-Village 7,2354,5663,2007,82,141,134,Sold,,,http://www.redfin.com/NV/North-Las-Vegas/208-Iron-Summit-Ave-89031/home/29269034,GLVAR,2239149,N,Y,36.2710544,-115.1373843
PAST SALE,April-19-2021,Single Family Residential,71 Dreamy Hill Ave,North Las Vegas,NV,89031,335000,4,3.0,Sierra Ranch-Village 2,2306,4356,2006,2,145,103,Sold,,,http://www.redfin.com/NV/North-Las-Vegas/71-Dreamy-Hill-Ave-89031/home/29247417,GLVAR,2277551,N,Y,36.2699279,-115.1409976
PAST SALE,April-16-2021,Single Family Residential,351 Caneflower Ct,North Las Vegas,NV,89031,389000,5,3.0,Tropical Sands,2907,4792,2012,5,134,172,Sold,,,http://www.redfin.com/NV/North-Las-Vegas/351-Caneflower-Ct-89031/home/52625824,GLVAR,2270551,N,Y,36.2693535,-115.1460468
PAST SALE,March-16-2021,Single Family Residential,1423 Grey Knoll Cir,North Las Vegas,NV,89031,318400,4,2.5,Eldorado-Rcl,1817,4792,1989,36,175,10,Sold,,,http://www.redfin.com/NV/North-Las-Vegas/1423-Grey-Knoll-Cir-89031/home/29078643,GLVAR,2268627,N,Y,36.2658866,-115.1617036
PAST SALE,February-26-2021,Single Family Residential,535 Country Hill Dr,North Las Vegas,NV,89031,292000,4,2.0,Rancho Ridge 2,1498,6098,1996,54,195,,Sold,,,http://www.redfin.com/NV/North-Las-Vegas/535-Country-Hill-Dr-89031/home/29077534,GLVAR,2265208,N,Y,36.2669164,-115.14966
PAST SALE,April-13-2021,Single Family Residential,5934 Hilmont St,North Las Vegas,NV,89031,312000,4,2.5,Rancho Ridge 2,1756,5663,2000,8,178,,Sold,,,http://www.redfin.com/NV/North-Las-Vegas/5934-Hilmont-St-89031/home/29077507,GLVAR,2273588,N,Y,36.2686031,-115.1497527
PAST SALE,March-2-2021,Single Family Residential,4808 Goldeneye Way,North Las Vegas,NV,89031,288000,4,2.0,Shadow Ridge-Phase 1,1955,5663,1991,50,147,,Sold,,,http://www.redfin.com/NV/North-Las-Vegas/4808-Goldeneye-Way-89031/home/29084736,GLVAR,2264517,N,Y,36.2472361,-115.1561451
PAST SALE,February-8-2021,Single Family Residential,1905 Camino Mirada,North Las Vegas,NV,89031,325000,4,2.0,Villas De Vientos,1995,6098,1996,72,163,,Sold,,,http://www.redfin.com/NV/North-Las-Vegas/1905-Cam-Mirada-89031/home/29084158,GLVAR,2257657,N,Y,36.2476454,-115.1687675
PAST SALE,March-30-2021,Single Family Residential,2112 Port Antonio Ct,North Las Vegas,NV,89031,373000,4,2.5,Tierra De Las Palmas Village 1,2225,5663,1999,22,168,54,Sold,,,http://www.redfin.com/NV/North-Las-Vegas/2112-Port-Antonio-Ct-89031/home/29083125,GLVAR,2235145,N,Y,36.2488569,-115.1723109
PAST SALE,March-31-2021,Single Family Residential,1315 Hill Spring Ct,North Las Vegas,NV,89031,335000,4,2.5,Highland Springs-Phase 2,2220,5663,1992,21,151,21,Sold,,,http://www.redfin.com/NV/North-Las-Vegas/1315-Hill-Spring-Ct-89031/home/29084604,GLVAR,2267863,N,Y,36.2492654,-115.1609162
PAST SALE,March-2-2021,Single Family Residential,6150 Circling Hawk Dr,North Las Vegas,NV,89031,365000,4,3.0,Eldorado #5-R1-60 #3,2206,7405,1997,50,165,13,Sold,,,http://www.redfin.com/NV/North-Las-Vegas/6150-Circling-Hawk-Dr-89031/home/29077288,GLVAR,2260957,N,Y,36.2732579,-115.1651314
PAST SALE,March-5-2021,Single Family Residential,3373 Prow Ct,North Las Vegas,NV,89031,360000,4,2.5,Rosemont Estate,2262,4792,2007,47,159,95,Sold,,,http://www.redfin.com/NV/North-Las-Vegas/3373-Prow-Ct-89031/home/29059816,GLVAR,2262415,N,Y,36.2627042,-115.1854653
PAST SALE,March-24-2021,Single Family Residential,3018 San Niccolo Ct,North Las Vegas,NV,89031,449000,5,3.0,Cortona-Phase 2,3720,6534,2006,28,121,50,Sold,,,http://www.redfin.com/NV/North-Las-Vegas/3018-San-Niccolo-Ct-89031/home/29269660,GLVAR,2262391,N,Y,36.2738886,-115.181621
PAST SALE,February-3-2021,Single Family Residential,5327 Crestpoint Watch Ct,North Las Vegas,NV,89031,355000,6,3.0,Madera,2425,6098,2002,77,146,19,Sold,,,http://www.redfin.com/NV/North-Las-Vegas/5327-Crestpoint-Watch-Ct-89031/home/29922542,GLVAR,2238281,N,Y,36.2573639,-115.1540143
PAST SALE,March-5-2021,Single Family Residential,1027 Jason Alexander Ave,Las Vegas,NV,89031,436000,4,2.5,Breccia Bay,2547,6970,2019,47,171,95,Sold,,,http://www.redfin.com/NV/North-Las-Vegas/1027-Jason-Alexander-Ave-89031/home/167612834,GLVAR,2256389,N,Y,36.2582,-115.157444
PAST SALE,March-1-2021,Single Family Residential,4721 Goldfield St,North Las Vegas,NV,89031,330000,4,2.0,Lone Mountain & Commerce,2150,6098,2004,51,153,35,Sold,,,http://www.redfin.com/NV/North-Las-Vegas/4721-N-Goldfield-St-89031/home/28975710,GLVAR,2262922,N,Y,36.2459187,-115.1395847
PAST SALE,,Townhouse,4548 Roaming Vines St,North Las Vegas,NV,89031,300000,4,3.0,,2224,3920,2018,,135,,,,,http://www.redfin.com/NV/North-Las-Vegas/4548-Roaming-Vines-St-89031/home/145866488,,,N,Y,36.2424634,-115.1757016
PAST SALE,March-10-2021,Single Family Residential,3724 Dauntless Dr,North Las Vegas,NV,89031,365000,4,2.5,Skyview North,2033,6098,1990,42,180,,Sold,,,http://www.redfin.com/NV/North-Las-Vegas/3724-Dauntless-89031/home/29242986,GLVAR,2261425,N,Y,36.242613,-115.190013
PAST SALE,March-4-2021,Single Family Residential,3821 Caribbean Blue Ave,North Las Vegas,NV,89031,320300,4,2.5,Highland Hills,1946,4356,2003,48,165,55,Sold,,,http://www.redfin.com/NV/North-Las-Vegas/3821-Caribbean-Blue-Ave-89031/home/29925878,GLVAR,2240494,N,Y,36.2754609,-115.1910697
PAST SALE,March-12-2021,Single Family Residential,4905 Eagle Way,North Las Vegas,NV,89031,350900,4,2.5,LA MADRE,1958,4356,2020,40,179,39,Sold,,,http://www.redfin.com/NV/North-Las-Vegas/4905-Eagle-Way-89031/home/171695411,GLVAR,2268618,N,Y,36.2488417,-115.1375329
PAST SALE,February-5-2021,Single Family Residential,3202 Fontana Colony Ct,North Las Vegas,NV,89031,300000,4,2.0,Hometown West,1775,6098,2002,75,169,15,Sold,,,http://www.redfin.com/NV/North-Las-Vegas/3202-Fontana-Colony-Ct-89031/home/29917021,GLVAR,2258440,N,Y,36.24582,-115.183644
PAST SALE,February-5-2021,Single Family Residential,5443 Meadow Saffron Ct,North Las Vegas,NV,89031,298999,4,2.5,Arbor Gate 2 Amd,1998,4356,1999,75,150,60,Sold,,,http://www.redfin.com/NV/North-Las-Vegas/5443-Meadow-Saffron-Ct-89031/home/29080233,GLVAR,2239306,N,Y,36.2594031,-115.2047791
PAST SALE,March-18-2021,Single Family Residential,4532 Catfish Bend Rd,North Las Vegas,NV,89031,384999,4,3.0,Riverwalk Ranch Cove,1672,8712,2009,34,230,20,Sold,,,http://www.redfin.com/NV/North-Las-Vegas/4532-Catfish-Bend-Rd-89031/home/29477647,GLVAR,2270507,N,Y,36.2640512,-115.2039686
PAST SALE,March-19-2021,Single Family Residential,6032 River Belle St,North Las Vegas,NV,89031,372500,4,2.5,Riverwalk Ranch Twilight,2341,4792,2012,33,159,15,Sold,,,http://www.redfin.com/NV/North-Las-Vegas/6032-River-Belle-St-89031/home/40547847,GLVAR,2265343,N,Y,36.2701961,-115.1984339
PAST SALE,,Single Family Residential,5190 N Commerce St,North Las Vegas,NV,89031,950000,4,2.0,,1836,180774,1981,,517,,,,,http://www.redfin.com/NV/North-Las-Vegas/5190-N-Commerce-St-89031/home/29086872,,,N,Y,36.253324,-115.1433699
PAST SALE,,Single Family Residential,421 Don Fernando Cir,North Las Vegas,NV,89031,309000,5,2.0,,1950,6098,1994,,158,,,,,http://www.redfin.com/NV/North-Las-Vegas/421-Don-Fernando-Cir-89031/home/29085737,,,N,Y,36.2515484,-115.1464637
PAST SALE,February-17-2021,Single Family Residential,5408 Emerald Basin St,North Las Vegas,NV,89031,325000,4,3.0,Eldorado Rcl 23 Tentative Map 23 Phase 2,2226,3485,2016,63,146,48,Sold,,,http://www.redfin.com/NV/North-Las-Vegas/5408-Emerald-Basin-St-89031/home/109627964,GLVAR,2261324,N,Y,36.2582158,-115.159874
PAST SALE,April-13-2021,Single Family Residential,5313 Appleside St,North Las Vegas,NV,89031,375777,4,2.5,Madera,2562,5663,2003,8,147,19,Sold,,,http://www.redfin.com/NV/North-Las-Vegas/5313-Appleside-St-89031/home/29923785,GLVAR,2278910,N,Y,36.2566635,-115.1576737
PAST SALE,March-16-2021,Single Family Residential,6113 Flaming Arrow Rd,North Las Vegas,NV,89031,402400,4,2.75,Eldorado #5-R1-60 #2,2234,6534,1995,36,180,13,Sold,,,http://www.redfin.com/NV/North-Las-Vegas/6113-Flaming-Arrow-Rd-89031/home/29077312,GLVAR,2268167,N,Y,36.2717762,-115.1664283
PAST SALE,March-5-2021,Single Family Residential,4908 Eagle Way,North Las Vegas,NV,89031,349900,4,2.5,LA MADRE,1958,4356,2020,47,179,39,Sold,,,http://www.redfin.com/NV/North-Las-Vegas/4908-Eagle-Way-89031/home/171695399,GLVAR,2266159,N,Y,36.2488672,-115.1370913
PAST SALE,March-24-2021,Single Family Residential,4913 Eagle Way,North Las Vegas,NV,89031,348900,4,2.5,LA MADRE,1958,4356,2020,28,178,39,Sold,,,http://www.redfin.com/NV/North-Las-Vegas/4913-Eagle-Way-89031/home/171695409,GLVAR,2262523,N,Y,36.2490055,-115.1375334
PAST SALE,March-26-2021,Single Family Residential,4920 Eagle Way,North Las Vegas,NV,89031,348900,4,2.5,LA MADRE,1958,4356,2020,26,178,39,Sold,,,http://www.redfin.com/NV/North-Las-Vegas/4920-Eagle-Way-89031/home/171695402,GLVAR,2262524,N,Y,36.2490272,-115.1370918
PAST SALE,April-5-2021,Single Family Residential,17 La Madre Way,North Las Vegas,NV,89031,355000,6,2.75,La Madre Goldfield,2442,6098,2007,16,145,95,Sold,,,http://www.redfin.com/NV/North-Las-Vegas/17-W-La-Madre-Way-89031/home/29477712,GLVAR,2264928,N,Y,36.2503697,-115.1398785
PAST SALE,February-26-2021,Single Family Residential,5921 Caddy Ridge St,North Las Vegas,NV,89031,395000,4,2.5,Sierra Ranch-Village 6,3376,6098,2006,54,117,150,Sold,,,http://www.redfin.com/NV/North-Las-Vegas/5921-N-Caddy-Ridge-St-89031/home/29059987,GLVAR,2255791,N,Y,36.2679157,-115.1365041
PAST SALE,,Single Family Residential,5527 Foxtail Ridge St,North Las Vegas,NV,89031,306800,4,3.0,,1882,6098,1996,,163,,,,,http://www.redfin.com/NV/North-Las-Vegas/5527-Foxtail-Ridge-St-89031/home/29082112,,,N,Y,36.2607498,-115.174349
PAST SALE,April-6-2021,Single Family Residential,5829 Elphin Ct,North Las Vegas,NV,89031,352501,4,3.0,Clayton El Campo Grande,2283,6534,2006,15,154,23,Sold,,,http://www.redfin.com/NV/North-Las-Vegas/5829-Elphin-Ct-89031/home/29049718,GLVAR,2261674,N,Y,36.2664679,-115.174789
PAST SALE,February-17-2021,Single Family Residential,1762 Bent Arrow Dr,North Las Vegas,NV,89031,336000,4,2.5,Eldorado-Rcl,1817,6970,1993,63,185,12,Sold,,,http://www.redfin.com/NV/North-Las-Vegas/1762-Bent-Arrow-Dr-89031/home/29077633,GLVAR,2259994,N,Y,36.2661107,-115.1661967
PAST SALE,April-16-2021,Single Family Residential,5833 Forest Creek Rd,North Las Vegas,NV,89031,285000,4,2.0,Rancho Ridge 2,1498,6098,1996,5,190,,Sold,,,http://www.redfin.com/NV/North-Las-Vegas/5833-Forest-Creek-Rd-89031/home/29077529,GLVAR,2274539,N,Y,36.2666757,-115.1519761
PAST SALE,February-10-2021,Single Family Residential,5413 Dalle Valley St,North Las Vegas,NV,89031,348000,4,2.75,GEYSER PEAK 3,2439,6970,2014,70,143,75,Sold,,,http://www.redfin.com/NV/North-Las-Vegas/5413-Dalle-Valley-St-89031/home/92905206,GLVAR,2260072,N,Y,36.2585935,-115.1364578
PAST SALE,March-29-2021,Single Family Residential,528 Casa Del Norte Dr,North Las Vegas,NV,89031,342000,4,2.5,Casa Del Norte,1848,6098,1994,23,185,,Sold,,,http://www.redfin.com/NV/North-Las-Vegas/528-Casa-Del-Norte-Dr-89031/home/29085626,GLVAR,2268890,N,Y,36.2511923,-115.1484093
