SALE TYPE,SOLD DATE,PROPERTY TYPE,ADDRESS,CITY,STATE OR PROVINCE,ZIP OR POSTAL CODE,PRICE,BEDS,BATHS,LOCATION,SQUARE FEET,LOT SIZE,YEAR BUILT,DAYS ON MARKET,$/SQUARE FEET,HOA/MONTH,STATUS,NEXT OPEN HOUSE START TIME,NEXT OPEN HOUSE END TIME,URL (SEE http://www.redfin.com/buy-a-home/comparative-market-analysis FOR INFO ON PRICING),SOURCE,MLS#,FAVORITE,INTERESTED,LATITUDE,LONGITUDE
PAST SALE,February-9-2021,Single Family Residential,2613 Heathrow St,Las Vegas,NV,89135,310000,3,2.5,Stratford Court Summerlin Village 14A East Phase 1,1178,3049,2001,73,263,43,Sold,,,http://www.redfin.com/NV/Las-Vegas/2613-Heathrow-St-89135/home/29587194,GLVAR,2247254,N,Y,36.1437279,-115.3284606
PAST SALE,February-5-2021,Single Family Residential,10476 Dove Meadow Way,Las Vegas,NV,89135,570000,3,2.5,CIELO,2100,5663,2015,77,271,62,Sold,,,http://www.redfin.com/NV/Las-Vegas/10476-Dove-Meadow-Way-89135/home/68172515,GLVAR,2238249,N,Y,36.0820383,-115.3214929
PAST SALE,,Single Family Residential,5729 Oak Bend Dr,Las Vegas,NV,89135,440000,2,2.5,,2176,6534,2013,,202,,,,,http://www.redfin.com/NV/Las-Vegas/5729-Oak-Bend-Dr-89135/home/52627992,,,N,Y,36.0862791,-115.3279976
PAST SALE,January-28-2021,Single Family Residential,10670 Agate Knoll Ln,Las Vegas,NV,89135,402000,3,2.5,Summerlin Village 16 Parcel E J K & E S - 1,2075,3920,2012,85,194,32,Sold,,,http://www.redfin.com/NV/Las-Vegas/10670-Agate-Knoll-Ln-89135/home/52627944,GLVAR,2249189,N,Y,36.0875502,-115.3262384
PAST SALE,February-12-2021,Single Family Residential,6418 Wild Blue Ct,Las Vegas,NV,89135,765000,4,4.25,Summerlin Village 16A Parcel E,3126,6970,2018,70,245,82,Sold,,,http://www.redfin.com/NV/Las-Vegas/6418-Wild-Blue-Ct-89135/home/147875473,GLVAR,2218710,N,Y,36.0719147,-115.3161414
PAST SALE,January-26-2021,Single Family Residential,10337 Kesington Dr,Las Vegas,NV,89135,810000,3,2.25,Village 16A-Parcel C,2564,6098,2017,87,316,83,Sold,,,http://www.redfin.com/NV/Las-Vegas/10337-Kesington-Dr-89178/home/146417271,GLVAR,2254885,N,Y,36.0765063,-115.3185994
PAST SALE,February-24-2021,Single Family Residential,6690 Interstellar St,Las Vegas,NV,89135,1560000,4,3.5,Nova Ridge Summerlin Village 16A-Parcels F & G Amd,3275,10019,2018,58,476,120,Sold,,,http://www.redfin.com/NV/Las-Vegas/6690-Interstellar-St-89135/home/147876716,GLVAR,2266039,N,Y,36.066357,-115.3169558
PAST SALE,February-24-2021,Single Family Residential,6491 Wild Blue Ct,Las Vegas,NV,89135,955000,4,4.25,Summerlin Village 16A Parcel E,3117,8276,2018,58,306,89,Sold,,,http://www.redfin.com/NV/Las-Vegas/6491-Wild-Blue-Ct-89135/home/147875474,GLVAR,2235692,N,Y,36.0703402,-115.3166293
PAST SALE,March-29-2021,Single Family Residential,10277 Green Ember Dr,Las Vegas,NV,89135,1228900,4,3.75,Summerlin Village,3880,8276,2018,25,317,46,Sold,,,http://www.redfin.com/NV/Las-Vegas/10277-W-Green-Ember-Dr-89178/home/147875327,GLVAR,2263498,N,Y,36.0741663,-115.3168646
PAST SALE,March-29-2021,Single Family Residential,6171 Willow Rock St,Las Vegas,NV,89135,920000,3,2.5,Summerlin Village 16A Parcel B,2692,8276,2018,25,342,110,Sold,,,http://www.redfin.com/NV/Las-Vegas/6171-Willow-Rock-St-89135/home/146417721,GLVAR,2265909,N,Y,36.0762509,-115.3198889
PAST SALE,March-25-2021,Single Family Residential,6510 Aurora View St,Las Vegas,NV,89135,1850000,3,3.5,Nova Ridge Summerlin Village 16A - Parcels F & G,3702,11761,2017,29,500,120,Sold,,,http://www.redfin.com/NV/Las-Vegas/6510-Aurora-View-St-89135/home/146418045,GLVAR,2272924,N,Y,36.0696596,-115.3163308
PAST SALE,February-19-2021,Single Family Residential,2725 Jamie Rose St,Las Vegas,NV,89135,535000,4,3.0,HEATHER GLEN,2966,5663,1998,63,180,58,Sold,,,http://www.redfin.com/NV/Las-Vegas/2725-Jamie-Rose-St-89135/home/29587064,GLVAR,2225587,N,Y,36.1399876,-115.3257523
PAST SALE,March-2-2021,Single Family Residential,2643 Heathrow St,Las Vegas,NV,89135,339000,3,2.5,Stratford Court Summerlin Village 14A East Phase 1,1467,3049,2001,52,231,48,Sold,,,http://www.redfin.com/NV/Las-Vegas/2643-Heathrow-St-89135/home/29587198,GLVAR,2261468,N,Y,36.1430818,-115.3285069
PAST SALE,March-26-2021,Single Family Residential,11238 Almador Vista Ct,Las Vegas,NV,89135,425000,3,2.5,Westpark Summerlin Village 19 Enclave 2,1749,2614,2010,28,243,72,Sold,,,http://www.redfin.com/NV/Las-Vegas/11238-Almador-Vista-Ct-89135/home/32934203,GLVAR,2273682,N,Y,36.1525347,-115.3396177
PAST SALE,March-26-2021,Single Family Residential,10907 Golden Birch Pl,Las Vegas,NV,89135,405000,3,2.0,Autumn Ridge At Summerlin-Phase 2,1628,9583,2001,28,249,48,Sold,,,http://www.redfin.com/NV/Las-Vegas/10907-Golden-Birch-Pl-89135/home/29871826,GLVAR,2275915,N,Y,36.1325491,-115.3315161
PAST SALE,February-19-2021,Single Family Residential,4145 Peaceful Meadow St,Las Vegas,NV,89135,509080,5,3.0,Stonegate I,2466,3920,2020,63,206,55,Sold,,,http://www.redfin.com/NV/Summerlin-South/Peaceful-Meadow-St-89135/home/171302073,GLVAR,2223653,N,Y,36.114323,-115.326613
PAST SALE,February-24-2021,Single Family Residential,3387 Jasmine Vine Ct,Las Vegas,NV,89135,395000,4,2.5,Garden Glen At Summerlin,2056,4792,2002,58,192,45,Sold,,,http://www.redfin.com/NV/Las-Vegas/3387-Jasmine-Vine-Ct-89135/home/29897866,GLVAR,2253361,N,Y,36.128047,-115.3289235
PAST SALE,March-16-2021,Single Family Residential,10554 Abbotsbury Dr,Las Vegas,NV,89135,703000,4,3.5,Glenleigh Gardens At Summerlin,2865,8276,2001,38,245,69,Sold,,,http://www.redfin.com/NV/Las-Vegas/10554-Abbotsbury-Dr-89135/home/29898040,GLVAR,2270669,N,Y,36.1285293,-115.3233448
PAST SALE,February-9-2021,Single Family Residential,11194 Corsica Mist Ave,Las Vegas,NV,89135,440000,3,2.5,Summerlin Village 19-Parcel G Phase 3,1962,3049,2011,73,224,230,Sold,,,http://www.redfin.com/NV/Las-Vegas/11194-Corsica-Mist-Ave-89135/home/39895057,GLVAR,2256096,N,Y,36.1493834,-115.33809
PAST SALE,February-9-2021,Single Family Residential,3308 Dove Run Creek Dr,Las Vegas,NV,89135,1237560,5,4.75,RED ROCK CNTRY CLUB AT SUMMERL,4402,9583,2004,73,281,245,Sold,,,http://www.redfin.com/NV/Las-Vegas/3308-Dove-Run-Creek-Dr-89135/home/29897151,GLVAR,2261185,N,Y,36.1302129,-115.341701
PAST SALE,January-27-2021,Townhouse,1524 Unison Way #103,Las Vegas,NV,89135,500000,3,2.5,Charleston & 215 Aka Affinity,2346,4792,2018,86,213,237,Sold,,,http://www.redfin.com/NV/Summerlin-South/Unison-Way-89135/unit-103/home/161746822,GLVAR,2258937,N,Y,36.155939,-115.339904
PAST SALE,February-24-2021,Single Family Residential,22 Garden Rain Dr,Las Vegas,NV,89135,1750000,4,4.0,Summerlin Village 18 Ridges Parcel M N O Phase 2,4172,6970,2018,58,419,420,Sold,,,http://www.redfin.com/NV/Las-Vegas/22-Garden-Rain-Dr-89135/home/146406481,GLVAR,2262151,N,Y,36.1156684,-115.3338161
PAST SALE,March-30-2021,Single Family Residential,44 Olive Ridge Dr,Las Vegas,NV,89135,1285000,3,3.25,Summerlin Village 18 Ridges Parcel Mno Phase 2 Amd,3562,9148,2016,24,361,480,Sold,,,http://www.redfin.com/NV/Las-Vegas/44-Olive-Ridge-Dr-89135/home/108520367,GLVAR,2268749,N,Y,36.1163016,-115.3364234
PAST SALE,January-27-2021,Single Family Residential,73 Pristine Glen St,Las Vegas,NV,89135,1725000,4,4.5,Summerlin Village 18 Ridges Parcel M N O Phase 1,4172,7405,2015,86,413,420,Sold,,,http://www.redfin.com/NV/Las-Vegas/73-Pristine-Glen-St-89135/home/109598901,GLVAR,2261588,N,Y,36.1120562,-115.3343633
PAST SALE,February-1-2021,Single Family Residential,2965 Red Springs Dr,Las Vegas,NV,89135,725000,3,3.25,Red Rock Cntry Club At Summerlin,2508,6970,2001,81,289,245,Sold,,,http://www.redfin.com/NV/Las-Vegas/2965-Red-Springs-Dr-89135/home/29587215,GLVAR,2256180,N,Y,36.1357848,-115.3376965
PAST SALE,February-1-2021,Single Family Residential,2813 Red Springs Dr,Las Vegas,NV,89135,970000,3,2.25,Red Rock Cntry Club At Summerlin,2508,6970,1999,81,387,245,Sold,,,http://www.redfin.com/NV/Las-Vegas/2813-Red-Springs-Dr-89135/home/29587231,GLVAR,2256546,N,Y,36.1389426,-115.3377891
PAST SALE,February-17-2021,Single Family Residential,85 Glade Hollow Dr,Las Vegas,NV,89135,2337500,3,3.5,Summerlin Village 18 Ridges Parcel M N O Phase 1,3797,14375,2015,65,616,475,Sold,,,http://www.redfin.com/NV/Las-Vegas/85-Glade-Hollow-Dr-89135/home/102080083,GLVAR,2263301,N,Y,36.1105724,-115.3374187
PAST SALE,February-19-2021,Single Family Residential,63 Panorama Crest Ave,Las Vegas,NV,89135,2088000,3,4.5,Summerlin Village 18 Parcel B Topaz Ridge,4013,18731,2002,63,520,420,Sold,,,http://www.redfin.com/NV/Las-Vegas/63-Panorama-Crest-Ave-89135/home/29937115,GLVAR,2260022,N,Y,36.1219542,-115.3433444
PAST SALE,March-26-2021,Single Family Residential,3059 Lenoir St,Las Vegas,NV,89135,535000,4,3.5,GLENBROOK AT SUMMERLIN-PHASE 2,2978,5663,2001,28,180,47,Sold,,,http://www.redfin.com/NV/Las-Vegas/3059-Lenoir-St-89135/home/29870623,GLVAR,2201803,N,Y,36.1343536,-115.3354975
PAST SALE,February-5-2021,Single Family Residential,11358 Cedar Log Ct,Las Vegas,NV,89135,669900,3,3.5,RED ROCK CNTRY CLUB AT SUMMERL,2508,10454,1999,77,267,245,Sold,,,http://www.redfin.com/NV/Las-Vegas/11358-Cedar-Log-Ct-89135/home/29586707,GLVAR,2027683,N,Y,36.1471159,-115.3424185
PAST SALE,March-31-2021,Single Family Residential,2037 Cherry Creek Cir,Las Vegas,NV,89135,1530000,7,5.5,Red Rock Cntry Club At Summerlin,5037,10454,2005,23,304,245,Sold,,,http://www.redfin.com/NV/Las-Vegas/2037-Cherry-Creek-Cir-89135/home/28988906,GLVAR,2267921,N,Y,36.1529169,-115.347696
PAST SALE,March-19-2021,Single Family Residential,1226 Jamesbury Rd,Las Vegas,NV,89135,523000,4,3.0,Summerlin Village 19-Phase 3,2744,4792,2006,35,191,252,Sold,,,http://www.redfin.com/NV/Las-Vegas/1226-Jamesbury-Rd-89135/home/29033080,GLVAR,2271804,N,Y,36.1576122,-115.3456359
PAST SALE,March-19-2021,Single Family Residential,11351 Corsica Mist Ave,Las Vegas,NV,89135,545000,3,3.0,Summerlin Village 19-Parcel G Phase 1,2501,3920,2005,35,218,195,Sold,,,http://www.redfin.com/NV/Las-Vegas/11351-Corsica-Mist-Ave-89135/home/29033494,GLVAR,2265543,N,Y,36.1496254,-115.3413953
PAST SALE,April-9-2021,Single Family Residential,2289 Malaga Peak St,Las Vegas,NV,89135,418000,3,2.5,Summerlin Village 19 Parcel G Phase 2,1750,3049,2007,14,239,230,Sold,,,http://www.redfin.com/NV/Las-Vegas/2289-Malaga-Peak-St-89135/home/29053911,GLVAR,2272993,N,Y,36.1485952,-115.3384141
PAST SALE,February-19-2021,Single Family Residential,2904 Branch Creek Ct,Las Vegas,NV,89135,515000,3,3.5,Desert Willow-Phase 2,2541,5663,1999,63,203,48,Sold,,,http://www.redfin.com/NV/Las-Vegas/2904-Branch-Creek-Ct-89135/home/29588652,GLVAR,2250294,N,Y,36.1383105,-115.317766
PAST SALE,March-1-2021,Single Family Residential,7 Cross Ridge St,Las Vegas,NV,89135,1615000,4,4.5,Summerlin Village 18 Parcel B Topaz Ridge,4173,13939,2003,53,387,420,Sold,,,http://www.redfin.com/NV/Las-Vegas/7-Cross-Ridge-St-89135/home/29923381,GLVAR,2245966,N,Y,36.1243466,-115.3426037
PAST SALE,,Single Family Residential,10182 Spider Rock Ave,Las Vegas,NV,89135,330000,3,2.0,,1477,5227,2000,,223,,,,,http://www.redfin.com/NV/Las-Vegas/10182-Spider-Rock-Ave-89135/home/29589319,,,N,Y,36.1320938,-115.3166086
PAST SALE,,Single Family Residential,3065 Lenoir St,Las Vegas,NV,89135,485000,5,3.0,,3723,5663,2001,,130,,,,,http://www.redfin.com/NV/Las-Vegas/3065-Lenoir-St-89135/home/29870620,,,N,Y,36.1342051,-115.3354512
PAST SALE,March-15-2021,Single Family Residential,11457 Snow Creek Ave,Las Vegas,NV,89135,1610000,5,5.0,Red Rock Cntry Club At Summerlin,4079,9148,2003,39,395,245,Sold,,,http://www.redfin.com/NV/Las-Vegas/11457-Snow-Creek-Ave-89135/home/29937096,GLVAR,2249962,N,Y,36.1300188,-115.3430898
PAST SALE,March-22-2021,Single Family Residential,2799 Gallant Hills Dr,Las Vegas,NV,89135,585000,3,1.75,Kingsway Ridge At Summerlin,2003,7405,2001,32,292,,Sold,,,http://www.redfin.com/NV/Las-Vegas/2799-Gallant-Hills-Dr-89135/home/29885839,GLVAR,2273275,N,Y,36.1391675,-115.334942
PAST SALE,March-22-2021,Single Family Residential,25 Soaring Bird Ct,Las Vegas,NV,89135,4375000,4,6.0,Summerlin Village 18 Parcel E,9093,16117,2010,32,481,355,Sold,,,http://www.redfin.com/NV/Las-Vegas/25-Soaring-Bird-Ct-89135/home/40232593,GLVAR,2273584,N,Y,36.1183492,-115.3459368
PAST SALE,March-24-2021,Single Family Residential,2974 Kedleston St,Las Vegas,NV,89135,1050000,4,2.5,Heritage Glen At Summerlin,3598,10019,2003,30,292,359,Sold,,,http://www.redfin.com/NV/Las-Vegas/2974-Kedleston-St-89135/home/29898061,GLVAR,2274224,N,Y,36.1361858,-115.3264004
PAST SALE,April-12-2021,Single Family Residential,15 Hawk Ridge Dr,Las Vegas,NV,89135,6800000,5,6.5,SUMMERLIN VILLAGE 18 THE RIDGE,10194,26136,2009,11,667,345,Sold,,,http://www.redfin.com/NV/Las-Vegas/15-Hawk-Ridge-Dr-89135/home/28989491,GLVAR,2251839,N,Y,36.1180332,-115.340289
PAST SALE,April-13-2021,Single Family Residential,3722 Honey Crest Dr,Las Vegas,NV,89135,480000,4,2.5,Granite Peaks At Summerlin- 1,2184,5663,2002,10,220,48,Sold,,,http://www.redfin.com/NV/Las-Vegas/3722-Honey-Crest-Dr-89135/home/29910939,GLVAR,2278498,N,Y,36.1223602,-115.3338772
PAST SALE,April-15-2021,Single Family Residential,3017 Fenmarch St,Las Vegas,NV,89135,685000,4,2.5,Crown Ridge At Summerlin-Phase 2,2425,7405,2000,8,282,,Sold,,,http://www.redfin.com/NV/Las-Vegas/3017-Fenmarch-St-89135/home/29587453,GLVAR,2279349,N,Y,36.1362813,-115.3249189
PAST SALE,April-15-2021,Single Family Residential,10163 Spider Rock Ave,Las Vegas,NV,89135,384000,3,2.0,Brentwood At Summerlin-Phase 2,1477,6098,2000,8,260,,Sold,,,http://www.redfin.com/NV/Las-Vegas/10163-Spider-Rock-Ave-89135/home/29589339,GLVAR,2277034,N,Y,36.1316795,-115.3163308
PAST SALE,March-31-2021,Single Family Residential,2526 Turtle Head Peak Dr,Las Vegas,NV,89135,1010000,3,3.25,Red Rock Cntry Club At Summerlin,3455,12197,2001,23,292,245,Sold,,,http://www.redfin.com/NV/Las-Vegas/2526-Turtle-Head-Peak-Dr-89135/home/29832182,GLVAR,2251649,N,Y,36.1441949,-115.3429509
PAST SALE,March-31-2021,Single Family Residential,3068 Red Arrow Dr,Las Vegas,NV,89135,1950000,6,6.5,Red Rock Cntry Club At Summerlin,5104,17860,2003,23,382,245,Sold,,,http://www.redfin.com/NV/Las-Vegas/3068-Red-Arrow-Dr-89135/home/29587360,GLVAR,2270113,N,Y,36.1353521,-115.344548
PAST SALE,March-31-2021,Single Family Residential,3288 Rabbit Brush Ct,Las Vegas,NV,89135,690000,3,2.0,Red Rock Cntry Club At Summerlin,2243,8276,2004,23,308,245,Sold,,,http://www.redfin.com/NV/Las-Vegas/3288-Rabbit-Brush-Ct-89135/home/29897768,GLVAR,2258973,N,Y,36.1307485,-115.3367706
PAST SALE,April-1-2021,Single Family Residential,10853 Franklin Hills Ave,Las Vegas,NV,89135,665000,3,2.5,Bella Veranda At Summerlin,3001,7841,2000,22,222,68,Sold,,,http://www.redfin.com/NV/Las-Vegas/10853-Franklin-Hills-Ave-89135/home/29832166,GLVAR,2214314,N,Y,36.1301305,-115.3296411
PAST SALE,April-1-2021,Single Family Residential,9 Soaring Bird Ct,Las Vegas,NV,89135,3000000,4,4.0,SUMMERLIN VILLAGE 18 PARCEL E,8382,17860,2007,22,358,425,Sold,,,http://www.redfin.com/NV/Las-Vegas/9-Soaring-Bird-Ct-89135/home/28989623,GLVAR,2249008,N,Y,36.1180643,-115.3447332
PAST SALE,April-16-2021,Single Family Residential,2871 Desert Zinnia Ln,Las Vegas,NV,89135,585000,4,3.5,Desert Willow-Phase 1,2507,6098,1998,7,233,,Sold,,,http://www.redfin.com/NV/Las-Vegas/2871-Desert-Zinnia-Ln-89135/home/29588879,GLVAR,2282939,N,Y,36.1388906,-115.3192475
PAST SALE,April-16-2021,Single Family Residential,10241 Wood Work Ln,Las Vegas,NV,89135,307500,3,2.0,Willow Glen At Summerlin-Phase 2,1143,4356,2000,7,269,48,Sold,,,http://www.redfin.com/NV/Las-Vegas/10241-Wood-Work-Ln-89135/home/29587637,GLVAR,2280742,N,Y,36.1436266,-115.3176271
PAST SALE,April-5-2021,Single Family Residential,10691 Capesthorne Way,Las Vegas,NV,89135,1150000,5,4.5,Heritage Glen At Summerlin,4016,10454,2003,18,286,346,Sold,,,http://www.redfin.com/NV/Las-Vegas/10691-Capesthorne-Way-89135/home/29898100,GLVAR,2249829,N,Y,36.1344374,-115.3264004
PAST SALE,February-19-2021,Single Family Residential,10596 Firebush Dr,Las Vegas,NV,89135,367000,3,2.5,Westwood At Summerlin Village 13 East Parcel J,1701,3920,2004,63,216,110,Sold,,,http://www.redfin.com/NV/Las-Vegas/10596-Firebush-Dr-89135/home/28978780,GLVAR,2260471,N,Y,36.1488683,-115.3243402
PAST SALE,March-1-2021,Single Family Residential,10535 Clarion River Dr,Las Vegas,NV,89135,313100,3,1.75,Woodridge At Summerlin,1146,4356,1999,53,273,,Sold,,,http://www.redfin.com/NV/Las-Vegas/10535-Clarion-River-Dr-89135/home/29587809,GLVAR,2267810,N,Y,36.1436269,-115.3222106
PAST SALE,February-11-2021,Single Family Residential,10362 Bayhead Beach Ave,Las Vegas,NV,89135,350000,4,3.0,Asbury Park In Summerlin,1779,3485,2003,71,197,48,Sold,,,http://www.redfin.com/NV/Las-Vegas/10362-Bayhead-Beach-Ave-89135/home/29936420,GLVAR,2255844,N,Y,36.1451141,-115.3187846
PAST SALE,,Single Family Residential,2895 Soft Horizon Way,Las Vegas,NV,89135,1100000,4,4.5,,3455,9148,2001,,318,,,,,http://www.redfin.com/NV/Las-Vegas/2895-Soft-Horizon-Way-89135/home/29870674,,,N,Y,36.1374125,-115.3396409
PAST SALE,March-19-2021,Single Family Residential,2145 Alcova Ridge Dr,Las Vegas,NV,89135,1549000,4,4.5,Red Rock Golf Club 12,4867,10890,2006,35,318,245,Sold,,,http://www.redfin.com/NV/Las-Vegas/2145-Alcova-Ridge-Dr-89135/home/28989059,GLVAR,2241359,N,Y,36.1510763,-115.3435296
PAST SALE,March-17-2021,Single Family Residential,3319 Deepwood Ct,Las Vegas,NV,89135,640000,4,3.5,Glenleigh Gardens At Summerlin,2678,7405,2001,37,239,69,Sold,,,http://www.redfin.com/NV/Las-Vegas/3319-Deepwood-Ct-89135/home/29887792,GLVAR,2269439,N,Y,36.1293907,-115.3226967
PAST SALE,,Single Family Residential,2869 Red Springs Dr,Las Vegas,NV,89135,1150000,4,4.5,,3455,6970,2000,,333,,,,,http://www.redfin.com/NV/Las-Vegas/2869-Red-Springs-Dr-89135/home/29587224,,,N,Y,36.1377715,-115.3376965
PAST SALE,March-24-2021,Single Family Residential,2394 Malaga Peak St,Las Vegas,NV,89135,415000,3,2.5,Summerlin Village 19 Parcel G Phase 2,1610,2178,2006,30,258,230,Sold,,,http://www.redfin.com/NV/Las-Vegas/2394-Malaga-Peak-St-89135/home/29054376,GLVAR,2273748,N,Y,36.1469748,-115.3385529
PAST SALE,March-26-2021,Single Family Residential,11398 Cedar Log Ct,Las Vegas,NV,89135,1300000,3,3.25,Red Rock Cntry Club At Summerlin,3085,12197,1999,28,421,245,Sold,,,http://www.redfin.com/NV/Las-Vegas/11398-Cedar-Log-Ct-89135/home/29586768,GLVAR,2272638,N,Y,36.1469279,-115.3432518
PAST SALE,March-31-2021,Single Family Residential,11447 Morning Grove Dr,Las Vegas,NV,89135,2050000,5,4.5,Red Rock Cntry Club At Summerlin,6321,15246,2001,23,324,245,Sold,,,http://www.redfin.com/NV/Las-Vegas/11447-Morning-Grove-Dr-89135/home/29586762,GLVAR,2231371,N,Y,36.148768,-115.3438999
PAST SALE,March-31-2021,Single Family Residential,11095 Colony Creek Ln,Las Vegas,NV,89135,535000,4,2.0,Kingsway Ridge At Summerlin,2268,6098,2001,23,236,,Sold,,,http://www.redfin.com/NV/Las-Vegas/11095-Colony-Creek-Ln-89135/home/29871749,GLVAR,2250170,N,Y,36.1371704,-115.3349883
PAST SALE,April-1-2021,Single Family Residential,3034 Carbondale St,Las Vegas,NV,89135,510000,4,4.0,Sierra Woods At Summerlin,2468,6534,1999,22,207,,Sold,,,http://www.redfin.com/NV/Las-Vegas/3034-Carbondale-St-89135/home/29588715,GLVAR,2271820,N,Y,36.1360126,-115.3189697
PAST SALE,March-31-2021,Single Family Residential,11018 Pegasus Dr,Las Vegas,NV,89135,405000,3,2.5,Southstar At The Ridges Summerlin Parcel R,1772,4356,2003,23,229,48,Sold,,,http://www.redfin.com/NV/Las-Vegas/11018-Pegasus-Dr-89135/home/29917618,GLVAR,2262318,N,Y,36.1264683,-115.3343401
PAST SALE,April-2-2021,Single Family Residential,2646 Cottonwillow St,Las Vegas,NV,89135,361000,3,2.25,Stratford Court Summerlin Village 14A East Phase 1,1467,3920,2001,21,246,,Sold,,,http://www.redfin.com/NV/Las-Vegas/2646-Cottonwillow-St-89135/home/29587166,GLVAR,2270797,N,Y,36.1428595,-115.3270254
PAST SALE,February-8-2021,Single Family Residential,11440 Opal Springs Way,Las Vegas,NV,89135,2500000,4,4.0,Summerlin Village 18-Parcel H Silver Ridge,5047,12197,2018,74,495,475,Sold,,,http://www.redfin.com/NV/Las-Vegas/11440-Opal-Springs-Way-89135/home/146416836,GLVAR,2259121,N,Y,36.114977,-115.341118
PAST SALE,March-15-2021,Condo/Co-op,11280 Granite Ridge Dr #1031,Las Vegas,NV,89135,926995,3,2.5,Summerlin Village 18-Parcel L Fairway Hills Amd,2414,7405,2020,39,384,1002,Sold,,,http://www.redfin.com/NV/Las-Vegas/11280-Granite-Ridge-Dr-89135/unit-1031/home/166486953,GLVAR,2265974,N,Y,36.1137313,-115.3375113
PAST SALE,March-5-2021,Single Family Residential,11700 Evergreen Creek Ln,Las Vegas,NV,89135,2350000,3,3.0,Red Rock Cntry Club At Summerlin,4119,16553,2003,49,571,245,Sold,,,http://www.redfin.com/NV/Las-Vegas/11700-Evergreen-Creek-Ln-89135/home/29896937,GLVAR,2270197,N,Y,36.1330026,-115.3486218
PAST SALE,March-8-2021,Single Family Residential,5774 Mesa Mountain Dr,Las Vegas,NV,89135,645000,3,2.5,Summerlin Village 16 Parcel E J K & E S - 1,2513,5227,2013,46,257,33,Sold,,,http://www.redfin.com/NV/Las-Vegas/5774-Mesa-Mountain-Dr-89135/home/52628040,GLVAR,2264115,N,Y,36.0836959,-115.3269328
PAST SALE,March-11-2021,Single Family Residential,5323 Candlespice Way,Las Vegas,NV,89135,565000,3,2.5,SUMMERLIN VILLAGE 16 LADERA PH,1964,6098,2006,43,288,43,Sold,,,http://www.redfin.com/NV/Las-Vegas/5323-Candlespice-Way-89135/home/29054537,GLVAR,2261124,N,Y,36.0922695,-115.3240856
PAST SALE,March-15-2021,Single Family Residential,3058 Archdale St,Las Vegas,NV,89135,550000,5,3.5,Glenbrook At Summerlin-Phase 1,3320,6098,2002,39,166,,Sold,,,http://www.redfin.com/NV/Las-Vegas/3058-Archdale-St-89135/home/29871380,GLVAR,2259176,N,Y,36.1345889,-115.3330439
PAST SALE,March-15-2021,Single Family Residential,10263 Jade Gardens Dr,Las Vegas,NV,89135,909888,4,3.5,Summerlin Village 16A Parcel D Jade Ridge,3396,7405,2018,39,268,75,Sold,,,http://www.redfin.com/NV/Las-Vegas/10263-Jade-Gardens-Dr-89135/home/146417621,GLVAR,2265786,N,Y,36.076537,-115.317141
PAST SALE,March-5-2021,Single Family Residential,11630 Evergreen Creek Ln,Las Vegas,NV,89135,1650000,5,5.25,RED ROCK CNTRY CLUB AT SUMMERL,4443,10019,2003,49,371,245,Sold,,,http://www.redfin.com/NV/Las-Vegas/11630-Evergreen-Creek-Ln-89135/home/29896939,GLVAR,2253425,N,Y,36.1329981,-115.347233
PAST SALE,,Single Family Residential,1374 Marshfield Rd,Las Vegas,NV,89135,675000,4,2.5,,2910,8276,2007,,232,,,,,http://www.redfin.com/NV/Las-Vegas/1374-Marshfield-Rd-89135/home/29033028,,,N,Y,36.1563458,-115.3487839
PAST SALE,March-17-2021,Single Family Residential,10981 Moonbeam Glow Ln,Las Vegas,NV,89135,415000,4,2.0,Sunset Ridge At The Ridges In Summerlin,1687,9148,2003,37,246,,Sold,,,http://www.redfin.com/NV/Las-Vegas/10981-Moonbeam-Glow-Ln-89135/home/29937008,GLVAR,2269978,N,Y,36.1210578,-115.331192
PAST SALE,March-18-2021,Single Family Residential,1974 Country Cove Ct,Las Vegas,NV,89135,1050000,5,4.5,Red Rock Cntry Club At Summerlin,3739,6970,2005,36,281,,Sold,,,http://www.redfin.com/NV/Las-Vegas/1974-Country-Cove-Ct-89135/home/29033555,GLVAR,2222838,N,Y,36.1540882,-115.3513068
PAST SALE,,Single Family Residential,2145 Alcova Ridge Dr,Las Vegas,NV,89135,1549000,4,4.5,,4867,10890,2006,,318,,,,,http://www.redfin.com/NV/Las-Vegas/2145-Alcova-Ridge-Dr-89135/home/170372971,,,N,Y,36.1510763,-115.3435296
PAST SALE,March-19-2021,Townhouse,11351 Gravitation Dr,Las Vegas,NV,89135,545000,3,3.5,Charleston & 215 Aka Affinity Amd,2488,2614,2020,35,219,210,Sold,,,http://www.redfin.com/NV/Las-Vegas/11351-Gravitation-Dr-89135/home/166298837,GLVAR,2261973,N,Y,36.1561949,-115.342196
PAST SALE,March-19-2021,Single Family Residential,2556 Red Arrow Dr,Las Vegas,NV,89135,3150000,5,7.5,RED ROCK CNTRY CLUB AT SUMMERL,8845,23958,2001,35,356,245,Sold,,,http://www.redfin.com/NV/Las-Vegas/2556-Red-Arrow-Dr-89135/home/29587410,GLVAR,2214657,N,Y,36.1435419,-115.3494551
PAST SALE,March-22-2021,Single Family Residential,3835 Honey Ridge Ct,Las Vegas,NV,89135,460000,3,2.0,Granite Peaks At Summerlin,1803,6970,2003,32,255,,Sold,,,http://www.redfin.com/NV/Las-Vegas/3835-Honey-Ridge-Ct-89135/home/29936003,GLVAR,2260202,N,Y,36.1203746,-115.3328124
PAST SALE,March-19-2021,Single Family Residential,10510 Ardsley Ln,Las Vegas,NV,89135,518500,5,4.0,Summerlin Village 16 Ladera Phase 2,2685,8712,2006,35,193,22,Sold,,,http://www.redfin.com/NV/Las-Vegas/10510-Ardsley-Ln-89135/home/29065522,GLVAR,2250238,N,Y,36.089021,-115.3229745
PAST SALE,March-19-2021,Townhouse,10332 Addie De Mar Ln,Las Vegas,NV,89135,440000,3,2.25,Vista Dulce Parcel O Village 16 At Summerlin South,1895,3049,2017,35,232,200,Sold,,,http://www.redfin.com/NV/Las-Vegas/10332-Addie-de-Mar-Ln-89135/home/143188732,GLVAR,2271400,N,Y,36.0858923,-115.3192303
PAST SALE,,Single Family Residential,19 Flying Cloud Ln,Las Vegas,NV,89135,7900000,5,7.0,,12445,38768,2013,,635,,,,,http://www.redfin.com/NV/Las-Vegas/19-Flying-Cloud-Ln-89135/home/52624745,,,N,Y,36.1087663,-115.3500106
PAST SALE,March-26-2021,Condo/Co-op,11280 Granite Ridge Dr #1027,Las Vegas,NV,89135,770000,3,2.0,Summerlin Village 18-Parcel L Fairway Hills Amd,2037,7405,2020,28,378,725,Sold,,,http://www.redfin.com/NV/Las-Vegas/11280-Granite-Ridge-Dr-89135/unit-1027/home/165926181,GLVAR,2261640,N,Y,36.1137313,-115.3375113
PAST SALE,March-26-2021,Single Family Residential,10743 Silver Pond Ave,Las Vegas,NV,89135,605000,3,2.5,Stonegate,1858,6098,2020,28,326,55,Sold,,,http://www.redfin.com/NV/Las-Vegas/10743-Silver-Pond-Ave-89135/home/171302150,GLVAR,2265772,N,Y,36.1135632,-115.3268881
PAST SALE,March-31-2021,Single Family Residential,2990 Hammerwood Dr,Las Vegas,NV,89135,1445000,5,5.25,Heritage Glen At Summerlin,4572,10890,2001,23,316,359,Sold,,,http://www.redfin.com/NV/Las-Vegas/2990-Hammerwood-Dr-89135/home/29871535,GLVAR,2221365,N,Y,36.1357556,-115.3276041
PAST SALE,April-1-2021,Single Family Residential,10634 Penhurst Way,Las Vegas,NV,89135,870000,4,3.5,Heritage Glen At Summerlin Amd,4016,12197,2004,22,217,359,Sold,,,http://www.redfin.com/NV/Las-Vegas/10634-Penhurst-Way-89135/home/29898039,GLVAR,2228968,N,Y,36.1366729,-115.3259143
PAST SALE,March-31-2021,Single Family Residential,10685 Refectory Ave,Las Vegas,NV,89135,525000,4,2.5,Castlewood At Summerlin,2313,6534,2001,23,227,63,Sold,,,http://www.redfin.com/NV/Las-Vegas/10685-Refectory-Ave-89135/home/29871716,GLVAR,2271167,N,Y,36.1301288,-115.3261226
PAST SALE,March-31-2021,Single Family Residential,10359 Turret Peak Ave,Las Vegas,NV,89135,365000,3,2.0,Brentwood At Summerlin-Phase 1,1667,6098,1999,23,219,48,Sold,,,http://www.redfin.com/NV/Las-Vegas/10359-Turret-Peak-Ave-89135/home/29588896,GLVAR,2258219,N,Y,36.1302315,-115.3188772
PAST SALE,April-6-2021,Single Family Residential,10525 Cloud Whisper Dr,Las Vegas,NV,89135,616500,4,3.0,Cielo,2518,4356,2015,17,245,68,Sold,,,http://www.redfin.com/NV/Las-Vegas/10525-Cloud-Whisper-Dr-89135/home/109632771,GLVAR,2273478,N,Y,36.0795863,-115.3225809
PAST SALE,March-23-2021,Single Family Residential,54 Coralwood Dr,Las Vegas,NV,89135,2200000,5,5.5,Summerlin Village 18 Ridges Parcel M N O Phase 1,4888,10019,2016,31,450,420,Sold,,,http://www.redfin.com/NV/Las-Vegas/54-Coralwood-Dr-89135/home/109598874,GLVAR,2247312,N,Y,36.1110365,-115.3367706
PAST SALE,April-8-2021,Single Family Residential,5874 Heaven View Dr,Las Vegas,NV,89135,815000,4,3.5,Cielo,2643,6534,2016,15,308,68,Sold,,,http://www.redfin.com/NV/Las-Vegas/5874-Heaven-View-Dr-89135/home/113712625,GLVAR,2271499,N,Y,36.0808365,-115.3261226
PAST SALE,April-19-2021,Single Family Residential,10667 Olympic Pine Dr,Las Vegas,NV,89135,389900,3,2.5,WESTWOOD AT SUMMERLIN VILLAGE,1949,4356,2004,4,200,100,Sold,,,http://www.redfin.com/NV/Las-Vegas/10667-Olympic-Pine-Dr-89135/home/28979981,GLVAR,2149498,N,Y,36.1470454,-115.3257291
PAST SALE,April-15-2021,Single Family Residential,8 Sun Glow Ln,Las Vegas,NV,89135,5335000,6,6.5,Summerlin Village 18 Ridges Parcel J/K Windsong Ph,7167,15246,2019,8,744,505,Sold,,,http://www.redfin.com/NV/Las-Vegas/8-Sun-Glow-Ln-89135/home/165926296,GLVAR,2263464,N,Y,36.110126,-115.341741
PAST SALE,April-19-2021,Single Family Residential,1876 Granemore St,Las Vegas,NV,89135,379000,3,3.5,Summerlin Village 19 Enclave 2,1780,1307,2006,4,213,128,Sold,,,http://www.redfin.com/NV/Las-Vegas/1876-Granemore-St-89135/home/28965379,GLVAR,2278087,N,Y,36.152416,-115.3413769
PAST SALE,March-31-2021,Single Family Residential,29 Promontory Ridge Dr,Las Vegas,NV,89135,5600000,6,6.75,Summerlin Village 18 Phase 1,11918,20909,2007,23,470,560,Sold,,,http://www.redfin.com/NV/Las-Vegas/29-Promontory-Ridge-Dr-89135/home/29872613,GLVAR,2239646,N,Y,36.1254808,-115.3442703
PAST SALE,February-5-2021,Single Family Residential,6005 Andezano Dr,Las Vegas,NV,89135,650000,3,2.5,Village 16A-Parcel C,2564,9148,2017,77,254,86,Sold,,,http://www.redfin.com/NV/Las-Vegas/6005-Andezano-Dr-89135/home/114616626,GLVAR,2247936,N,Y,36.0784719,-115.3164928
PAST SALE,March-23-2021,Single Family Residential,10395 Sofferto Ave,Las Vegas,NV,89135,775000,3,2.5,Sun Colony At Summerlin,2807,7841,2004,31,276,231,Sold,,,http://www.redfin.com/NV/Las-Vegas/10395-Sofferto-Ave-89135/home/29002061,GLVAR,2268557,N,Y,36.0939068,-115.3196411
PAST SALE,March-11-2021,Condo/Co-op,11280 Granite Ridge Dr #1094,Las Vegas,NV,89135,1315000,4,3.75,Summerlin Village 18-Parcel L Fairway Hills Amd,3211,7405,2019,43,410,1002,Sold,,,http://www.redfin.com/NV/Las-Vegas/11280-Granite-Ridge-Dr-89135/unit-1094/home/166555101,GLVAR,2259899,N,Y,36.1137313,-115.3375113
PAST SALE,March-19-2021,Single Family Residential,5523 Candle Pine Way,Las Vegas,NV,89135,498000,4,3.0,Summerlin Village 16 Ladera Phase 3,2287,6534,2009,35,218,26,Sold,,,http://www.redfin.com/NV/Las-Vegas/5523-Candle-Pine-Way-89135/home/29202677,GLVAR,2268526,N,Y,36.0879073,-115.3173262
PAST SALE,March-26-2021,Single Family Residential,10623 Agate Knoll Ln,Las Vegas,NV,89135,450000,3,2.5,Summerlin Village 16 Parcel E J K & E S - 1,2075,3920,2011,28,217,48,Sold,,,http://www.redfin.com/NV/Las-Vegas/10623-Agate-Knoll-Ln-89135/home/35654678,GLVAR,2271504,N,Y,36.087702,-115.3250347
PAST SALE,March-29-2021,Single Family Residential,6488 Wild Blue Ct,Las Vegas,NV,89135,670000,3,3.0,Summerlin Village 16A Parcel E,2067,6098,2019,25,324,87,Sold,,,http://www.redfin.com/NV/Las-Vegas/6488-Wild-Blue-Ct-89135/home/166555744,GLVAR,2256248,N,Y,36.0706915,-115.3161483
PAST SALE,April-2-2021,Condo/Co-op,11280 Granite Ridge Dr #1040,Las Vegas,NV,89135,743750,4,3.5,SUMMERLIN VILLAGE 18 PARCEL L,2867,6188,2009,21,259,791,Sold,,,http://www.redfin.com/NV/Las-Vegas/11280-Granite-Ridge-Dr-89135/unit-1040/home/29775485,GLVAR,2254567,N,Y,36.1137313,-115.3375113
PAST SALE,February-16-2021,Single Family Residential,14 Moonfire Dr,Las Vegas,NV,89135,1625000,4,4.0,Summerlin Village 18 Ridges Parcel M N O Phase 2,4172,6970,2017,66,390,320,Sold,,,http://www.redfin.com/NV/Las-Vegas/14-Moonfire-Dr-89135/home/143156835,GLVAR,2251467,N,Y,36.1165228,-115.335266
PAST SALE,March-8-2021,Single Family Residential,1982 Country Cove Ct,Las Vegas,NV,89135,1345000,4,3.5,Red Rock Cntry Club At Summerlin,4107,6970,2005,46,327,245,Sold,,,http://www.redfin.com/NV/Las-Vegas/1982-Country-Cove-Ct-89135/home/29033573,GLVAR,2264459,N,Y,36.1539293,-115.3513068
PAST SALE,March-8-2021,Single Family Residential,3732 Honey Crest Dr,Las Vegas,NV,89135,415000,3,2.0,Granite Peaks At Summerlin- 1,1728,5663,2003,46,240,,Sold,,,http://www.redfin.com/NV/Las-Vegas/3732-Honey-Crest-Dr-89135/home/29936121,GLVAR,2268439,N,Y,36.1221341,-115.3336457
PAST SALE,March-12-2021,Single Family Residential,10833 Meadow Garden Ct,Las Vegas,NV,89135,677500,4,3.25,Bella Veranda At Summerlin,2830,7841,2001,42,239,68,Sold,,,http://www.redfin.com/NV/Las-Vegas/10833-Meadow-Garden-Ct-89135/home/29871575,GLVAR,2253382,N,Y,36.1315065,-115.3291782
PAST SALE,February-16-2021,Single Family Residential,2343 Malaga Peak St,Las Vegas,NV,89135,655000,3,2.5,Summerlin Village 19 Parcel G Phase 2,2704,4356,2007,66,242,230,Sold,,,http://www.redfin.com/NV/Las-Vegas/2343-Malaga-Peak-St-89135/home/29054222,GLVAR,2258552,N,Y,36.147736,-115.338877
PAST SALE,February-5-2021,Townhouse,4239 Sunrise Flats St,Las Vegas,NV,89135,626000,3,3.5,Summerlin Village 15A Parcel 1-Latitude Phase 1,2507,5729,2018,77,250,479,Sold,,,http://www.redfin.com/NV/Las-Vegas/4239-Sunrise-Flats-St-89135/home/146418244,GLVAR,2249415,N,Y,36.112502,-115.332153
PAST SALE,February-8-2021,Townhouse,5670 Granollers Dr,Las Vegas,NV,89135,359900,3,2.5,Vista Dulce Parcel O Village 16 At Summerlin South,1597,3049,2015,74,225,248,Sold,,,http://www.redfin.com/NV/Las-Vegas/5670-Granollers-Dr-89135/home/109634375,GLVAR,2253689,N,Y,36.084705,-115.318644
PAST SALE,January-29-2021,Single Family Residential,11218 Corsica Mist Ave,Las Vegas,NV,89135,480000,3,2.5,Summerlin Village 19-Parcel G Phase 3,1962,3049,2012,84,245,230,Sold,,,http://www.redfin.com/NV/Las-Vegas/11218-Corsica-Mist-Ave-89135/home/40458488,GLVAR,2249884,N,Y,36.1494731,-115.3381963
PAST SALE,February-3-2021,Single Family Residential,10270 Kesington Dr,Las Vegas,NV,89135,785000,3,2.5,Village 16A-Parcel C,2564,4792,2017,79,306,83,Sold,,,http://www.redfin.com/NV/Las-Vegas/10270-Kesington-Dr-89135/home/143191434,GLVAR,2228718,N,Y,36.0787047,-115.3173472
PAST SALE,February-12-2021,Single Family Residential,3424 Ridge Meadow St,Las Vegas,NV,89135,547000,3,2.0,Echo Ridge At The Ridges In Summerlin,2001,6534,2003,70,273,48,Sold,,,http://www.redfin.com/NV/Las-Vegas/3424-Ridge-Meadow-St-89135/home/29937174,GLVAR,2246062,N,Y,36.1276182,-115.3382289
PAST SALE,February-10-2021,Single Family Residential,10326 Mystic Pine Rd,Las Vegas,NV,89135,488000,5,3.25,Summerlin Village 16 Ladera Phase 2,2784,4356,2010,72,175,26,Sold,,,http://www.redfin.com/NV/Las-Vegas/10326-Mystic-Pine-Rd-89135/home/40232766,GLVAR,2249979,N,Y,36.0906945,-115.3186245
PAST SALE,February-2-2021,Single Family Residential,31 Drifting Shadow Way,Las Vegas,NV,89135,2000000,4,5.25,Summerlin Village 18 Ridges Parcel J/K Windsong Ph,6135,16553,2016,80,326,505,Sold,,,http://www.redfin.com/NV/Las-Vegas/31-Drifting-Shadow-Way-89135/home/113705115,GLVAR,2249002,N,Y,36.1095447,-115.3405668
PAST SALE,February-12-2021,Single Family Residential,2065 Hollywell St,Las Vegas,NV,89135,535000,3,2.5,Summerlin Village 19 Enclave 2,2907,7841,2008,70,184,63,Sold,,,http://www.redfin.com/NV/Las-Vegas/2065-Hollywell-St-89135/home/29320351,GLVAR,2262108,N,Y,36.1506913,-115.3424185
PAST SALE,January-29-2021,Townhouse,11399 Gravitation Dr,Las Vegas,NV,89135,454000,3,2.5,Charleston & 215 Aka Affinity Amd,2027,1742,2018,84,224,217,Sold,,,http://www.redfin.com/NV/Las-Vegas/11399-Gravitation-Dr-89135/home/166298080,GLVAR,2258691,N,Y,36.1566373,-115.3431866
PAST SALE,January-25-2021,Single Family Residential,1985 Cape Cod Landing Dr,Las Vegas,NV,89135,400000,3,2.5,Summerlin Village 19 Enclave 2,2087,3049,2007,88,192,128,Sold,,,http://www.redfin.com/NV/Las-Vegas/1985-Cape-Cod-Landing-Dr-89135/home/29320477,GLVAR,2254259,N,Y,36.1515521,-115.3400112
PAST SALE,February-2-2021,Single Family Residential,2835 Evening Rock St,Las Vegas,NV,89135,1610000,4,3.75,Red Rock Cntry Club At Summerlin,4899,10454,2001,80,329,245,Sold,,,http://www.redfin.com/NV/Las-Vegas/2835-Evening-Rock-St-89135/home/29832174,GLVAR,2241413,N,Y,36.1386773,-115.3456591
PAST SALE,March-29-2021,Single Family Residential,2311 Malaga Peak St,Las Vegas,NV,89135,505000,4,2.5,Summerlin Village 19 Parcel G Phase 2,1816,3049,2006,25,278,239,Sold,,,http://www.redfin.com/NV/Las-Vegas/2311-Malaga-Peak-St-89135/home/29054308,GLVAR,2273293,N,Y,36.1484406,-115.3389233
PAST SALE,March-25-2021,Single Family Residential,5132 Alfingo St,Las Vegas,NV,89135,680000,3,1.75,Sun Colony At Summerlin,2306,8276,2004,29,295,231,Sold,,,http://www.redfin.com/NV/Las-Vegas/5132-Alfingo-St-89135/home/28989539,GLVAR,2231493,N,Y,36.0958178,-115.3231596
PAST SALE,February-9-2021,Single Family Residential,1944 Taylorville St,Las Vegas,NV,89135,550000,4,2.5,Fairfield At Summerlin,3058,10454,2002,73,180,,Sold,,,http://www.redfin.com/NV/Las-Vegas/1944-Taylorville-St-89135/home/29923335,GLVAR,2215977,N,Y,36.1500267,-115.3196411
PAST SALE,January-25-2021,Single Family Residential,10497 Foggy Glen Ave,Las Vegas,NV,89135,381000,3,2.5,Madison Place At Summerlin,1951,4356,2003,88,195,,Sold,,,http://www.redfin.com/NV/Las-Vegas/10497-Foggy-Glen-Ave-89135/home/29936393,GLVAR,2247973,N,Y,36.1446996,-115.3219906
PAST SALE,February-18-2021,Single Family Residential,10560 Olympic Pine Dr,Las Vegas,NV,89135,364900,3,2.5,Westwood At Summerlin Village 13 East Parcel J,1701,4356,2003,64,215,100,Sold,,,http://www.redfin.com/NV/Las-Vegas/10560-Olympic-Pine-Dr-89135/home/28972571,GLVAR,2260475,N,Y,36.1473332,-115.3239235
PAST SALE,March-8-2021,Single Family Residential,3 Boulder Rock Cir,Las Vegas,NV,89135,2100000,4,4.25,Village 18-Parcel G Amd,4405,14810,2007,46,477,555,Sold,,,http://www.redfin.com/NV/Las-Vegas/3-Boulder-Rock-Cir-89135/home/29775458,GLVAR,2260137,N,Y,36.1143809,-115.3508439
PAST SALE,March-9-2021,Single Family Residential,10753 Arundel Ave,Las Vegas,NV,89135,460000,4,2.0,Castlewood At Summerlin,2148,6098,2002,45,214,63,Sold,,,http://www.redfin.com/NV/Las-Vegas/10753-Arundel-Ave-89135/home/29871732,GLVAR,2260800,N,Y,36.1324048,-115.326956
PAST SALE,February-19-2021,Single Family Residential,2903 Thicket Willow St,Las Vegas,NV,89135,516800,4,3.5,Desert Willow-Phase 1,2743,5663,1999,63,188,,Sold,,,http://www.redfin.com/NV/Las-Vegas/2903-Thicket-Willow-St-89135/home/29588784,GLVAR,2260641,N,Y,36.1384749,-115.3163308
PAST SALE,February-2-2021,Single Family Residential,8 Cross Ridge St,Las Vegas,NV,89135,1645000,4,4.5,Summerlin Village 18 Parcel B Topaz Ridge,4399,11761,2003,80,374,420,Sold,,,http://www.redfin.com/NV/Las-Vegas/8-Cross-Ridge-St-89135/home/29923376,GLVAR,2256607,N,Y,36.1245514,-115.3420482
PAST SALE,February-3-2021,Single Family Residential,5350 Fairbranch Ln,Las Vegas,NV,89135,465000,4,3.75,Summerlin Village 16 Ladera Phase 1,2872,4356,2007,79,162,22,Sold,,,http://www.redfin.com/NV/Las-Vegas/5350-Fairbranch-Ln-89135/home/29054524,GLVAR,2263094,N,Y,36.0916591,-115.322118
PAST SALE,February-26-2021,Single Family Residential,3501 Brezine Ave,Henderson,NV,89044,438138,3,2.0,Reserves at Inspirada,1589,4882,2020,56,276,85,Sold,,,http://www.redfin.com/NV/Henderson/Brezine-Ave-89044/home/170467316,GLVAR,2246957,N,Y,36.115028,-115.328214
PAST SALE,February-26-2021,Single Family Residential,10345 Howling Coyote Ave,Las Vegas,NV,89135,427000,3,2.5,Gresham Park At Summerlin Centre,2057,4356,2004,56,208,,Sold,,,http://www.redfin.com/NV/Las-Vegas/10345-Howling-Coyote-Ave-89135/home/28989294,GLVAR,2268389,N,Y,36.1480042,-115.3188309
PAST SALE,February-26-2021,Single Family Residential,2481 Hollow Rock Ct,Las Vegas,NV,89135,830000,3,3.25,Red Rock Cntry Club At Summerlin,2712,7841,1999,56,306,245,Sold,,,http://www.redfin.com/NV/Las-Vegas/2481-Hollow-Rock-Ct-89135/home/29586679,GLVAR,2255055,N,Y,36.1447653,-115.3412149
PAST SALE,February-25-2021,Single Family Residential,3650 Coventry Gardens Dr,Las Vegas,NV,89135,774999,4,3.25,Giverny At Summerlin,3665,7405,2003,57,211,58,Sold,,,http://www.redfin.com/NV/Las-Vegas/3650-Coventry-Gardens-Dr-89135/home/29937056,GLVAR,2254922,N,Y,36.1233653,-115.3170715
PAST SALE,February-26-2021,Single Family Residential,10279 Trailing Dalea Ave,Las Vegas,NV,89135,505000,4,2.5,Heatherwood #2 In Summerlin- Lewis Homes,2113,4792,1999,56,239,48,Sold,,,http://www.redfin.com/NV/Las-Vegas/10279-Trailing-Dalea-Ave-89135/home/29587962,GLVAR,2262543,N,Y,36.1410918,-115.3173262
PAST SALE,February-24-2021,Single Family Residential,15 Garden Rain Dr,Las Vegas,NV,89135,2200000,4,4.5,Summerlin Village 18 Ridges Parcel M N O Phase 2,3776,9583,2018,58,583,420,Sold,,,http://www.redfin.com/NV/Las-Vegas/15-Garden-Rain-Dr-89135/home/146406492,GLVAR,2258075,N,Y,36.116076,-115.3343996
PAST SALE,March-1-2021,Single Family Residential,3412 Yellow Cove Ln,Las Vegas,NV,89135,550000,3,2.5,Ivy Glen At Summerlin,2513,7841,2001,53,219,49,Sold,,,http://www.redfin.com/NV/Las-Vegas/3412-Yellow-Cove-Ln-89135/home/29872809,GLVAR,2262952,N,Y,36.1282334,-115.3180438
PAST SALE,March-5-2021,Townhouse,11405 Gravitation Dr,Las Vegas,NV,89135,532888,4,2.5,Charleston & 215 Aka Affinity Amd,2298,1742,2018,49,232,210,Sold,,,http://www.redfin.com/NV/Las-Vegas/11405-Gravitation-Dr-89135/home/145873106,GLVAR,2255259,N,Y,36.1568356,-115.3433278
PAST SALE,March-5-2021,Single Family Residential,4985 Alfingo St,Las Vegas,NV,89135,465000,3,2.5,Sun Colony At Summerlin,2100,7405,2004,49,221,240,Sold,,,http://www.redfin.com/NV/Las-Vegas/4985-Alfingo-St-89135/home/28989596,GLVAR,2239934,N,Y,36.098689,-115.3237383
PAST SALE,March-2-2021,Single Family Residential,2447 Granada Blf,Las Vegas,NV,89135,485000,3,2.5,Summerlin Village 19 Parcel G Phase 2,1962,3484,2005,52,247,278,Sold,,,http://www.redfin.com/NV/Las-Vegas/2447-Granada-Bluff-Ct-89135/home/29054218,GLVAR,2266437,N,Y,36.1458753,-115.3400807
PAST SALE,March-5-2021,Single Family Residential,10415 Garland Grove Way,Las Vegas,NV,89135,615000,4,3.0,Summerlin Village 16 Ladera Phase 2,2172,8276,2006,49,283,78,Sold,,,http://www.redfin.com/NV/Las-Vegas/10415-Garland-Grove-Way-89135/home/29065384,GLVAR,2261587,N,Y,36.0894632,-115.3210994
PAST SALE,,Single Family Residential,5597 Pinecroft Dr,Las Vegas,NV,89135,322140,3,2.5,,2106,4356,2009,,153,,,,,http://www.redfin.com/NV/Las-Vegas/5597-Pinecroft-Dr-89135/home/29286469,,,N,Y,36.086814,-115.3187383
PAST SALE,February-16-2021,Single Family Residential,10371 Timber Star Ln,Las Vegas,NV,89135,445000,5,3.0,Summerlin Village 16 Ladera Phase 2,2173,5663,2006,66,205,27,Sold,,,http://www.redfin.com/NV/Las-Vegas/10371-Timber-Star-Ln-89135/home/29065354,GLVAR,2255905,N,Y,36.0905569,-115.3201272
PAST SALE,March-8-2021,Single Family Residential,2190 Country Cove Ct,Las Vegas,NV,89135,1400000,5,4.25,Red Rock Cntry Club At Summerlin,4107,10454,2005,46,341,245,Sold,,,http://www.redfin.com/NV/Las-Vegas/2190-Country-Cove-Ct-89135/home/29012273,GLVAR,2268798,N,Y,36.1502036,-115.3510059
PAST SALE,March-8-2021,Single Family Residential,3210 Squire St,Las Vegas,NV,89135,499990,3,2.25,Castlewood At Summerlin,2313,6098,2001,46,216,63,Sold,,,http://www.redfin.com/NV/Las-Vegas/3210-Squire-St-89135/home/29871421,GLVAR,2262242,N,Y,36.1321069,-115.3251041
PAST SALE,March-12-2021,Single Family Residential,3132 Coleshill St,Las Vegas,NV,89135,619000,3,3.0,Crown Ridge At Summerlin-Phase 1,2838,8276,1999,42,218,48,Sold,,,http://www.redfin.com/NV/Las-Vegas/3132-Coleshill-St-89135/home/29588685,GLVAR,2263798,N,Y,36.1344267,-115.3218633
PAST SALE,March-12-2021,Single Family Residential,10287 Turret Peak Ave,Las Vegas,NV,89135,385000,3,1.75,Brentwood At Summerlin-Phase 1,1560,6534,1999,42,247,,Sold,,,http://www.redfin.com/NV/Las-Vegas/10287-Turret-Peak-Ave-89135/home/29588898,GLVAR,2264019,N,Y,36.1302414,-115.3179512
PAST SALE,March-12-2021,Single Family Residential,3329 Elk Clover St,Las Vegas,NV,89135,1600000,4,3.5,Red Rock Cntry Club At Summerlin,3787,9583,2002,42,422,245,Sold,,,http://www.redfin.com/NV/Las-Vegas/3329-Elk-Clover-St-89135/home/29898001,GLVAR,2260008,N,Y,36.1298251,-115.3394557
PAST SALE,March-12-2021,Single Family Residential,10254 Sofferto Ave,Las Vegas,NV,89135,998000,4,3.5,Sun Colony At Summerlin,3217,13068,2005,42,310,231,Sold,,,http://www.redfin.com/NV/Las-Vegas/10254-Sofferto-Ave-89135/home/29012815,GLVAR,2261094,N,Y,36.0934191,-115.3168632
PAST SALE,March-15-2021,Single Family Residential,10238 Jade Gardens Dr,Las Vegas,NV,89135,1249999,4,4.25,Summerlin Village 16A Parcel D Jade Ridge,3880,9148,2018,39,322,46,Sold,,,http://www.redfin.com/NV/LAS-VEGAS/ADDRESS-REDACTED-89135/home/146417614,GLVAR,2260907,N,Y,36.077053,-115.316746
PAST SALE,March-26-2021,Single Family Residential,5579 Atrium Woods Ln,Las Vegas,NV,89135,575000,3,2.0,Summerlin Village 16 Parcel E J K & E S - 1,1902,6098,2012,28,302,33,Sold,,,http://www.redfin.com/NV/Las-Vegas/5579-Atrium-Woods-Ln-89135/home/40549264,GLVAR,2268111,N,Y,36.0872053,-115.3297106
PAST SALE,,Single Family Residential,11615 Suburban Rd,Las Vegas,NV,89135,637000,4,2.5,,2910,5663,2007,,219,,,,,http://www.redfin.com/NV/Las-Vegas/11615-Suburban-Rd-89135/home/29032638,,,N,Y,36.1558209,-115.3477654
PAST SALE,February-16-2021,Single Family Residential,10777 Pipers Cove Ln,Las Vegas,NV,89135,316000,3,2.5,Stratford Court Summerlin Village 14A East Phase 1,1178,3920,2001,66,268,48,Sold,,,http://www.redfin.com/NV/Las-Vegas/10777-Pipers-Cove-Ln-89135/home/29587145,GLVAR,2259855,N,Y,36.1408712,-115.3280902
PAST SALE,February-22-2021,Single Family Residential,3144 Cherum St,Las Vegas,NV,89135,385000,3,2.0,Cambridge Court In Summerlin,1610,5227,2000,60,239,,Sold,,,http://www.redfin.com/NV/Las-Vegas/3144-Cherum-St-89135/home/29588590,GLVAR,2256708,N,Y,36.1341702,-115.3156826
PAST SALE,February-26-2021,Single Family Residential,2380 Lilac Cove St,Las Vegas,NV,89135,340000,3,2.5,Pinedale At Summerlin,1488,4356,2002,56,228,,Sold,,,http://www.redfin.com/NV/Las-Vegas/2380-Lilac-Cove-St-89135/home/29923340,GLVAR,2259266,N,Y,36.1457688,-115.3234606
PAST SALE,March-5-2021,Single Family Residential,2123 Desert Prairie St,Las Vegas,NV,89135,453000,3,2.5,Gresham Park At Summerlin Centre,1823,6098,2003,49,248,48,Sold,,,http://www.redfin.com/NV/Las-Vegas/2123-Desert-Prairie-St-89135/home/29935324,GLVAR,2266276,N,Y,36.1482864,-115.3230439
PAST SALE,March-4-2021,Single Family Residential,10240 Falling Needle Ave,Las Vegas,NV,89135,337888,3,2.0,Pinecrest At Summerlin,975,5663,2003,50,347,42,Sold,,,http://www.redfin.com/NV/Las-Vegas/10240-Falling-Needle-Ave-89135/home/29935017,GLVAR,2271035,N,Y,36.1494357,-115.3168864
PAST SALE,March-9-2021,Single Family Residential,10369 Bayhead Beach Ave,Las Vegas,NV,89135,358000,3,2.5,Asbury Park In Summerlin,1716,3920,2003,45,209,,Sold,,,http://www.redfin.com/NV/Las-Vegas/10369-Bayhead-Beach-Ave-89135/home/29936367,GLVAR,2267769,N,Y,36.1447483,-115.3190855
PAST SALE,March-11-2021,Single Family Residential,3566 Fair Bluff St,Las Vegas,NV,89135,699990,4,3.0,Wisteria Hills In Summerlin,3818,6970,2001,43,183,,Sold,,,http://www.redfin.com/NV/Las-Vegas/3566-Fair-Bluff-St-89135/home/29872504,GLVAR,2271476,N,Y,36.1245365,-115.3236921
PAST SALE,March-22-2021,Single Family Residential,3567 Fair Bluff St,Las Vegas,NV,89135,705000,5,3.5,Wisteria Hills In Summerlin,3723,7405,2001,32,189,,Sold,,,http://www.redfin.com/NV/Las-Vegas/3567-Fair-Bluff-St-89135/home/28965791,GLVAR,2259221,N,Y,36.1246707,-115.324155
PAST SALE,,Single Family Residential,1998 Morro Vista Dr,Las Vegas,NV,89135,371000,3,2.5,,1954,2614,2010,,190,,,,,http://www.redfin.com/NV/Las-Vegas/1998-Morro-Vista-Dr-89135/home/40232371,,,N,Y,36.1512131,-115.3387844
PAST SALE,January-25-2021,Single Family Residential,2877 Red Springs Dr,Las Vegas,NV,89135,765000,3,3.25,Red Rock Cntry Club At Summerlin,2508,6970,2000,88,305,245,Sold,,,http://www.redfin.com/NV/Las-Vegas/2877-Red-Springs-Dr-89135/home/29587223,GLVAR,2246621,N,Y,36.1376126,-115.3376965
PAST SALE,January-28-2021,Single Family Residential,2393 Calico Creek Ct,Las Vegas,NV,89135,1785000,3,3.0,Red Rock Cntry Club At Summerlin,4121,14375,2000,85,433,245,Sold,,,http://www.redfin.com/NV/Las-Vegas/2393-Calico-Creek-Ct-89135/home/29586740,GLVAR,2256401,N,Y,36.1463971,-115.344548
PAST SALE,January-25-2021,Single Family Residential,1153 Jamesbury Rd,Las Vegas,NV,89135,530000,5,3.0,Summerlin Village 19-Phase 3,2744,5227,2006,88,193,116,Sold,,,http://www.redfin.com/NV/Las-Vegas/1153-Jamesbury-Rd-89135/home/29033089,GLVAR,2255816,N,Y,36.1581182,-115.346122
PAST SALE,February-12-2021,Single Family Residential,5695 Mesa Mountain Dr,Las Vegas,NV,89135,595000,4,3.5,Summerlin Village 16 Parcel E J K & E S - 1,2704,4356,2013,70,220,29,Sold,,,http://www.redfin.com/NV/Las-Vegas/5695-Mesa-Mountain-Dr-89135/home/166601975,GLVAR,2261535,N,Y,36.0848588,-115.3288309
PAST SALE,March-5-2021,Single Family Residential,10555 Cloud Whisper Dr,Las Vegas,NV,89135,600000,3,2.25,Cielo,2518,4356,2015,49,238,62,Sold,,,http://www.redfin.com/NV/Las-Vegas/10555-Cloud-Whisper-Dr-89135/home/109632672,GLVAR,2262347,N,Y,36.0795681,-115.323368
PAST SALE,February-10-2021,Single Family Residential,10358 Timber Willow Ave,Las Vegas,NV,89135,463000,4,3.5,Desert Willow-Phase 1,2489,6098,1998,72,186,,Sold,,,http://www.redfin.com/NV/Las-Vegas/10358-Timber-Willow-Ave-89135/home/29588756,GLVAR,2257241,N,Y,36.1393168,-115.3184142
PAST SALE,February-3-2021,Single Family Residential,10755 Hobbiton Ave,Las Vegas,NV,89135,838000,5,4.5,Wood Glen At Summerlin,3792,8276,2001,79,221,350,Sold,,,http://www.redfin.com/NV/Las-Vegas/10755-Hobbiton-Ave-89135/home/29871332,GLVAR,2240236,N,Y,36.1377047,-115.3274189
PAST SALE,April-5-2021,Single Family Residential,10466 Realm Way,Las Vegas,NV,89135,621000,4,3.0,Crown Ridge At Summerlin-Phase 1,2838,8276,1999,18,219,,Sold,,,http://www.redfin.com/NV/Las-Vegas/10466-Realm-Way-89135/home/29588686,GLVAR,2269111,N,Y,36.1352843,-115.3220254
PAST SALE,,Single Family Residential,10391 Avebury Manor Ln,Las Vegas,NV,89135,585000,3,2.5,,2198,10454,2002,,266,,,,,http://www.redfin.com/NV/Las-Vegas/10391-Avebury-Manor-Ln-89135/home/29872388,,,N,Y,36.1247746,-115.3195485
PAST SALE,February-17-2021,Townhouse,11319 Gravitation Dr,Las Vegas,NV,89135,445000,3,2.5,Charleston & 215 Aka Affinity Amd,2027,1742,2019,65,220,265,Sold,,,http://www.redfin.com/NV/Las-Vegas/11319-Gravitation-Dr-89135/home/166601044,GLVAR,2216732,N,Y,36.1558674,-115.3412921
PAST SALE,February-1-2021,Single Family Residential,51 Meadowhawk Ln,Las Vegas,NV,89135,3090000,4,5.25,SUMMERLIN VILLAGE 18 RIDGES PA,6032,14810,2008,81,512,465,Sold,,,http://www.redfin.com/NV/Las-Vegas/51-Meadowhawk-Ln-89135/home/29320510,GLVAR,2241702,N,Y,36.1151692,-115.3441777
PAST SALE,February-25-2021,Single Family Residential,11295 Winter Cottage Pl,Las Vegas,NV,89135,1310000,4,4.0,Red Rock Cntry Club At Summerlin,3601,9148,2000,57,364,245,Sold,,,http://www.redfin.com/NV/Las-Vegas/11295-Winter-Cottage-Pl-89135/home/29587270,GLVAR,2263436,N,Y,36.1414234,-115.339826
PAST SALE,February-26-2021,Single Family Residential,2861 Red Springs Dr,Las Vegas,NV,89135,775000,3,3.5,Red Rock Cntry Club At Summerlin,2508,6970,1999,56,309,,Sold,,,http://www.redfin.com/NV/Las-Vegas/2861-Red-Springs-Dr-89135/home/29587229,GLVAR,2249734,N,Y,36.1379451,-115.3377196
PAST SALE,February-25-2021,Single Family Residential,3075 Soft Horizon Way,Las Vegas,NV,89135,1450000,3,4.5,RED ROCK CNTRY CLUB AT SUMMERL,4200,10125,2002,57,345,245,Sold,,,http://www.redfin.com/NV/Las-Vegas/3075-Soft-Horizon-Way-89135/home/29871606,GLVAR,2273119,N,Y,36.135351,-115.3410297
PAST SALE,March-5-2021,Condo/Co-op,11280 Granite Ridge Dr #1085,Las Vegas,NV,89135,1199900,3,2.5,Summerlin Village 18-Parcel L Fairway Hills Amd,2418,5227,2019,49,496,1002,Sold,,,http://www.redfin.com/NV/Las-Vegas/11280-Granite-Ridge-Dr-89135/unit-1085/home/165926230,GLVAR,2262974,N,Y,36.1137313,-115.3375113
PAST SALE,March-10-2021,Single Family Residential,2287 Green Mountain Ct,Las Vegas,NV,89135,1300000,4,4.5,Red Rock Cntry Club At Summerlin,4899,11761,2000,44,265,245,Sold,,,http://www.redfin.com/NV/Las-Vegas/2287-Green-Mountain-Ct-89135/home/29586746,GLVAR,2265717,N,Y,36.1481505,-115.3512142
PAST SALE,March-10-2021,Single Family Residential,11522 Morning Grove Dr,Las Vegas,NV,89135,1620000,6,5.0,Red Rock Cntry Club At Summerlin,5555,12197,2006,44,292,225,Sold,,,http://www.redfin.com/NV/Las-Vegas/11522-Morning-Grove-Dr-89135/home/29586790,GLVAR,2235094,N,Y,36.1493496,-115.3451961
PAST SALE,January-29-2021,Single Family Residential,5361 Candlespice Way,Las Vegas,NV,89135,430000,3,2.5,Summerlin Village 16 Ladera Phase 1,2173,4356,2006,84,198,26,Sold,,,http://www.redfin.com/NV/Las-Vegas/5361-Candlespice-Way-89135/home/29054265,GLVAR,2247468,N,Y,36.0913554,-115.3245254
PAST SALE,January-28-2021,Townhouse,10345 Pescado Ln,Las Vegas,NV,89135,415000,3,3.0,Vista Dulce Parcel O Village 16 At Summerlin South,1895,3049,2015,85,219,263,Sold,,,http://www.redfin.com/NV/Las-Vegas/10345-Pescado-Ln-89135/home/109634534,GLVAR,2241380,N,Y,36.0841997,-115.3188983
PAST SALE,February-2-2021,Single Family Residential,10349 Bressana Dr,Las Vegas,NV,89135,685000,3,2.5,Village 16A-Parcel C,2433,8276,2017,80,282,83,Sold,,,http://www.redfin.com/NV/Las-Vegas/10349-Bressana-Dr-89178/home/143191458,GLVAR,2236490,N,Y,36.0774433,-115.3178818
PAST SALE,February-4-2021,Single Family Residential,4196 Peaceful Meadow St,Las Vegas,NV,89135,486401,3,2.0,Stonegate II,1452,8533,2020,78,335,55,Sold,,,http://www.redfin.com/NV/Summerlin-South/Peaceful-Meadow-St-89135/home/171302135,GLVAR,2239452,N,Y,36.11321,-115.325891
PAST SALE,January-25-2021,Single Family Residential,5478 Bristol Grove Ln,Las Vegas,NV,89135,449000,3,2.5,Summerlin Village 16 Parcel E J K & E S - 1,2052,4792,2013,88,219,33,Sold,,,http://www.redfin.com/NV/Las-Vegas/5478-Bristol-Grove-Ln-89135/home/52627931,GLVAR,2255127,N,Y,36.0890682,-115.324618
PAST SALE,April-7-2021,Single Family Residential,10420 Garland Grove Way,Las Vegas,NV,89135,525000,5,5.0,Summerlin Village 16 Ladera Phase 2,2685,6098,2006,16,196,22,Sold,,,http://www.redfin.com/NV/Las-Vegas/10420-Garland-Grove-Way-89135/home/29065370,GLVAR,2262407,N,Y,36.0898187,-115.3208448
PAST SALE,April-21-2021,Single Family Residential,50 Morning Glow Ln,Las Vegas,NV,89135,4700000,4,4.5,SUMMERLIN VILLAGE 18 RIDGES PC,6277,19602,2016,2,749,505,Sold,,,http://www.redfin.com/NV/Las-Vegas/50-Morning-Glow-Ln-89135/home/109609652,GLVAR,2279947,N,Y,36.1110892,-115.3512384
PAST SALE,April-21-2021,Single Family Residential,15 Wild Ridge Ct,Las Vegas,NV,89135,3800000,5,4.75,SUMMERLIN VILLAGE 18 PHASE 1 U,9913,22216,2006,2,383,510,Sold,,,http://www.redfin.com/NV/Las-Vegas/15-Wild-Ridge-Ct-89135/home/29872608,GLVAR,2266091,N,Y,36.1262512,-115.3464924
PAST SALE,April-22-2021,Single Family Residential,2305 Malaga Peak St,Las Vegas,NV,89135,555000,3,2.5,Summerlin Village 19 Parcel G Phase 2,1610,3049,2006,1,345,230,Sold,,,http://www.redfin.com/NV/Las-Vegas/2305-Malaga-Peak-St-89135/home/29054326,GLVAR,2280841,N,Y,36.1482962,-115.3385067
PAST SALE,February-26-2021,Single Family Residential,10507 Bryn Haven Ave,Las Vegas,NV,89135,1060000,4,3.0,Monte Bello,3137,10454,2016,56,338,119,Sold,,,http://www.redfin.com/NV/Las-Vegas/10507-Bryn-Haven-Ave-89135/home/109632751,GLVAR,2263261,N,Y,36.082015,-115.3237152
PAST SALE,February-26-2021,Single Family Residential,5225 Peak Climb Dr,Las Vegas,NV,89135,1626995,3,3.5,Summerlin Village 16 Parcels Abcde - Village 3,3853,11761,2021,56,422,225,Sold,,,http://www.redfin.com/NV/Las-Vegas/5225-Peak-Climb-Dr-89144/home/169231749,GLVAR,2250069,N,Y,36.0933352,-115.3340169
PAST SALE,January-26-2021,Single Family Residential,11007 Sanctuary Cove Ct,Las Vegas,NV,89135,1414995,4,4.5,Summerlin Village 16 Parcels Abcde - Village 3,3853,10890,2020,87,367,225,Sold,,,http://www.redfin.com/NV/Las-Vegas/11007-Sanctuary-Cove-Ct-89144/home/169231728,GLVAR,2246761,N,Y,36.0959688,-115.3340646
PAST SALE,April-7-2021,Single Family Residential,5445 Canopy Oak Dr,Las Vegas,NV,89135,625000,4,3.0,Summerlin Village 16 Ladera Phase 2,2781,5663,2006,16,225,23,Sold,,,http://www.redfin.com/NV/Las-Vegas/5445-Canopy-Oak-Dr-89135/home/29065324,GLVAR,2273643,N,Y,36.0898947,-115.321655
PAST SALE,April-12-2021,Single Family Residential,5704 Shadow Bend Dr,Las Vegas,NV,89135,515000,4,3.5,Summerlin Village 16 Parcel E J K & E S - 1,2573,3485,2013,11,200,33,Sold,,,http://www.redfin.com/NV/Las-Vegas/5704-Shadow-Bend-Dr-89135/home/52627913,GLVAR,2279703,N,Y,36.0849768,-115.3270717
PAST SALE,April-14-2021,Single Family Residential,10949 White Clay Dr,Las Vegas,NV,89135,1320000,4,4.5,Summerlin Village 16 Pcls Abcde-Village 2,3451,10454,2019,9,382,271,Sold,,,http://www.redfin.com/NV/Las-Vegas/10949-White-Clay-Dr-89144/home/167754287,GLVAR,2265044,N,Y,36.0954611,-115.3320928
PAST SALE,April-14-2021,Single Family Residential,10942 Earth Hues Ct,Las Vegas,NV,89135,1369185,5,5.5,Summerlin Village 16 Parcels Abcde-Village41,5007,8276,2021,9,273,225,Sold,,,http://www.redfin.com/NV/Las-Vegas/10942-Earth-Hues-Ct-89135/home/169231705,GLVAR,2216674,N,Y,36.091532,-115.327912
PAST SALE,April-19-2021,Single Family Residential,4734 Bersaglio St,Las Vegas,NV,89135,1000000,3,3.25,Sun Colony At Summerlin,3217,9583,2001,4,311,231,Sold,,,http://www.redfin.com/NV/Las-Vegas/4734-Bersaglio-St-89135/home/29886858,GLVAR,2273866,N,Y,36.1036409,-115.3258448
PAST SALE,,Single Family Residential,11241 Pismo Dunes Ct,Las Vegas,NV,89135,293000,2,2.5,,1749,2614,2010,,168,,,,,http://www.redfin.com/NV/Las-Vegas/11241-Pismo-Dunes-Ct-89135/home/33505220,,,N,Y,36.1526623,-115.3397566
PAST SALE,February-16-2021,Single Family Residential,46 Moonfire Dr,Las Vegas,NV,89135,2350000,4,4.5,Summerlin Village 18 Ridges Parcel M N O Phase 1,4618,13504,2014,66,509,475,Sold,,,http://www.redfin.com/NV/Las-Vegas/46-Moonfire-Dr-89135/home/109598873,GLVAR,2260931,N,Y,36.1146554,-115.3365854
PAST SALE,February-16-2021,Condo/Co-op,11312 Vision Peak Ave #103,Las Vegas,NV,89135,417292,3,2.5,Charleston & 215 Aka Affinity,1851,3485,2020,66,225,237,Sold,,,http://www.redfin.com/NV/Summerlin-South/Vision-Peak-Ave-89135/unit-103/home/113672943,GLVAR,2234539,N,Y,36.157762,-115.340929
PAST SALE,January-29-2021,Single Family Residential,80 Glade Hollow Dr,Las Vegas,NV,89135,2300000,3,3.75,Summerlin Village 18 Ridges Parcel M N O Phase 1,4618,10019,2015,84,498,420,Sold,,,http://www.redfin.com/NV/Las-Vegas/80-Glade-Hollow-Dr-89135/home/109598876,GLVAR,2215807,N,Y,36.1100033,-115.3372104
PAST SALE,February-4-2021,Condo/Co-op,11280 Granite Ridge Dr #1009,Las Vegas,NV,89135,680000,3,1.75,Summerlin Village 18-Parcel L Fairway Hills Amd,2037,7405,2019,78,334,840,Sold,,,http://www.redfin.com/NV/Las-Vegas/11280-Granite-Ridge-Dr-89135/unit-1009/home/163844174,GLVAR,2239100,N,Y,36.1137313,-115.3375113
PAST SALE,February-10-2021,Single Family Residential,23 Hawk Ridge Dr,Las Vegas,NV,89135,8250000,5,7.5,SUMMERLIN VILLAGE 18 THE RIDGE,11093,30056,2015,72,744,330,Sold,,,http://www.redfin.com/NV/Las-Vegas/23-Hawk-Ridge-Dr-89135/home/40454789,GLVAR,2268068,N,Y,36.117526,-115.340964
PAST SALE,February-26-2021,Single Family Residential,2764 Gallant Hills Dr,Las Vegas,NV,89135,425500,3,2.0,Kingsway Ridge At Summerlin,1723,5663,2001,56,247,,Sold,,,http://www.redfin.com/NV/Las-Vegas/2764-Gallant-Hills-Dr-89135/home/29896902,GLVAR,2265051,N,Y,36.1404029,-115.333692
PAST SALE,February-26-2021,Single Family Residential,11276 La Madre Ridge Dr,Las Vegas,NV,89135,860000,4,4.5,Red Rock Cntry Club At Summerlin,3601,11326,2002,56,239,245,Sold,,,http://www.redfin.com/NV/Las-Vegas/11276-La-Madre-Ridge-Dr-89135/home/29897733,GLVAR,2223137,N,Y,36.1293692,-115.3393631
PAST SALE,March-8-2021,Single Family Residential,59 Glade Hollow Dr,Las Vegas,NV,89135,2340000,5,5.0,Summerlin Village 18 Ridges Parcel M N O Phase 1,4888,11761,2014,46,479,475,Sold,,,http://www.redfin.com/NV/Las-Vegas/59-Glade-Hollow-Dr-89135/home/103649643,GLVAR,2266390,N,Y,36.1114589,-115.3363077
PAST SALE,February-26-2021,Single Family Residential,54 Grey Feather Dr,Las Vegas,NV,89135,1510000,4,4.5,Summerlin Village 18 Ridges Parcel M N O Phase 1,4172,6970,2015,56,362,355,Sold,,,http://www.redfin.com/NV/Las-Vegas/54-Grey-Feather-Dr-89135/home/88845836,GLVAR,2238197,N,Y,36.1130856,-115.3347336
PAST SALE,February-26-2021,Single Family Residential,10298 Apache Blue Ave,Las Vegas,NV,89148,780000,3,3.5,SUMMERLIN VILLAGE 16A PARCEL E,3116,7841,2018,56,250,82,Sold,,,http://www.redfin.com/NV/Las-Vegas/10298-Apache-Blue-Ave-89178/home/146417746,GLVAR,2069089,N,Y,36.0726239,-115.3171031
PAST SALE,March-17-2021,Single Family Residential,6262 Petroglyph Ave,Las Vegas,NV,89135,1036995,3,3.5,Summerlin Village 16A Parcel A,3291,9583,2020,37,315,110,Sold,,,http://www.redfin.com/NV/Las-Vegas/6262-Petroglyph-Ave-89178/home/166555726,GLVAR,2235130,N,Y,36.074339,-115.319401
PAST SALE,March-19-2021,Townhouse,5646 Granollers Dr,Las Vegas,NV,89135,405000,3,3.0,Vista Dulce Parcel O Village 16 At Summerlin South,1895,2178,2017,35,214,215,Sold,,,http://www.redfin.com/NV/Las-Vegas/5646-Granollers-Dr-89135/home/143188714,GLVAR,2234290,N,Y,36.085071,-115.318936
PAST SALE,March-19-2021,Single Family Residential,5543 Candle Pine Way,Las Vegas,NV,89135,505000,4,2.5,Summerlin Village 16 Ladera Phase 3,2172,5227,2009,35,233,28,Sold,,,http://www.redfin.com/NV/Las-Vegas/5543-Candle-Pine-Way-89135/home/29202679,GLVAR,2268091,N,Y,36.0876664,-115.3170715
PAST SALE,February-17-2021,Townhouse,11327 Gravitation Dr,Las Vegas,NV,89135,458180,3,2.5,Charleston & 215 Aka Affinity Amd,2298,1742,2019,65,199,265,Sold,,,http://www.redfin.com/NV/Las-Vegas/11327-Gravitation-Dr-89135/home/166486245,GLVAR,2216768,N,Y,36.1560363,-115.3413681
PAST SALE,February-17-2021,Single Family Residential,10895 Willow Heights Dr,Las Vegas,NV,89135,1410000,5,4.75,Willow Creek,5799,15682,2002,65,243,403,Sold,,,http://www.redfin.com/NV/Las-Vegas/10895-Willow-Heights-Dr-89135/home/29587456,GLVAR,2218641,N,Y,36.1372543,-115.3304745
PAST SALE,February-11-2021,Single Family Residential,2107 Orchard Mist St,Las Vegas,NV,89135,1375000,5,3.5,Red Rock Cntry Club At Summerlin Amd,4274,6534,2004,71,322,240,Sold,,,http://www.redfin.com/NV/Las-Vegas/2107-Orchard-Mist-Ct-89135/home/28989048,GLVAR,2247966,N,Y,36.1516189,-115.3496634
PAST SALE,February-17-2021,Townhouse,11359 Gravitation Dr,Las Vegas,NV,89135,490000,3,2.5,CHARLESTON & 215 aka AFFINITY,2027,1742,2019,65,242,217,Sold,,,http://www.redfin.com/NV/Las-Vegas/11359-Gravitation-Dr-89135/home/145873119,GLVAR,2246525,N,Y,36.1564035,-115.3423144
PAST SALE,February-24-2021,Condo/Co-op,11280 Granite Ridge Dr #1033,Las Vegas,NV,89135,624995,3,2.0,Summerlin Village 18-Parcel L Fairway Hills Amd,2037,7405,2020,58,307,947,Sold,,,http://www.redfin.com/NV/Las-Vegas/11280-Granite-Ridge-Dr-89135/unit-1033/home/165926186,GLVAR,2246012,N,Y,36.1137313,-115.3375113
PAST SALE,,Single Family Residential,10721 Pipers Cove Ln,Las Vegas,NV,89135,221250,3,2.5,,1178,3049,2001,,188,,,,,http://www.redfin.com/NV/Las-Vegas/10721-Pipers-Cove-Ln-89135/home/29587151,,,N,Y,36.1408058,-115.3267939
PAST SALE,February-22-2021,Single Family Residential,1181 Oberlin Ct,Las Vegas,NV,89135,640000,5,3.0,Summerlin Village 19-Phase 3,3126,6098,2007,60,205,101,Sold,,,http://www.redfin.com/NV/Las-Vegas/1181-Oberlin-Ct-89135/home/29033102,GLVAR,2261607,N,Y,36.1579931,-115.3484367
PAST SALE,February-26-2021,Single Family Residential,11533 Suburban Rd,Las Vegas,NV,89135,570000,5,3.0,Summerlin Village 19-Phase 3,3146,5227,2009,56,181,72,Sold,,,http://www.redfin.com/NV/Las-Vegas/11533-Suburban-Rd-89135/home/29032652,GLVAR,2264725,N,Y,36.1562889,-115.3458674
PAST SALE,February-16-2021,Single Family Residential,11345 Colinward Ave,Las Vegas,NV,89135,496000,3,2.5,Summerlin Village 19 Enclave 2,2908,3485,2008,66,171,85,Sold,,,http://www.redfin.com/NV/Las-Vegas/11345-Colinward-Ave-89135/home/29320380,GLVAR,2237056,N,Y,36.150735,-115.3416084
PAST SALE,February-3-2021,Condo/Co-op,11280 Granite Rdg #1098,Las Vegas,NV,89135,964995,3,2.0,Summerlin Village 18-Parcel L Fairway Hills Amd,2037,7405,2019,79,474,947,Sold,,,http://www.redfin.com/NV/Las-Vegas/11280-Granite-Ridge-Dr-89135/unit-1098/home/165926240,GLVAR,2186264,N,Y,36.1137313,-115.3375113
PAST SALE,February-25-2021,Single Family Residential,9 Wild Ridge Ct,Las Vegas,NV,89135,4400000,5,5.0,Summerlin Village 18 Phase 1,8844,19602,2011,57,498,615,Sold,,,http://www.redfin.com/NV/Las-Vegas/9-Wild-Ridge-Ct-89135/home/29872603,GLVAR,2220045,N,Y,36.12659,-115.3463998
PAST SALE,February-9-2021,Single Family Residential,2546 Grassy Spg,Las Vegas,NV,89135,1530000,4,4.5,Red Rock Cntry Club At Summerlin,4443,10454,2000,73,344,245,Sold,,,http://www.redfin.com/NV/Las-Vegas/2546-Grassy-Spring-Pl-89135/home/29586824,GLVAR,2220509,N,Y,36.1439258,-115.3452887
PAST SALE,March-17-2021,Single Family Residential,99 Hawk Ridge Dr,Las Vegas,NV,89135,6150000,8,8.75,SUMMERLIN VILLAGE 18 PARCEL E,13490,72745,2008,37,456,790,Sold,,,http://www.redfin.com/NV/Las-Vegas/99-Hawk-Ridge-Dr-89135/home/28989627,GLVAR,2170938,N,Y,36.1169743,-115.349918
PAST SALE,March-8-2021,Single Family Residential,2104 Orchard Mist St,Las Vegas,NV,89135,1395000,5,5.5,Red Rock Cntry Club At Summerlin,5037,9148,2004,46,277,245,Sold,,,http://www.redfin.com/NV/Las-Vegas/2104-Orchard-Mist-St-89135/home/28989006,GLVAR,2249364,N,Y,36.1517704,-115.3491111
PAST SALE,April-6-2021,Single Family Residential,3016 Lenoir St,Las Vegas,NV,89135,610000,5,3.0,Glenbrook At Summerlin-Phase 2,3723,6970,2001,17,164,,Sold,,,http://www.redfin.com/NV/Las-Vegas/3016-Lenoir-St-89135/home/29870616,GLVAR,2278009,N,Y,36.1354158,-115.335104
PAST SALE,April-6-2021,Single Family Residential,1795 Cambrian Dream Ct,Las Vegas,NV,89135,480000,3,2.25,Westpark Summerlin Village 19 Enclave 2,1751,3049,2011,17,274,72,Sold,,,http://www.redfin.com/NV/Las-Vegas/1795-Cambrian-Dream-Ct-89135/home/40234294,GLVAR,2279641,N,Y,36.1534943,-115.3390622
PAST SALE,April-7-2021,Single Family Residential,18 Misty Peaks Ct,Las Vegas,NV,89135,4150000,5,7.5,SUMMERLIN VILLAGE 18 PHASE 1 U,9028,25265,2004,16,460,560,Sold,,,http://www.redfin.com/NV/Las-Vegas/18-Misty-Peaks-Ct-89135/home/29872590,GLVAR,2260803,N,Y,36.124273,-115.3475108
PAST SALE,April-7-2021,Single Family Residential,11042 Village Ridge Ln,Las Vegas,NV,89135,435000,3,2.0,Granite Peaks At Summerlin- 1,1718,6970,2003,16,253,,Sold,,,http://www.redfin.com/NV/Las-Vegas/11042-Village-Ridge-Ln-89135/home/29936260,GLVAR,2273316,N,Y,36.1214292,-115.3335994
PAST SALE,April-8-2021,Single Family Residential,10866 Willow Heights Dr,Las Vegas,NV,89135,1643000,5,4.5,Willow Creek,4780,15682,2003,15,344,373,Sold,,,http://www.redfin.com/NV/Las-Vegas/10866-Willow-Heights-Dr-89135/home/29587021,GLVAR,2264913,N,Y,36.1377183,-115.3298263
PAST SALE,April-9-2021,Townhouse,1551 Plaza Centre Dr #102,Las Vegas,NV,89135,345000,3,2.5,Summerlin Village 19 Phase 2,1603,4934,2009,14,215,172,Sold,,,http://www.redfin.com/NV/Las-Vegas/1551-Plaza-Centre-Dr-89135/unit-102/home/29286153,GLVAR,2280806,N,Y,36.155166,-115.344337
PAST SALE,April-12-2021,Single Family Residential,11361 Merado Peak Dr,Las Vegas,NV,89135,540000,3,2.5,Summerlin Village 19-Parcel G Phase 1,1962,2614,2005,11,275,230,Sold,,,http://www.redfin.com/NV/Las-Vegas/11361-Merado-Peak-Dr-89135/home/29033477,GLVAR,2276227,N,Y,36.1465739,-115.3406825
PAST SALE,April-12-2021,Condo/Co-op,11280 Granite Ridge Dr #1022,Las Vegas,NV,89135,925000,3,2.5,Summerlin Village 18-Parcel L Fairway Hills Amd,2414,7405,2020,11,383,1002,Sold,,,http://www.redfin.com/NV/Las-Vegas/11280-Granite-Ridge-Dr-89135/unit-1022/home/166309508,GLVAR,2276329,N,Y,36.1137313,-115.3375113
PAST SALE,April-14-2021,Single Family Residential,3071 Wandering River Ct,Las Vegas,NV,89135,1610000,3,2.75,Willow Creek,4134,15246,2003,9,389,409,Sold,,,http://www.redfin.com/NV/Las-Vegas/3071-Wandering-River-Ct-89135/home/29587479,GLVAR,2274276,N,Y,36.1339044,-115.3315855
PAST SALE,April-15-2021,Single Family Residential,2774 Windcrest Falls Dr,Las Vegas,NV,89135,460000,3,2.0,Kingsway Ridge At Summerlin,2026,5227,2001,8,227,48,Sold,,,http://www.redfin.com/NV/Las-Vegas/2774-Windcrest-Falls-Dr-89135/home/29885841,GLVAR,2268442,N,Y,36.1403719,-115.3347105
PAST SALE,April-15-2021,Single Family Residential,11048 Onslow Ct,Las Vegas,NV,89135,533000,4,2.5,Glenbrook At Summerlin-Phase 2,3023,5663,2001,8,176,,Sold,,,http://www.redfin.com/NV/Las-Vegas/11048-Onslow-Ct-89135/home/29871763,GLVAR,2273331,N,Y,36.1340269,-115.334479
PAST SALE,April-16-2021,Single Family Residential,2814 Soft Horizon Way,Las Vegas,NV,89135,1099000,3,3.5,Red Rock Country Club at Summerlin,2712,6970,2000,7,405,245,Sold,,,http://www.redfin.com/NV/Las-Vegas/2814-Soft-Horizon-Way-89135/home/29832266,GLVAR,2278418,N,Y,36.1390268,-115.3391779
PAST SALE,April-16-2021,Single Family Residential,11305 Golden Chestnut Pl,Las Vegas,NV,89135,2125000,4,4.25,Red Rock Cntry Club At Summerlin,4899,11761,2001,7,434,245,Sold,,,http://www.redfin.com/NV/Las-Vegas/11305-Golden-Chestnut-Pl-89135/home/29870676,GLVAR,2274628,N,Y,36.1397674,-115.3404742
PAST SALE,April-16-2021,Single Family Residential,11563 Glowing Sunset Ln,Las Vegas,NV,89135,1355000,4,3.0,Red Rock Cntry Club At Summerlin,2712,9148,2004,7,500,245,Sold,,,http://www.redfin.com/NV/Las-Vegas/11563-Glowing-Sunset-Ln-89135/home/28978815,GLVAR,2276374,N,Y,36.1281876,-115.3456591
PAST SALE,April-16-2021,Single Family Residential,41 Owl Ridge Ct,Las Vegas,NV,89135,2750000,4,4.5,Summerlin Village 18 Ridges Parcel M N O Phase 1,4618,13939,2014,7,595,475,Sold,,,http://www.redfin.com/NV/Las-Vegas/41-Owl-Ridge-Ct-89135/home/109598860,GLVAR,2270901,N,Y,36.114103,-115.3362151
PAST SALE,March-31-2021,Single Family Residential,11353 Corsica Mist Ave,Las Vegas,NV,89135,665000,3,4.0,Summerlin Village 19-Parcel G Phase 1,3066,4792,2005,23,217,230,Sold,,,http://www.redfin.com/NV/Las-Vegas/11353-Corsica-Mist-Ave-89135/home/28966643,GLVAR,2272701,N,Y,36.1497415,-115.3413442
PAST SALE,April-20-2021,Townhouse,4271 Veraz St,Las Vegas,NV,89135,580000,3,3.5,Summerlin Village 15A Parcel 1-Latitude Phase 1,2344,5355,2018,3,247,479,Sold,,,http://www.redfin.com/NV/Las-Vegas/4271-Veraz-St-89135/home/161751948,GLVAR,2269148,N,Y,36.11169,-115.330588
PAST SALE,April-22-2021,Single Family Residential,11594 Glowing Sunset Ln,Las Vegas,NV,89135,1665000,4,3.75,Red Rock Cntry Club At Summerlin,4410,11326,2003,1,378,245,Sold,,,http://www.redfin.com/NV/Las-Vegas/11594-Glowing-Sunset-Ln-89135/home/29937087,GLVAR,2282077,N,Y,36.1288152,-115.3463998
PAST SALE,April-22-2021,Single Family Residential,3609 Australian Cloud Dr,Las Vegas,NV,89135,455000,3,2.0,Sunset Ridge At The Ridges In Summerlin,1632,5227,2002,1,279,,Sold,,,http://www.redfin.com/NV/Las-Vegas/3609-Australian-Cloud-Dr-89135/home/29909007,GLVAR,2279091,N,Y,36.1241879,-115.3329976
PAST SALE,February-16-2021,Single Family Residential,2984 Kedleston St,Las Vegas,NV,89135,1000000,4,3.25,Heritage Glen At Summerlin,3486,10019,2002,66,287,359,Sold,,,http://www.redfin.com/NV/Las-Vegas/2984-Kedleston-St-89135/home/29898063,GLVAR,2244816,N,Y,36.1358888,-115.3263078
PAST SALE,February-17-2021,Single Family Residential,1800 Taylorville St,Las Vegas,NV,89135,740000,4,3.5,Fairfield At Summerlin,2994,7841,2002,65,247,48,Sold,,,http://www.redfin.com/NV/Las-Vegas/1800-Taylorville-St-89135/home/29897183,GLVAR,2259542,N,Y,36.1515156,-115.3197337
PAST SALE,February-18-2021,Single Family Residential,10792 Wallflower Ave,Las Vegas,NV,89135,395000,3,2.5,Garden Glen At Summerlin,2056,5227,2001,64,192,48,Sold,,,http://www.redfin.com/NV/Las-Vegas/10792-Wallflower-Ave-89135/home/29872617,GLVAR,2258582,N,Y,36.1294941,-115.3283217
PAST SALE,March-8-2021,Single Family Residential,3203 Cambridge Hollows Ct,Las Vegas,NV,89135,405000,3,2.0,Cambridge Court In Summerlin,1610,7405,1999,46,252,,Sold,,,http://www.redfin.com/NV/Las-Vegas/3203-Cambridge-Hollows-Ct-89135/home/29588974,GLVAR,2268498,N,Y,36.1330826,-115.3193633
PAST SALE,February-5-2021,Single Family Residential,10744 Tottenham Ave,Las Vegas,NV,89135,314000,3,2.5,Stratford Court Summerlin Village 14A East Phase 1,1178,3049,2000,77,267,48,Sold,,,http://www.redfin.com/NV/Las-Vegas/10744-Tottenham-Ave-89135/home/29587185,GLVAR,2260666,N,Y,36.1440663,-115.3274884
PAST SALE,February-5-2021,Single Family Residential,10391 Howling Coyote Ave,Las Vegas,NV,89135,430000,3,2.5,Gresham Park At Summerlin Centre,1983,4356,2003,77,217,,Sold,,,http://www.redfin.com/NV/Las-Vegas/10391-Howling-Coyote-Ave-89135/home/28989239,GLVAR,2239940,N,Y,36.1470784,-115.319942
PAST SALE,February-26-2021,Single Family Residential,10694 Silver Pond Ave,Las Vegas,NV,89135,511736,5,4.0,Stoneagte I,2466,3605,2020,56,208,55,Sold,,,http://www.redfin.com/NV/Las-Vegas/10694-Silver-Pond-Ave-89135/home/171302058,GLVAR,2246915,N,Y,36.113849,-115.327493
PAST SALE,February-19-2021,Single Family Residential,10796 Penhurst Way,Las Vegas,NV,89135,1625000,5,5.5,Heritage Glen At Summerlin,4859,18731,2001,63,334,359,Sold,,,http://www.redfin.com/NV/Las-Vegas/10796-Penhurst-Way-89135/home/29871372,GLVAR,2262062,N,Y,36.1370817,-115.3280671
PAST SALE,February-26-2021,Single Family Residential,10380 Nostalgia Cir,Las Vegas,NV,89135,580000,4,2.75,Springfield At Summerlin,2431,5663,2001,56,239,48,Sold,,,http://www.redfin.com/NV/Las-Vegas/10380-Nostalgia-Cir-89135/home/29897115,GLVAR,2269401,N,Y,36.153912,-115.319942
PAST SALE,February-26-2021,Single Family Residential,10376 Starthistle Ln,Las Vegas,NV,89135,475000,3,2.0,Ivy Glen At Summerlin,1833,9583,2002,56,259,,Sold,,,http://www.redfin.com/NV/Las-Vegas/10376-Starthistle-Ln-89135/home/29872775,GLVAR,2242880,N,Y,36.1276423,-115.3194327
PAST SALE,,Single Family Residential,10294 Garden Glen Ln,Las Vegas,NV,89135,575000,3,3.5,,3268,8276,2002,,176,,,,,http://www.redfin.com/NV/Las-Vegas/10294-Garden-Glen-Ln-89135/home/29872501,,,N,Y,36.1256519,-115.3174188
PAST SALE,March-12-2021,Single Family Residential,10517 Howling Coyote Ave,Las Vegas,NV,89135,390000,3,2.5,Gresham Park At Summerlin Centre,1845,5227,2003,42,211,43,Sold,,,http://www.redfin.com/NV/Las-Vegas/10517-Howling-Coyote-Ave-89135/home/29918959,GLVAR,2265235,N,Y,36.1469187,-115.3227661
PAST SALE,March-1-2021,Single Family Residential,10447 Garden Rose Dr,Las Vegas,NV,89135,599000,4,3.25,Glenleigh Gardens At Summerlin,2865,7405,2001,53,209,69,Sold,,,http://www.redfin.com/NV/Las-Vegas/10447-Garden-Rose-Dr-89135/home/29872744,GLVAR,2248454,N,Y,36.1288001,-115.3212615
PAST SALE,March-2-2021,Single Family Residential,10530 Hope Mills Dr,Las Vegas,NV,89135,690000,4,3.0,Wisteria Hills In Summerlin,3710,8276,2002,52,186,48,Sold,,,http://www.redfin.com/NV/Las-Vegas/10530-Hope-Mills-Dr-89135/home/29872544,GLVAR,2263316,N,Y,36.1251364,-115.3228819
PAST SALE,March-23-2021,Single Family Residential,10715 Hobbiton Ave,Las Vegas,NV,89135,884000,4,4.5,Wood Glen At Summerlin,3792,8712,2001,31,233,350,Sold,,,http://www.redfin.com/NV/Las-Vegas/10715-Hobbiton-Ave-89135/home/29871334,GLVAR,2261568,N,Y,36.1375578,-115.3263078
PAST SALE,April-14-2021,Single Family Residential,10350 Wood Plank Ln,Las Vegas,NV,89135,378000,4,3.0,Asbury Park In Summerlin,1650,3920,2003,9,229,,Sold,,,http://www.redfin.com/NV/Las-Vegas/10350-Wood-Plank-Ln-89135/home/29936337,GLVAR,2282114,N,Y,36.1457499,-115.3187846
PAST SALE,March-30-2021,Single Family Residential,10680 Foggy Glen Ave,Las Vegas,NV,89135,362000,3,2.0,Pinedale At Summerlin,1469,9148,2003,24,246,48,Sold,,,http://www.redfin.com/NV/Las-Vegas/10680-Foggy-Glen-Ave-89135/home/28974548,GLVAR,2280032,N,Y,36.1451489,-115.3261226
PAST SALE,February-22-2021,Single Family Residential,3552 Chelsea Gardens Dr,Las Vegas,NV,89135,595000,3,2.5,Giverny At Summerlin,2693,7841,2003,60,221,48,Sold,,,http://www.redfin.com/NV/Las-Vegas/3552-Chelsea-Gardens-Dr-89135/home/29872481,GLVAR,2218793,N,Y,36.1248976,-115.3154743
PAST SALE,April-20-2021,Single Family Residential,11359 Corsica Mist Ave,Las Vegas,NV,89135,480000,3,2.5,Summerlin Village 19-Parcel G Phase 3,1750,2178,2007,3,274,230,Sold,,,http://www.redfin.com/NV/Las-Vegas/11359-Corsica-Mist-Ave-89135/home/29286184,GLVAR,2282890,N,Y,36.1495621,-115.341701
PAST SALE,April-20-2021,Single Family Residential,3528 Ridge Meadow St,Las Vegas,NV,89135,559000,3,2.0,ECHO RIDGE AT THE RIDGES IN SU,2001,6534,2002,3,279,,Sold,,,http://www.redfin.com/NV/Las-Vegas/3528-Ridge-Meadow-St-89135/home/29912015,GLVAR,2271134,N,Y,36.1256034,-115.336678
PAST SALE,February-16-2021,Single Family Residential,10685 Angelo Tenero Ave,Las Vegas,NV,89135,805000,3,2.5,Sun Colony At Summerlin,2807,8276,2001,66,287,231,Sold,,,http://www.redfin.com/NV/Las-Vegas/10685-Angelo-Tenero-Ave-89135/home/29897697,GLVAR,2239434,N,Y,36.112567,-115.3275115
PAST SALE,April-21-2021,Single Family Residential,10608 Tranquil Glade Ln,Las Vegas,NV,89135,531750,3,2.5,Summerlin Village 16 Parcel E J K & E S - 1,2527,6098,2011,2,210,33,Sold,,,http://www.redfin.com/NV/Las-Vegas/10608-Tranquil-Glade-Ln-89135/home/35654738,GLVAR,2278003,N,Y,36.0855843,-115.325081
