SALE TYPE,SOLD DATE,PROPERTY TYPE,ADDRESS,CITY,STATE OR PROVINCE,ZIP OR POSTAL CODE,PRICE,BEDS,BATHS,LOCATION,SQUARE FEET,LOT SIZE,YEAR BUILT,DAYS ON MARKET,$/SQUARE FEET,HOA/MONTH,STATUS,NEXT OPEN HOUSE START TIME,NEXT OPEN HOUSE END TIME,URL (SEE http://www.redfin.com/buy-a-home/comparative-market-analysis FOR INFO ON PRICING),SOURCE,MLS#,FAVORITE,INTERESTED,LATITUDE,LONGITUDE
PAST SALE,April-13-2021,Single Family Residential,3554 El Camino Rd,Las Vegas,NV,89103,309000,4,2.5,Century Spgs #1,1889,7841,1974,8,164,,Sold,,,http://www.redfin.com/NV/Las-Vegas/3554-El-Camino-Rd-89103/home/29544611,GLVAR,2277163,N,Y,36.1244439,-115.229144
PAST SALE,February-5-2021,Single Family Residential,6576 Baywood Ave,Las Vegas,NV,89103,290000,3,1.75,Casa Linda #4E,1232,6098,1976,75,235,,Sold,,,http://www.redfin.com/NV/Las-Vegas/6576-Baywood-Ave-89103/home/29543815,GLVAR,2255664,N,Y,36.1225473,-115.2356693
PAST SALE,March-19-2021,Condo/Co-op,4525 Dean Martin Dr #2803,Las Vegas,NV,89103,428000,2,1.75,Panorama Towers 1,1085,,2006,33,394,748,Sold,,,http://www.redfin.com/NV/Las-Vegas/4525-Dean-Martin-Dr-89103/unit-2803/home/29765184,GLVAR,2253906,N,Y,36.107596,-115.182163
PAST SALE,April-6-2021,Condo/Co-op,4381 Flamingo Rd #3506,Las Vegas,NV,89103,232500,0,1.0,Palms Place A Resort Condo & Spa At The Palms Lv,615,,2006,15,378,553,Sold,,,http://www.redfin.com/NV/Las-Vegas/4381-W-Flamingo-Rd-89103/unit-3506/home/29790023,GLVAR,2277901,N,Y,36.114414,-115.1990639
PAST SALE,April-8-2021,Condo/Co-op,4471 Dean Martin Dr #1707,Las Vegas,NV,89103,1823100,3,2.5,Panorama Tower Phase Iii,3090,,2007,13,590,1981,Sold,,,http://www.redfin.com/NV/Las-Vegas/4471-Dean-Martin-Dr-89103/unit-1707/home/29813847,GLVAR,2266092,N,Y,36.1086611,-115.1819222
PAST SALE,March-23-2021,Condo/Co-op,4400 Jones Blvd #2027,Las Vegas,NV,89103,130000,1,1.0,Borgata Condo,717,,1998,29,181,221,Sold,,,http://www.redfin.com/NV/Las-Vegas/4400-S-Jones-Blvd-89103/unit-2027/home/29449431,GLVAR,2272601,N,Y,36.1100175,-115.2221234
PAST SALE,April-9-2021,Condo/Co-op,4200 Valley View Blvd #2086,Las Vegas,NV,89103,136000,1,1.0,Flamingo Palms Villas,496,496,1990,12,274,190,Sold,,,http://www.redfin.com/NV/Las-Vegas/4200-S-Valley-View-Blvd-89103/unit-2086/home/29283919,GLVAR,2273626,N,Y,36.113565,-115.187153
PAST SALE,April-7-2021,Condo/Co-op,4200 S Valley View Blvd #1068,Las Vegas,NV,89103,149900,1,1.0,FLAMINGO PALMS VILLAS,680,,1990,14,220,250,Sold,,,http://www.redfin.com/NV/Las-Vegas/4200-S-Valley-View-Blvd-89103/unit-1068/home/29283987,GLVAR,2261602,N,Y,36.113224,-115.187206
PAST SALE,April-5-2021,Townhouse,4649 Via Torino,Las Vegas,NV,89103,210000,2,2.0,Park Villas,989,6534,1979,16,212,,Sold,,,http://www.redfin.com/NV/Las-Vegas/4649-Via-Torino-89103/home/29502320,GLVAR,2257765,N,Y,36.1158375,-115.2039686
PAST SALE,April-9-2021,Single Family Residential,3920 Amy Marie Ct,Las Vegas,NV,89103,415000,3,2.0,Plymouth Court,2344,6970,1989,12,177,,Sold,,,http://www.redfin.com/NV/Las-Vegas/3920-Amy-Marie-Ct-89103/home/29541039,GLVAR,2276123,N,Y,36.1181423,-115.2167511
PAST SALE,April-9-2021,Condo/Co-op,5060 Indian River Dr #369,Las Vegas,NV,89103,115000,1,1.0,Westwood Point,700,,1982,12,164,205,Sold,,,http://www.redfin.com/NV/Las-Vegas/5060-Indian-River-Dr-89103/unit-369/home/29031581,GLVAR,2276529,N,Y,36.1093416,-115.2116567
PAST SALE,March-24-2021,Single Family Residential,3711 Torrey Pines Dr,Las Vegas,NV,89103,365000,3,2.0,Casa Linda,1575,8712,1977,28,232,,Sold,,,http://www.redfin.com/NV/Las-Vegas/3711-S-Torrey-Pines-Dr-89103/home/29544222,GLVAR,2270349,N,Y,36.1216368,-115.2342337
PAST SALE,April-12-2021,Condo/Co-op,4471 Dean Martin Dr #4407,Las Vegas,NV,89103,3650000,3,3.0,PANORAMA TOWER PHASE III,3653,,2007,9,999,2341,Sold,,,http://www.redfin.com/NV/Las-Vegas/4471-Dean-Martin-Dr-89103/unit-4407/home/29815211,GLVAR,2210175,N,Y,36.1086611,-115.1819222
PAST SALE,April-13-2021,Condo/Co-op,5576 Rochelle Ave Unit 5A,Las Vegas,NV,89103,165000,2,2.0,Casa Mesa 1 Condo Amd,1058,2116,1983,8,156,210,Sold,,,http://www.redfin.com/NV/Las-Vegas/5576-W-Rochelle-Ave-89103/unit-5A/home/29573498,GLVAR,2255998,N,Y,36.112237,-115.217229
PAST SALE,April-14-2021,Condo/Co-op,4200 Valley Vw #3033,Las Vegas,NV,89103,280000,3,2.0,Flamingo Palms Villas,1257,9775,1990,7,223,430,Sold,,,http://www.redfin.com/NV/Las-Vegas/4200-S-Valley-View-Blvd-89103/unit-3033/home/29226760,GLVAR,2190317,N,Y,36.11228,-115.187798
PAST SALE,April-15-2021,Condo/Co-op,5021 River Glen Dr #42,Las Vegas,NV,89103,130000,2,1.0,Westwood Point,816,,1982,6,159,256,Sold,,,http://www.redfin.com/NV/Las-Vegas/5021-River-Glen-Dr-89103/unit-42/home/29030715,GLVAR,2281373,N,Y,36.1101732,-115.2104261
PAST SALE,April-12-2021,Condo/Co-op,3591 Arville St Unit 301C,Las Vegas,NV,89103,128000,2,1.75,Pine Grove Condo,968,,1985,9,132,287,Sold,,,http://www.redfin.com/NV/Las-Vegas/3591-Arville-St-89103/unit-301C/home/29501297,GLVAR,2268459,N,Y,36.1246557,-115.2003792
PAST SALE,April-15-2021,Condo/Co-op,4920 Indian River Dr #456,Las Vegas,NV,89103,178000,3,2.0,Westwood Point,1205,,1982,6,148,250,Sold,,,http://www.redfin.com/NV/Las-Vegas/4920-Indian-River-Dr-89103/unit-456/home/29031312,GLVAR,2269234,N,Y,36.109328,-115.209509
PAST SALE,March-31-2021,Single Family Residential,5293 Winston,Las Vegas,NV,89103,330000,4,2.5,Valley West 7 Phase 2,2106,7405,1978,21,157,,Sold,,,http://www.redfin.com/NV/Las-Vegas/5293-Winston-Dr-89103/home/29542438,GLVAR,2192994,N,Y,36.1201668,-115.2134861
PAST SALE,,Condo/Co-op,5525 W Flamingo Rd #1003,Las Vegas,NV,89103,150000,2,2.0,,1135,,1997,,132,,,,,http://www.redfin.com/NV/Las-Vegas/5525-W-Flamingo-Rd-89103/unit-1003/home/29064707,,,N,Y,36.1139059,-115.2168438
PAST SALE,April-16-2021,Condo/Co-op,3976 Colors Ct #39,Las Vegas,NV,89103,145000,2,2.0,Silverado Villas 1 Condo,828,,1984,5,175,240,Sold,,,http://www.redfin.com/NV/Las-Vegas/3976-Colors-Ct-89103/unit-39/home/29502603,GLVAR,2281303,N,Y,36.1232128,-115.1928365
PAST SALE,April-19-2021,Condo/Co-op,4525 Dean Martin Dr #3105,Las Vegas,NV,89103,450000,2,1.75,Panorama Towers 1,1201,,2006,2,375,797,Sold,,,http://www.redfin.com/NV/Las-Vegas/4525-Dean-Martin-Dr-89103/unit-3105/home/29765137,GLVAR,2281150,N,Y,36.107596,-115.182163
PAST SALE,April-19-2021,Condo/Co-op,3585 Arville St Unit 403C,Las Vegas,NV,89103,125000,2,1.5,Pine Grove Condo,968,,1985,2,129,200,Sold,,,http://www.redfin.com/NV/Las-Vegas/3585-Arville-St-89103/unit-403C/home/29501284,GLVAR,2268790,N,Y,36.1246375,-115.2009221
PAST SALE,,Single Family Residential,3830 Leisure Ln,Las Vegas,NV,89103,392000,4,3.0,,2186,6098,1984,,179,,,,,http://www.redfin.com/NV/Las-Vegas/3830-Leisure-Ln-89103/home/29540901,,,N,Y,36.1198125,-115.2167511
PAST SALE,April-2-2021,Condo/Co-op,5026 River Glen Dr #162,Las Vegas,NV,89103,125500,2,1.0,Westwood Point,816,,1982,19,154,256,Sold,,,http://www.redfin.com/NV/Las-Vegas/5026-River-Glen-Dr-89103/unit-162/home/29015599,GLVAR,2270567,N,Y,36.111152,-115.210197
PAST SALE,April-19-2021,Condo/Co-op,4400 Jones Blvd #2079,Las Vegas,NV,89103,151306,1,1.0,Borgata Condo,717,,1998,2,211,221,Sold,,,http://www.redfin.com/NV/Las-Vegas/4400-S-Jones-Blvd-89103/unit-2079/home/29450388,GLVAR,2259664,N,Y,36.1100175,-115.2221234
PAST SALE,February-16-2021,Townhouse,4142 Larkwood Ave,Las Vegas,NV,89103,245000,3,2.0,Laurel Park Homes,1311,7405,1977,64,187,,Sold,,,http://www.redfin.com/NV/Las-Vegas/4142-Larkwood-Ave-89103/home/29569523,GLVAR,2256821,N,Y,36.113459,-115.237663
PAST SALE,February-19-2021,Single Family Residential,3865 S Torrey Pines Dr,Las Vegas,NV,89103,590000,5,3.0,,3700,20038,1994,61,159,,Sold,,,http://www.redfin.com/NV/Las-Vegas/3865-S-Torrey-Pines-Dr-89103/home/29543912,GLVAR,2259842,N,Y,36.1186484,-115.2343495
PAST SALE,February-10-2021,Condo/Co-op,5155 W Tropicana Ave #1049,Las Vegas,NV,89103,190000,2,2.0,Club Marbella Condo Amd,1316,,1995,70,144,151,Sold,,,http://www.redfin.com/NV/Las-Vegas/5155-W-Tropicana-Ave-89103/unit-1049/home/29578336,GLVAR,2257340,N,Y,36.1003569,-115.21189
PAST SALE,,Single Family Residential,3957 Avocado Dr,Las Vegas,NV,89103,277000,4,2.5,,1980,6534,1986,,140,,,,,http://www.redfin.com/NV/Las-Vegas/3957-Avocado-Dr-89103/home/29546146,,,N,Y,36.1170937,-115.2332149
PAST SALE,February-26-2021,Condo/Co-op,5317 Indian River Dr #296,Las Vegas,NV,89103,135500,2,1.75,Westwood Point,978,,1982,54,139,256,Sold,,,http://www.redfin.com/NV/Las-Vegas/5317-Indian-River-Dr-89103/unit-296/home/29032028,GLVAR,2255267,N,Y,36.1084004,-115.2144355
PAST SALE,March-5-2021,Condo/Co-op,4460 Sandy River Dr #50,Las Vegas,NV,89103,130000,2,1.0,Westwood Point,816,816,1982,47,159,229,Sold,,,http://www.redfin.com/NV/Las-Vegas/4460-Sandy-River-Dr-89103/unit-50/home/29031225,GLVAR,2264297,N,Y,36.109104,-115.208754
PAST SALE,March-10-2021,Condo/Co-op,4877 Torrey Pines Dr #106,Las Vegas,NV,89103,163000,2,2.0,Los Verdes Amd,942,,1993,42,173,185,Sold,,,http://www.redfin.com/NV/Las-Vegas/4877-S-Torrey-Pines-Dr-89103/unit-106/home/29571696,GLVAR,2265868,N,Y,36.100304,-115.235385
PAST SALE,March-11-2021,Condo/Co-op,4920 Indian River Dr #454,Las Vegas,NV,89103,170000,3,2.0,Westwood Point,1205,,1982,41,141,,Sold,,,http://www.redfin.com/NV/Las-Vegas/4920-Indian-River-Dr-89103/unit-454/home/29031305,GLVAR,2233944,N,Y,36.109328,-115.209509
PAST SALE,March-11-2021,Condo/Co-op,6625 Tropicana #102,Las Vegas,NV,89103,148000,2,2.0,Casa Mesa Villas,1013,2025,1985,41,146,165,Sold,,,http://www.redfin.com/NV/Las-Vegas/6625-W-Tropicana-Ave-89103/unit-102/home/29579543,GLVAR,2185209,N,Y,36.0993326,-115.2366881
PAST SALE,March-12-2021,Condo/Co-op,5155 Tropicana Ave #2066,Las Vegas,NV,89103,216500,2,2.0,Club Marbella Condo Amd,1183,,1996,40,183,162,Sold,,,http://www.redfin.com/NV/Las-Vegas/5155-W-Tropicana-Ave-89103/unit-2066/home/29578448,GLVAR,2258882,N,Y,36.1003569,-115.21189
PAST SALE,February-19-2021,Condo/Co-op,4525 Dean Martin Dr #2312,Las Vegas,NV,89103,835000,2,2.0,Panorama Towers 1,2189,,2006,61,381,1453,Sold,,,http://www.redfin.com/NV/Las-Vegas/4525-Dean-Martin-Dr-89103/unit-2312/home/29765169,GLVAR,2224613,N,Y,36.107596,-115.182163
PAST SALE,January-21-2021,Condo/Co-op,4111 Sanderling Cir #360,Las Vegas,NV,89103,150000,2,2.0,SPRING OAKS LOT J 2ND AMD,1008,,1987,90,149,150,Sold,,,http://www.redfin.com/NV/Las-Vegas/4111-Sanderling-Cir-89103/unit-360/home/29502818,GLVAR,2173772,N,Y,36.1243413,-115.1957476
PAST SALE,March-5-2021,Condo/Co-op,4471 Dean Martin Dr #501,Las Vegas,NV,89103,350000,2,1.5,Panorama Tower Phase Iii,1052,,2007,47,333,675,Sold,,,http://www.redfin.com/NV/Las-Vegas/4471-Dean-Martin-Dr-89103/unit-501/home/29814053,GLVAR,2262234,N,Y,36.1086611,-115.1819222
PAST SALE,March-5-2021,Condo/Co-op,4575 Dean Martin Dr #500,Las Vegas,NV,89103,449500,2,1.75,Panorama Towers 2,1579,,2005,47,285,1048,Sold,,,http://www.redfin.com/NV/Las-Vegas/4575-Dean-Martin-Dr-89103/unit-500/home/29793615,GLVAR,2241419,N,Y,36.1066027,-115.1821536
PAST SALE,February-16-2021,Condo/Co-op,4381 Flamingo Rd #3310,Las Vegas,NV,89103,245000,0,1.0,Palms Place A Resort Condo & Spa At The Palms Lv,615,,2006,64,398,554,Sold,,,http://www.redfin.com/NV/Las-Vegas/4381-W-Flamingo-Rd-89103/unit-3310/home/29790055,GLVAR,2258739,N,Y,36.114414,-115.1990639
PAST SALE,February-25-2021,Condo/Co-op,4361 Gannet Cir #158,Las Vegas,NV,89103,115000,1,1.0,SPRING OAKS-LOT J AMD,684,2304,1980,55,168,223,Sold,,,http://www.redfin.com/NV/Las-Vegas/4361-Gannet-Cir-89103/unit-158/home/29503014,GLVAR,2246667,N,Y,36.123398,-115.198897
PAST SALE,March-1-2021,Condo/Co-op,4575 Dean Martin Dr #1806,Las Vegas,NV,89103,820000,2,2.5,Panorama Towers 2,2324,,2005,51,353,1548,Sold,,,http://www.redfin.com/NV/Las-Vegas/4575-Dean-Martin-Dr-89103/unit-1806/home/28964085,GLVAR,2266006,N,Y,36.1066027,-115.1821536
PAST SALE,March-8-2021,Condo/Co-op,4575 Dean Martin Dr #401,Las Vegas,NV,89103,360000,1,1.5,Panorama Towers 2,955,,2005,44,377,689,Sold,,,http://www.redfin.com/NV/Las-Vegas/4575-Dean-Martin-Dr-89103/unit-401/home/29791290,GLVAR,2271907,N,Y,36.1066027,-115.1821536
PAST SALE,,Condo/Co-op,4381 W Flamingo Rd #1022,Las Vegas,NV,89103,395000,1,1.5,,1220,,2006,,324,,,,,http://www.redfin.com/NV/Las-Vegas/4381-W-Flamingo-Rd-89103/unit-1022/home/29784203,,,N,Y,36.114414,-115.1990639
PAST SALE,March-19-2021,Single Family Residential,6422 Viking Rd,Las Vegas,NV,89103,375000,4,2.5,Flamingo West,2128,7405,1977,33,176,,Sold,,,http://www.redfin.com/NV/Las-Vegas/6422-W-Viking-Rd-89103/home/29545395,GLVAR,2261438,N,Y,36.118396,-115.2321961
PAST SALE,March-18-2021,Condo/Co-op,5386 River Glen Dr #352,Las Vegas,NV,89103,177500,3,1.75,Westwood Point,1444,,1982,34,123,307,Sold,,,http://www.redfin.com/NV/Las-Vegas/5386-River-Glen-Dr-89103/unit-352/home/29005350,GLVAR,2269453,N,Y,36.11017,-115.2159217
PAST SALE,March-19-2021,Townhouse,4008 Tirana Way,Las Vegas,NV,89103,240000,2,2.5,Flamingo Heights Phase 3,1601,3600,1987,33,150,202,Sold,,,http://www.redfin.com/NV/Las-Vegas/4008-Tirana-Way-89103/home/29543648,GLVAR,2265315,N,Y,36.117027,-115.211415
PAST SALE,,Townhouse,6228 Meadow Vista Ln,Las Vegas,NV,89103,164500,2,1.5,,1093,1307,1975,,151,,,,,http://www.redfin.com/NV/Las-Vegas/6228-Meadow-Vista-Ln-89103/home/28963589,,,N,Y,36.1239856,-115.2279128
PAST SALE,March-24-2021,Condo/Co-op,4200 Valley View Blvd #2031,Las Vegas,NV,89103,140000,1,1.0,Flamingo Palms Villas,680,,1990,28,206,1,Sold,,,http://www.redfin.com/NV/Las-Vegas/4200-S-Valley-View-Blvd-89103/unit-2031/home/29283875,GLVAR,2261949,N,Y,36.112173,-115.188193
PAST SALE,March-24-2021,Single Family Residential,5829 Thor Dr,Las Vegas,NV,89103,359000,4,2.0,Valley West #6,1998,7841,1978,28,180,,Sold,,,http://www.redfin.com/NV/Las-Vegas/5829-Thor-Dr-89103/home/29541084,GLVAR,2236972,N,Y,36.12049,-115.2212666
PAST SALE,March-31-2021,Condo/Co-op,4140 Gannet Cir #251,Las Vegas,NV,89103,110000,1,1.0,Spring Oaks 2nd Amd,724,2304,1987,21,152,150,Sold,,,http://www.redfin.com/NV/Las-Vegas/4140-Gannet-Cir-89103/unit-251/home/29502709,GLVAR,2251220,N,Y,36.123567,-115.195751
PAST SALE,March-31-2021,Condo/Co-op,4221 Sanderling Cir #280,Las Vegas,NV,89103,103000,1,1.0,Spring Oaks 2nd Amd,724,724,1987,21,142,150,Sold,,,http://www.redfin.com/NV/Las-Vegas/4221-Sanderling-Cir-89103/unit-280/home/29502755,GLVAR,2263398,N,Y,36.124377,-115.196361
PAST SALE,March-31-2021,Condo/Co-op,4471 Dean Martin Dr #2202,Las Vegas,NV,89103,390000,2,1.75,Panorama Tower Phase Iii,1111,,2007,21,351,712,Sold,,,http://www.redfin.com/NV/Las-Vegas/4471-Dean-Martin-Dr-89103/unit-2202/home/29813929,GLVAR,2231661,N,Y,36.1086611,-115.1819222
PAST SALE,,Condo/Co-op,4575 Dean Martin Dr #1403,Las Vegas,NV,89103,349986,2,2.0,,1054,,2005,,332,,,,,http://www.redfin.com/NV/Las-Vegas/4575-Dean-Martin-Dr-89103/unit-1403/home/29793789,,,N,Y,36.1066027,-115.1821536
PAST SALE,,Single Family Residential,3578 Red Rock St,Las Vegas,NV,89103,292000,2,2.0,,1135,6970,1979,,257,,,,,http://www.redfin.com/NV/Las-Vegas/3578-Red-Rock-St-89103/home/29540681,,,N,Y,36.123753,-115.2225865
PAST SALE,March-30-2021,Single Family Residential,5834 Twain Ave,Las Vegas,NV,89103,300000,4,1.75,Villa Bonita Oeste,1503,7405,1979,22,200,,Sold,,,http://www.redfin.com/NV/Las-Vegas/5834-W-Twain-Ave-89103/home/29540364,GLVAR,2265140,N,Y,36.1222354,-115.2211971
PAST SALE,March-31-2021,Condo/Co-op,5188 River Glen Dr #453,Las Vegas,NV,89103,132500,2,1.0,Westwood Point,816,,1982,21,162,229,Sold,,,http://www.redfin.com/NV/Las-Vegas/5188-River-Glen-Dr-89103/unit-453/home/29031082,GLVAR,2261464,N,Y,36.1110188,-115.2130461
PAST SALE,April-1-2021,Condo/Co-op,5155 Tropicana Ave #2025,Las Vegas,NV,89103,125000,1,1.0,Club Marbella Condo,774,,1994,20,161,159,Sold,,,http://www.redfin.com/NV/Las-Vegas/5155-W-Tropicana-Ave-89103/unit-2025/home/29578257,GLVAR,2274151,N,Y,36.1003569,-115.21189
PAST SALE,February-9-2021,Single Family Residential,4571 Churchfield Cir,Las Vegas,NV,89103,260000,3,2.0,First Nevada,1184,6970,1976,71,220,,Sold,,,http://www.redfin.com/NV/Las-Vegas/4571-Churchfield-Cir-89103/home/29572302,GLVAR,2256518,N,Y,36.1058129,-115.2287228
PAST SALE,February-17-2021,Condo/Co-op,5155 W Tropicana Ave #2125,Las Vegas,NV,89103,178500,2,2.0,CLUB MARBELLA CONDO,1063,2304,1993,63,168,162,Sold,,,http://www.redfin.com/NV/Las-Vegas/5155-W-Tropicana-Ave-89103/unit-2125/home/29578895,GLVAR,2232719,N,Y,36.1003569,-115.21189
PAST SALE,February-18-2021,Condo/Co-op,4835 S Torrey Pines Dr #201,Las Vegas,NV,89103,164000,2,1.75,Los Verdes Amd,884,,1991,62,186,185,Sold,,,http://www.redfin.com/NV/Las-Vegas/4835-S-Torrey-Pines-Dr-89103/unit-201/home/29572009,GLVAR,2258553,N,Y,36.1011049,-115.2349052
PAST SALE,March-18-2021,Condo/Co-op,5262 Osman Ct #44,Las Vegas,NV,89103,128000,2,1.75,EVERGREEN CONDO AMD,852,,1983,34,150,175,Sold,,,http://www.redfin.com/NV/Las-Vegas/5262-Osman-Ct-89103/unit-44/home/29574829,GLVAR,2269055,N,Y,36.1068995,-115.213324
PAST SALE,March-5-2021,Condo/Co-op,5000 Indian River Dr #479,Las Vegas,NV,89103,112900,1,1.0,WESTWOOD POINT,700,,1982,47,161,176,Sold,,,http://www.redfin.com/NV/Las-Vegas/5000-Indian-River-Dr-89103/unit-479/home/29031263,GLVAR,2148853,N,Y,36.109803,-115.209871
PAST SALE,March-2-2021,Condo/Co-op,5415 Harmon Ave #2033,Las Vegas,NV,89103,174900,2,2.0,K C N Condo-Phase 1 Amd,1073,,1995,50,163,175,Sold,,,http://www.redfin.com/NV/Las-Vegas/5415-W-Harmon-Ave-89103/unit-2033/home/29575551,GLVAR,2258512,N,Y,36.1069066,-115.214411
PAST SALE,March-19-2021,Condo/Co-op,6651 Tropicana Ave #101,Las Vegas,NV,89103,175000,2,1.75,Casa Mesa Villas,1013,,1986,33,173,165,Sold,,,http://www.redfin.com/NV/Las-Vegas/6651-W-Tropicana-Ave-89103/unit-101/home/29579564,GLVAR,2271719,N,Y,36.0991047,-115.2381469
PAST SALE,March-4-2021,Condo/Co-op,5260 Janfred Ct #12,Las Vegas,NV,89103,155000,2,1.5,Evergreen Condo Amd,1080,,1983,48,144,180,Sold,,,http://www.redfin.com/NV/Las-Vegas/5260-Janfred-Ct-89103/unit-12/home/29574790,GLVAR,2256829,N,Y,36.1075567,-115.2132314
PAST SALE,March-10-2021,Condo/Co-op,4471 Dean Martin Dr #1108,Las Vegas,NV,89103,490000,2,1.75,Panorama Tower Phase Iii,1437,,2007,42,341,921,Sold,,,http://www.redfin.com/NV/Las-Vegas/4471-Dean-Martin-Dr-89103/unit-1108/home/29813897,GLVAR,2250351,N,Y,36.1086611,-115.1819222
PAST SALE,March-11-2021,Single Family Residential,6270 University Ave,Las Vegas,NV,89103,270000,3,1.75,American West,1188,6098,1975,41,227,,Sold,,,http://www.redfin.com/NV/Las-Vegas/6270-W-University-Ave-89103/home/29572388,GLVAR,2270499,N,Y,36.1092125,-115.2288154
PAST SALE,March-26-2021,Condo/Co-op,4575 Dean Martin Dr #1600,Las Vegas,NV,89103,934000,2,2.5,Panorama Towers 2,2052,,2005,26,455,1362,Sold,,,http://www.redfin.com/NV/Las-Vegas/4575-Dean-Martin-Dr-89103/unit-1600/home/29793795,GLVAR,2214352,N,Y,36.1066027,-115.1821536
PAST SALE,March-31-2021,Condo/Co-op,4381 Flamingo #52303,Las Vegas,NV,89103,205000,0,1.0,Palms Place A Resort Condo & Spa At The Palms Lv,615,,2006,21,333,575,Sold,,,http://www.redfin.com/NV/Las-Vegas/4381-W-Flamingo-Rd-89103/unit-52303/home/96720031,GLVAR,2274379,N,Y,36.1144914,-115.1984644
PAST SALE,April-2-2021,Condo/Co-op,4809 Torrey Pines Dr #104,Las Vegas,NV,89103,164000,2,2.0,Los Verdes Amd,884,884,1991,19,186,178,Sold,,,http://www.redfin.com/NV/Las-Vegas/4809-S-Torrey-Pines-Dr-89103/unit-104/home/29572054,GLVAR,2254921,N,Y,36.1011664,-115.2342035
PAST SALE,April-2-2021,Mobile/Manufactured Home,4611 Royal Ridge Ln,Las Vegas,NV,89103,164900,2,1.75,Royal Ridge Mobile Home Park Aka Decatur Gardens,1248,3049,1979,19,132,118,Sold,,,http://www.redfin.com/NV/Las-Vegas/4611-Royal-Ridge-Ln-89103/home/29575006,GLVAR,2269128,N,Y,36.1059201,-115.2112167
PAST SALE,April-2-2021,Condo/Co-op,3651 Arville St #735,Las Vegas,NV,89103,87500,1,1.0,Twain Estate,452,500,1983,19,194,337,Sold,,,http://www.redfin.com/NV/Las-Vegas/3651-Arville-St-89103/unit-735/home/29317103,GLVAR,2266551,N,Y,36.1235595,-115.1995918
PAST SALE,April-2-2021,Condo/Co-op,5525 Flamingo Rd #1029,Las Vegas,NV,89103,129000,1,1.0,Flamingo Bay,870,,1997,19,148,240,Sold,,,http://www.redfin.com/NV/Las-Vegas/5525-W-Flamingo-Rd-89103/unit-1029/home/29064692,GLVAR,2265663,N,Y,36.1139059,-115.2168438
PAST SALE,March-22-2021,Single Family Residential,6749 Quinella Dr,Las Vegas,NV,89103,416000,4,3.0,Laurelwood Spring Valley,2449,5663,1986,30,170,,Sold,,,http://www.redfin.com/NV/Las-Vegas/6749-Quinella-Dr-89103/home/29571758,GLVAR,2262315,N,Y,36.1011131,-115.2386795
PAST SALE,March-19-2021,Condo/Co-op,5163 Indian River Dr #200,Las Vegas,NV,89103,108000,1,1.0,Westwood Point,700,700,1982,33,154,183,Sold,,,http://www.redfin.com/NV/Las-Vegas/5163-Indian-River-Dr-89103/unit-200/home/29031349,GLVAR,2244102,N,Y,36.1084285,-115.2114714
PAST SALE,March-22-2021,Condo/Co-op,5493 Indian River Dr #378,Las Vegas,NV,89103,139000,2,2.0,Westwood Point,978,,1982,30,142,256,Sold,,,http://www.redfin.com/NV/Las-Vegas/5493-Indian-River-Dr-89103/unit-378/home/29031904,GLVAR,2269828,N,Y,36.1083484,-115.2157323
PAST SALE,March-22-2021,Condo/Co-op,4381 Flamingo Rd #3622,Las Vegas,NV,89103,420000,1,1.5,Palms Place A Resort Condo & Spa At The Palms Lv,1220,,2006,30,344,1095,Sold,,,http://www.redfin.com/NV/Las-Vegas/4381-W-Flamingo-Rd-89103/unit-3622/home/29790096,GLVAR,2255160,N,Y,36.114414,-115.1990639
PAST SALE,March-23-2021,Condo/Co-op,4321 Gannet Cir #199,Las Vegas,NV,89103,117000,1,1.0,Spring Oaks Amd,514,514,1982,29,228,191,Sold,,,http://www.redfin.com/NV/Las-Vegas/4321-Gannet-Cir-89103/unit-199/home/29503882,GLVAR,2264848,N,Y,36.122897,-115.197812
PAST SALE,March-26-2021,Single Family Residential,6221 Bullion Blvd,Las Vegas,NV,89103,323000,3,2.0,First Nevada,1650,6534,1976,26,196,,Sold,,,http://www.redfin.com/NV/Las-Vegas/6221-Bullion-Blvd-89103/home/29573250,GLVAR,2272381,N,Y,36.1046097,-115.2277039
PAST SALE,March-30-2021,Single Family Residential,4721 Torrence Dr,Las Vegas,NV,89103,370000,4,2.25,Laurelwood Spring Valley,2139,7405,1984,22,173,,Sold,,,http://www.redfin.com/NV/Las-Vegas/4721-Torrence-Dr-89103/home/29570844,GLVAR,2261315,N,Y,36.1029228,-115.2407171
PAST SALE,March-31-2021,Condo/Co-op,4815 Torrey Pines Dr #203,Las Vegas,NV,89103,170000,2,2.0,Los Verdes Amd,884,,1991,21,192,185,Sold,,,http://www.redfin.com/NV/Las-Vegas/4815-S-Torrey-Pines-Dr-89103/unit-203/home/29572036,GLVAR,2271429,N,Y,36.101797,-115.234544
PAST SALE,,Single Family Residential,6424 Silverfield Dr,Las Vegas,NV,89103,255000,3,2.0,,1188,6970,1976,,215,,,,,http://www.redfin.com/NV/Las-Vegas/6424-Silverfield-Dr-89103/home/29572107,,,N,Y,36.1068822,-115.2322887
PAST SALE,,Condo/Co-op,5576 W Rochelle Ave Unit 28D,Las Vegas,NV,89103,166000,2,2.0,,1058,,1984,,157,,,,,http://www.redfin.com/NV/Las-Vegas/5576-W-Rochelle-Ave-89103/unit-28D/home/29573461,,,N,Y,36.112237,-115.217229
PAST SALE,March-29-2021,Condo/Co-op,5265 Indian River Dr #256,Las Vegas,NV,89103,125000,2,1.0,Westwood Point,816,,1982,23,153,229,Sold,,,http://www.redfin.com/NV/Las-Vegas/5265-Indian-River-Dr-89103/unit-256/home/29031994,GLVAR,2271900,N,Y,36.1084905,-115.213324
PAST SALE,March-31-2021,Condo/Co-op,5241 Janfred Ct #23,Las Vegas,NV,89103,140500,2,1.75,Evergreen Condo Amd,852,,1983,21,165,175,Sold,,,http://www.redfin.com/NV/Las-Vegas/5241-Janfred-Ct-89103/unit-23/home/29574778,GLVAR,2273281,N,Y,36.1071625,-115.2128608
PAST SALE,,Multi-Family (2-4 Unit),5375 Retablo Ave,Las Vegas,NV,89103,400000,8,4.0,,3792,6970,1979,,105,,,,,http://www.redfin.com/NV/Las-Vegas/5375-Retablo-Ave-89103/home/29574684,,,N,Y,36.1115762,-115.2145513
PAST SALE,January-27-2021,Single Family Residential,6160 University Ave,Las Vegas,NV,89103,270000,3,1.75,American West,1188,7405,1974,84,227,,Sold,,,http://www.redfin.com/NV/Las-Vegas/6160-W-University-Ave-89103/home/29572436,GLVAR,2220782,N,Y,36.1092167,-115.2263146
PAST SALE,January-26-2021,Single Family Residential,3665 Carrera Cir,Las Vegas,NV,89103,360000,4,2.0,Casa Linda #3,1846,6970,1974,85,195,,Sold,,,http://www.redfin.com/NV/Las-Vegas/3665-Carrera-Cir-89103/home/29543303,GLVAR,2257123,N,Y,36.1225772,-115.2417359
PAST SALE,,Condo/Co-op,4381 W Flamingo Rd #2810,Las Vegas,NV,89103,210000,1,1.0,,615,,2006,,341,,,,,http://www.redfin.com/NV/Las-Vegas/4381-W-Flamingo-Rd-89103/unit-2810/home/29789705,,,N,Y,36.114414,-115.1990639
PAST SALE,January-29-2021,Condo/Co-op,4815 Torrey Pines Dr #103,Las Vegas,NV,89103,121170,2,1.75,Los Verdes Amd,884,,1991,82,137,178,Sold,,,http://www.redfin.com/NV/Las-Vegas/4815-S-Torrey-Pines-Dr-89103/unit-103/home/29572032,GLVAR,2247320,N,Y,36.101797,-115.234544
PAST SALE,January-26-2021,Condo/Co-op,4341 Gannet Cir #172,Las Vegas,NV,89103,145000,2,1.0,Spring Oaks Amd,877,,1980,85,165,228,Sold,,,http://www.redfin.com/NV/Las-Vegas/4341-Gannet-Cir-89103/unit-172/home/29503842,GLVAR,2215402,N,Y,36.1229319,-115.1986655
PAST SALE,,Condo/Co-op,4411 Alexis Dr #452,Las Vegas,NV,89103,73723,2,2.0,,978,,1982,,75,,,,,http://www.redfin.com/NV/Las-Vegas/4411-Alexis-Dr-89103/unit-452/home/29031979,,,N,Y,36.1094448,-115.2154544
PAST SALE,February-9-2021,Condo/Co-op,5155 Tropicana Ave #1185,Las Vegas,NV,89103,170000,2,2.0,Club Marbella Condo,1063,1063,1993,71,160,140,Sold,,,http://www.redfin.com/NV/Las-Vegas/5155-W-Tropicana-Ave-89103/unit-1185/home/29578110,GLVAR,2239211,N,Y,36.1003569,-115.21189
PAST SALE,January-25-2021,Single Family Residential,3707 Limewood Cir,Las Vegas,NV,89103,286000,3,1.5,Casa Linda,2068,7405,1977,86,138,,Sold,,,http://www.redfin.com/NV/Las-Vegas/3707-Limewood-Cir-89103/home/29544194,GLVAR,2237227,N,Y,36.1216689,-115.2360398
PAST SALE,February-12-2021,Condo/Co-op,4471 Dean Martin Dr #3207,Las Vegas,NV,89103,550000,2,1.75,Panorama Tower Phase Iii,1437,,2007,68,383,921,Sold,,,http://www.redfin.com/NV/Las-Vegas/4471-Dean-Martin-Dr-89103/unit-3207/home/29813618,GLVAR,2246820,N,Y,36.1086611,-115.1819222
PAST SALE,February-12-2021,Condo/Co-op,4525 Dean Martin Dr #912,Las Vegas,NV,89103,505000,2,1.5,Panorama Towers 1,1406,,2006,68,359,974,Sold,,,http://www.redfin.com/NV/Las-Vegas/4525-Dean-Martin-Dr-89103/unit-912/home/29765312,GLVAR,2259132,N,Y,36.107596,-115.182163
PAST SALE,March-4-2021,Condo/Co-op,4471 Dean Martin Dr #4009,Las Vegas,NV,89103,900000,2,1.5,Panorama Tower Phase Iii,1652,,2007,48,545,1058,Sold,,,http://www.redfin.com/NV/Las-Vegas/4471-Dean-Martin-Dr-89103/unit-4009/home/29815220,GLVAR,2228490,N,Y,36.1086611,-115.1819222
PAST SALE,,Single Family Residential,6842 Mangrum Cir,Las Vegas,NV,89103,240000,3,2.0,,1185,3485,1984,,203,,,,,http://www.redfin.com/NV/Las-Vegas/6842-Mangrum-Cir-89103/home/29570483,,,N,Y,36.1056475,-115.2416896
PAST SALE,March-12-2021,Single Family Residential,6162 Pinewood Ave,Las Vegas,NV,89103,315000,3,2.0,Casa Linda,1564,6098,1977,40,201,,Sold,,,http://www.redfin.com/NV/Las-Vegas/6162-Pinewood-Ave-89103/home/29545912,GLVAR,2255171,N,Y,36.1206198,-115.2263609
PAST SALE,,Condo/Co-op,4381 W Flamingo Rd #5008,Las Vegas,NV,89103,260000,1,1.0,,615,,2006,,423,,,,,http://www.redfin.com/NV/Las-Vegas/4381-W-Flamingo-Rd-89103/unit-5008/home/29789962,,,N,Y,36.114414,-115.1990639
PAST SALE,,Condo/Co-op,6250 W Flamingo Rd #115,Las Vegas,NV,89103,124000,1,1.0,,879,,1986,,141,,,,,http://www.redfin.com/NV/Las-Vegas/6250-W-Flamingo-Rd-89103/unit-115/home/29545935,,,N,Y,36.115449,-115.228065
PAST SALE,March-5-2021,Single Family Residential,3954 Coolcrest Ct,Las Vegas,NV,89103,369000,4,3.0,Desert Inn #9 Lewis Homes,2282,10019,1980,47,162,,Sold,,,http://www.redfin.com/NV/Las-Vegas/3954-Coolcrest-Ct-89103/home/29541000,GLVAR,2258888,N,Y,36.1173629,-115.2187194
PAST SALE,,Single Family Residential,6816 Calella Dr,Las Vegas,NV,89103,180000,3,2.0,,1503,6534,1977,,120,,,,,http://www.redfin.com/NV/Las-Vegas/6816-Calella-Dr-89103/home/29544008,,,N,Y,36.117564,-115.2410412
PAST SALE,March-5-2021,Condo/Co-op,5314 River Glen Dr #284,Las Vegas,NV,89103,103000,1,1.0,Westwood Point,700,,1982,47,147,183,Sold,,,http://www.redfin.com/NV/Las-Vegas/5314-River-Glen-Dr-89103/unit-284/home/29031027,GLVAR,2271296,N,Y,36.1105655,-115.2147134
PAST SALE,March-5-2021,Condo/Co-op,4400 Jones Blvd #1138,Las Vegas,NV,89103,172500,2,2.0,Borgata Condo,994,,1998,47,174,,Sold,,,http://www.redfin.com/NV/Las-Vegas/4400-S-Jones-Blvd-89103/unit-1138/home/29487359,GLVAR,2240534,N,Y,36.1100175,-115.2221234
PAST SALE,,Single Family Residential,6137 W Twain Ave,Las Vegas,NV,89103,235000,3,2.0,,1575,6970,1977,,149,,,,,http://www.redfin.com/NV/Las-Vegas/6137-W-Twain-Ave-89103/home/29545919,,,N,Y,36.1215502,-115.2257588
PAST SALE,,Condo/Co-op,4806 Nara Vista Way #103,Las Vegas,NV,89103,130000,2,2.0,,884,,1989,,147,,,,,http://www.redfin.com/NV/Las-Vegas/4806-Nara-Vista-Way-89103/unit-103/home/29570794,,,N,Y,36.1018772,-115.2413886
PAST SALE,March-25-2021,Single Family Residential,6808 Incline Ave,Las Vegas,NV,89103,245000,3,2.0,Spring Valley Cottages,1185,3920,1986,27,207,,Sold,,,http://www.redfin.com/NV/Las-Vegas/6808-Incline-Ave-89103/home/29570364,GLVAR,2271720,N,Y,36.104138,-115.2415043
PAST SALE,,Multi-Family (2-4 Unit),4664 W Twain Ave,Las Vegas,NV,89103,380000,8,8.0,,3688,7405,1977,,103,,,,,http://www.redfin.com/NV/Las-Vegas/4664-W-Twain-Ave-89103/home/29501138,,,N,Y,36.122864,-115.2037601
PAST SALE,February-16-2021,Condo/Co-op,3561 Arville St Unit 801B,Las Vegas,NV,89103,127000,2,2.0,Pine Grove Condo,968,,1985,64,131,180,Sold,,,http://www.redfin.com/NV/Las-Vegas/3561-Arville-St-89103/unit-801B/home/29501234,GLVAR,2258127,N,Y,36.124858,-115.2000086
PAST SALE,February-10-2021,Condo/Co-op,4575 Dean Martin Dr #903,Las Vegas,NV,89103,330000,2,2.0,Panorama Towers 2,1054,,2005,70,313,726,Sold,,,http://www.redfin.com/NV/Las-Vegas/4575-Dean-Martin-Dr-89103/unit-903/home/29791267,GLVAR,2236744,N,Y,36.1066027,-115.1821536
PAST SALE,,Condo/Co-op,4400 S Jones Blvd #3079,Las Vegas,NV,89103,87903,1,1.0,,717,,1998,,123,,,,,http://www.redfin.com/NV/Las-Vegas/4400-S-Jones-Blvd-89103/unit-3079/home/29450383,,,N,Y,36.1100175,-115.2221234
PAST SALE,February-16-2021,Single Family Residential,6278 Woodbury Ave,Las Vegas,NV,89103,315000,3,2.0,American West,1711,6970,1974,64,184,,Sold,,,http://www.redfin.com/NV/Las-Vegas/6278-Woodbury-Ave-89103/home/29571948,GLVAR,2216791,N,Y,36.1120881,-115.2285838
PAST SALE,,Condo/Co-op,6250 W Flamingo Rd #81,Las Vegas,NV,89103,130000,2,2.0,,1038,,1986,,125,,,,,http://www.redfin.com/NV/Las-Vegas/6250-W-Flamingo-Rd-89103/unit-81/home/29546047,,,N,Y,36.115827,-115.228416
PAST SALE,April-14-2021,Condo/Co-op,4471 Dean Martin Dr #2901,Las Vegas,NV,89103,435000,2,1.5,PANORAMA TOWER PHASE III,1052,,2007,7,413,643,Sold,,,http://www.redfin.com/NV/Las-Vegas/4471-Dean-Martin-Dr-89103/unit-2901/home/29813656,GLVAR,2276398,N,Y,36.1086611,-115.1819222
PAST SALE,April-19-2021,Condo/Co-op,4361 Sanderling Cir #36,Las Vegas,NV,89103,128800,1,1.0,Spring Oaks Amd,514,,1980,2,251,217,Sold,,,http://www.redfin.com/NV/Las-Vegas/4361-Sanderling-Cir-89103/unit-36/home/29502957,GLVAR,2285931,N,Y,36.1242097,-115.1981097
PAST SALE,January-21-2021,Single Family Residential,6188 Pinewood Ave,Las Vegas,NV,89103,298000,3,2.0,Casa Linda,1575,5663,1977,90,189,,Sold,,,http://www.redfin.com/NV/Las-Vegas/6188-Pinewood-Ave-89103/home/29545917,GLVAR,2251562,N,Y,36.120604,-115.2269629
PAST SALE,January-26-2021,Single Family Residential,6409 Newville Ave,Las Vegas,NV,89103,285000,3,1.75,American West,1194,6970,1974,85,239,,Sold,,,http://www.redfin.com/NV/Las-Vegas/6409-Newville-Ave-89103/home/29572357,GLVAR,2257341,N,Y,36.1096403,-115.2318719
PAST SALE,January-28-2021,Single Family Residential,6441 Hummingbird Ln,Las Vegas,NV,89103,335000,4,2.5,Century Spgs #5,1993,6534,1978,83,168,,Sold,,,http://www.redfin.com/NV/Las-Vegas/6441-Hummingbird-Ln-89103/home/29545497,GLVAR,2216538,N,Y,36.1221302,-115.2325665
PAST SALE,January-29-2021,Condo/Co-op,6250 W Flamingo Rd #21,Las Vegas,NV,89103,160000,2,1.75,Flamingo Ridge Amd,1038,,1985,82,154,190,Sold,,,http://www.redfin.com/NV/Las-Vegas/6250-W-Flamingo-Rd-89103/unit-21/home/29546004,GLVAR,2255099,N,Y,36.115126,-115.229043
PAST SALE,January-26-2021,Single Family Residential,3858 Moongate Cir,Las Vegas,NV,89103,400000,5,2.5,Viking Estate West #1,2545,8276,1994,85,157,,Sold,,,http://www.redfin.com/NV/Las-Vegas/3858-Moongate-Cir-89103/home/29540882,GLVAR,2209642,N,Y,36.1193204,-115.2177932
PAST SALE,February-1-2021,Condo/Co-op,4855 S Torrey Pines Dr #202,Las Vegas,NV,89103,115000,1,1.0,Los Verdes,569,,1994,79,202,178,Sold,,,http://www.redfin.com/NV/Las-Vegas/4855-S-Torrey-Pines-Dr-89103/unit-202/home/29571620,GLVAR,2253411,N,Y,36.1005373,-115.2360167
PAST SALE,February-19-2021,Single Family Residential,6855 Carrera Dr,Las Vegas,NV,89103,329000,3,2.0,Casa Linda #3,1462,6098,1974,61,225,,Sold,,,http://www.redfin.com/NV/Las-Vegas/6855-Carrera-Dr-89103/home/29543325,GLVAR,2251748,N,Y,36.1222175,-115.2419211
PAST SALE,February-25-2021,Condo/Co-op,6659 Tropicana Ave #102,Las Vegas,NV,89103,153000,2,1.75,Casa Mesa Villas,1013,,1985,55,151,165,Sold,,,http://www.redfin.com/NV/Las-Vegas/6659-W-Tropicana-Ave-89103/unit-102/home/29579907,GLVAR,2257896,N,Y,36.098659,-115.2369428
PAST SALE,March-16-2021,Condo/Co-op,6250 Flamingo Rd #85,Las Vegas,NV,89103,169500,2,1.75,Flamingo Ridge Amd,1038,,1986,36,163,185,Sold,,,http://www.redfin.com/NV/Las-Vegas/6250-W-Flamingo-Rd-89103/unit-85/home/29546059,GLVAR,2266524,N,Y,36.115828,-115.228126
PAST SALE,March-19-2021,Condo/Co-op,6693 Tropicana Ave #101,Las Vegas,NV,89103,187000,2,2.0,Casa Mesa Villas,1013,,1986,33,185,165,Sold,,,http://www.redfin.com/NV/Las-Vegas/6693-W-Tropicana-Ave-89103/unit-101/home/29579826,GLVAR,2276056,N,Y,36.0982297,-115.2381469
PAST SALE,,Single Family Residential,5180 Winston St,Las Vegas,NV,89103,340000,4,2.5,,2106,7841,1978,,161,,,,,http://www.redfin.com/NV/Las-Vegas/5180-Winston-St-89103/home/29542691,,,N,Y,36.1206686,-115.2119577
PAST SALE,February-16-2021,Single Family Residential,4056 Spitze Dr,Las Vegas,NV,89103,319900,3,1.5,Valley West 7 Phase 3B,1640,7405,1981,64,195,,Sold,,,http://www.redfin.com/NV/Las-Vegas/4056-S-Spitze-Dr-89103/home/29542608,GLVAR,2229959,N,Y,36.1161879,-115.2147365
PAST SALE,February-19-2021,Condo/Co-op,4981 River Glen Dr #53,Las Vegas,NV,89103,102000,1,1.0,Westwood Point,700,,1982,61,146,205,Sold,,,http://www.redfin.com/NV/Las-Vegas/4981-River-Glen-Dr-89103/unit-53/home/29030726,GLVAR,2222439,N,Y,36.110452,-115.210297
PAST SALE,February-24-2021,Condo/Co-op,5415 W Harmon Ave #1020,Las Vegas,NV,89103,190000,2,2.0,K C N Condo-Phase 1 Amd,1073,2634,1994,56,177,175,Sold,,,http://www.redfin.com/NV/Las-Vegas/5415-W-Harmon-Ave-89103/unit-1020/home/29575462,GLVAR,2268116,N,Y,36.1069066,-115.214411
PAST SALE,February-24-2021,Condo/Co-op,5155 Tropicana Ave #1166,Las Vegas,NV,89103,188000,2,2.0,Club Marbella Condo,1183,,1993,56,159,165,Sold,,,http://www.redfin.com/NV/Las-Vegas/5155-W-Tropicana-Ave-89103/unit-1166/home/29578271,GLVAR,2219648,N,Y,36.1003569,-115.21189
PAST SALE,,Condo/Co-op,5415 W Harmon Ave #2150,Las Vegas,NV,89103,190000,2,2.0,,1204,,1996,,158,,,,,http://www.redfin.com/NV/Las-Vegas/5415-W-Harmon-Ave-89103/unit-2150/home/29575747,,,N,Y,36.1069066,-115.214411
PAST SALE,,Condo/Co-op,5415 W Harmon Ave #1156,Las Vegas,NV,89103,165000,1,2.0,,1006,,1997,,164,,,,,http://www.redfin.com/NV/Las-Vegas/5415-W-Harmon-Ave-89103/unit-1156/home/29575521,,,N,Y,36.1069066,-115.214411
PAST SALE,,Townhouse,4278 Rollingstone Dr,Las Vegas,NV,89103,175100,2,2.0,,840,1307,1984,,208,,,,,http://www.redfin.com/NV/Las-Vegas/4278-Rollingstone-Dr-89103/home/29573328,,,N,Y,36.111648,-115.218801
PAST SALE,February-23-2021,Condo/Co-op,5101 River Glen Dr #136,Las Vegas,NV,89103,134900,2,1.0,Westwood Point,816,,1982,57,165,256,Sold,,,http://www.redfin.com/NV/Las-Vegas/5101-River-Glen-Dr-89103/unit-136/home/29030814,GLVAR,2268561,N,Y,36.1101079,-115.211834
PAST SALE,February-24-2021,Mobile/Manufactured Home,5116 North Ridge Club Dr,Las Vegas,NV,89103,173500,2,1.75,Royal Ridge Mobile Home Park Aka Decatur Gardens,1584,4356,1979,56,110,118,Sold,,,http://www.redfin.com/NV/Las-Vegas/5116-N-Ridge-Club-Dr-89103/home/29575394,GLVAR,2253808,N,Y,36.1069249,-115.2111704
PAST SALE,March-2-2021,Single Family Residential,3936 Platis Cir,Las Vegas,NV,89103,305000,3,2.0,Westview Estate,1461,10019,1985,50,209,,Sold,,,http://www.redfin.com/NV/Las-Vegas/3936-Platis-Cir-89103/home/29540946,GLVAR,2257495,N,Y,36.1177899,-115.2187657
PAST SALE,March-15-2021,Condo/Co-op,5081 River Glen Dr #118,Las Vegas,NV,89103,110000,1,1.0,Westwood Point,700,,1982,37,157,205,Sold,,,http://www.redfin.com/NV/Las-Vegas/5081-River-Glen-Dr-89103/unit-118/home/29030899,GLVAR,2268106,N,Y,36.110383,-115.211702
PAST SALE,February-26-2021,Mobile/Manufactured Home,4651 Royal Club Way #65,Las Vegas,NV,89103,114750,2,2.0,Royal Ridge Mobile Home Park Aka Decatur Gardens,1152,3049,1978,54,100,108,Sold,,,http://www.redfin.com/NV/Las-Vegas/4651-W-Royal-Club-Way-89103/home/29575062,GLVAR,2262040,N,Y,36.1052595,-115.2106146
PAST SALE,March-16-2021,Condo/Co-op,5061 River Glen Dr #66,Las Vegas,NV,89103,106000,1,1.0,Westwood Point,700,,1982,36,151,184,Sold,,,http://www.redfin.com/NV/Las-Vegas/5061-River-Glen-Dr-89103/unit-66/home/29030852,GLVAR,2249729,N,Y,36.1101145,-115.2112058
PAST SALE,March-19-2021,Condo/Co-op,5155 Tropicana Ave #1153,Las Vegas,NV,89103,167000,2,2.0,Club Marbella Condo Amd,1063,2304,1995,33,157,130,Sold,,,http://www.redfin.com/NV/Las-Vegas/5155-W-Tropicana-Ave-89103/unit-1153/home/28967823,GLVAR,2254513,N,Y,36.1003569,-115.21189
PAST SALE,March-29-2021,Condo/Co-op,5241 Janfred Ct #22,Las Vegas,NV,89103,130000,2,1.75,Evergreen Condo Amd,852,,1983,23,153,265,Sold,,,http://www.redfin.com/NV/Las-Vegas/5241-Janfred-Ct-89103/unit-22/home/29574781,GLVAR,2258389,N,Y,36.1071625,-115.2128608
PAST SALE,March-26-2021,Condo/Co-op,5155 Tropicana Ave #1013,Las Vegas,NV,89103,170000,2,2.0,Club Marbella Condo,1063,1063,1993,26,160,140,Sold,,,http://www.redfin.com/NV/Las-Vegas/5155-W-Tropicana-Ave-89103/unit-1013/home/29578212,GLVAR,2265421,N,Y,36.1003569,-115.21189
PAST SALE,,Single Family Residential,3930 Norwich Cir,Las Vegas,NV,89103,220674,4,3.5,,2411,10019,1986,,92,,,,,http://www.redfin.com/NV/Las-Vegas/3930-Norwich-Cir-89103/home/29541049,,,N,Y,36.117696,-115.2176774
PAST SALE,March-30-2021,Condo/Co-op,5247 Lisagayle #130,Las Vegas,NV,89103,140000,2,1.5,Evergreen Condo Amd,1080,,1984,22,130,175,Sold,,,http://www.redfin.com/NV/Las-Vegas/5247-Lisagayle-Ct-89103/unit-130/home/29574907,GLVAR,2199793,N,Y,36.1046964,-115.2128608
PAST SALE,,Single Family Residential,4668 Bullion Ct,Las Vegas,NV,89103,292500,3,2.0,,1650,12197,1977,,177,,,,,http://www.redfin.com/NV/Las-Vegas/4668-Bullion-Ct-89103/home/29573308,,,N,Y,36.1039563,-115.2325665
PAST SALE,April-8-2021,Condo/Co-op,5261 Janfred Ct #33,Las Vegas,NV,89103,181000,3,2.5,Evergreen Condo Amd,1213,,1983,13,149,175,Sold,,,http://www.redfin.com/NV/Las-Vegas/5261-Janfred-Ct-89103/unit-33/home/29574769,GLVAR,2269679,N,Y,36.107166,-115.213369
PAST SALE,April-13-2021,Condo/Co-op,4831 Nara Vista Way #101,Las Vegas,NV,89103,120000,1,1.0,Pardee Tropicana Villas,568,,1988,8,211,160,Sold,,,http://www.redfin.com/NV/Las-Vegas/4831-Nara-Vista-Way-89103/unit-101/home/29570963,GLVAR,2269036,N,Y,36.1012508,-115.2424074
PAST SALE,April-12-2021,Condo/Co-op,4830 Nara Vista Way #102,Las Vegas,NV,89103,162000,2,2.0,Tropicana Villas Pardee Amd,884,,1987,9,183,160,Sold,,,http://www.redfin.com/NV/Las-Vegas/4830-Nara-Vista-Way-89103/unit-102/home/29571729,GLVAR,2256335,N,Y,36.1006253,-115.2412959
PAST SALE,March-26-2021,Single Family Residential,6719 Wayburn Way,Las Vegas,NV,89103,350000,4,3.5,Laurelwood Spring Valley,2669,6098,1983,26,131,,Sold,,,http://www.redfin.com/NV/Las-Vegas/6719-Wayburn-Way-89103/home/29570682,GLVAR,2268140,N,Y,36.1027666,-115.2399067
PAST SALE,March-29-2021,Condo/Co-op,5155 Tropicana Ave #1128,Las Vegas,NV,89103,170000,2,2.0,Club Marbella Condo Amd,1063,,1995,23,160,140,Sold,,,http://www.redfin.com/NV/Las-Vegas/5155-W-Tropicana-Ave-89103/unit-1128/home/29578480,GLVAR,2251949,N,Y,36.1003569,-115.21189
PAST SALE,April-15-2021,Condo/Co-op,5301 River Glen Dr #205,Las Vegas,NV,89103,135000,2,1.75,Westwood Point,978,,1982,6,138,256,Sold,,,http://www.redfin.com/NV/Las-Vegas/5301-River-Glen-Dr-89103/unit-205/home/29031128,GLVAR,2270605,N,Y,36.1100502,-115.2145281
PAST SALE,April-1-2021,Mobile/Manufactured Home,5054 Ridge Dr,Las Vegas,NV,89103,150000,2,2.0,Royal Ridge Mobile Home Park Aka Decatur Gardens,1976,3920,1978,20,76,108,Sold,,,http://www.redfin.com/NV/Las-Vegas/5054-Ridge-Dr-89103/home/29575041,GLVAR,2253907,N,Y,36.1048065,-115.2101515
PAST SALE,March-31-2021,Condo/Co-op,5155 W Tropicana Ave #2052,Las Vegas,NV,89103,167500,2,1.75,Club Marbella Condo Amd,1063,,1995,21,158,140,Sold,,,http://www.redfin.com/NV/Las-Vegas/5155-W-Tropicana-Ave-89103/unit-2052/home/29578352,GLVAR,2272721,N,Y,36.1003569,-115.21189
PAST SALE,,Townhouse,4554 Via San Marco,Las Vegas,NV,89103,131000,2,2.0,,989,3920,1980,,132,,,,,http://www.redfin.com/NV/Las-Vegas/4554-Via-San-Marco-89103/home/29502431,,,N,Y,36.117687,-115.2034359
PAST SALE,January-29-2021,Condo/Co-op,4381 Flamingo Rd #50308,Las Vegas,NV,89103,260000,1,1.0,Palms Place A Resort Condo & Spa At The Palms Lv,615,,2006,82,423,552,Sold,,,http://www.redfin.com/NV/Las-Vegas/4381-W-Flamingo-Rd-89103/unit-50308/home/170681844,GLVAR,2237266,N,Y,36.114414,-115.1990639
PAST SALE,January-28-2021,Mobile/Manufactured Home,4581 Royal Ridge Way,Las Vegas,NV,89103,169900,3,1.75,Royal Ridge Mobile Home Park Aka Decatur Gardens,1537,4356,1977,83,111,118,Sold,,,http://www.redfin.com/NV/Las-Vegas/4581-Royal-Ridge-Way-89103/home/29575371,GLVAR,2256200,N,Y,36.106619,-115.2088084
PAST SALE,January-21-2021,Townhouse,3984 Tirana Way,Las Vegas,NV,89103,215000,2,2.5,Flamingo Heights Phase 4,1668,2916,1987,90,129,184,Sold,,,http://www.redfin.com/NV/Las-Vegas/3984-Tirana-Way-89103/home/29543785,GLVAR,2246326,N,Y,36.11756,-115.211191
PAST SALE,,Condo/Co-op,4381 W Flamingo Rd #3016,Las Vegas,NV,89103,226000,1,1.0,,615,,2006,,367,,,,,http://www.redfin.com/NV/Las-Vegas/4381-W-Flamingo-Rd-89103/unit-3016/home/29789776,,,N,Y,36.114414,-115.1990639
PAST SALE,January-29-2021,Condo/Co-op,4471 Dean Martin Dr #2402,Las Vegas,NV,89103,392500,2,2.0,Panorama Tower Phase Iii,1111,,2007,82,353,713,Sold,,,http://www.redfin.com/NV/Las-Vegas/4471-Dean-Martin-Dr-89103/unit-2402/home/29813910,GLVAR,2259742,N,Y,36.1086611,-115.1819222
PAST SALE,January-27-2021,Condo/Co-op,5155 W Tropicana Ave #2006,Las Vegas,NV,89103,110000,1,1.0,Club Marbella Condo,774,,1993,84,142,160,Sold,,,http://www.redfin.com/NV/Las-Vegas/5155-W-Tropicana-Ave-89103/unit-2006/home/29578220,GLVAR,2258775,N,Y,36.1003569,-115.21189
PAST SALE,January-26-2021,Condo/Co-op,4200 Valley View Blvd #3030,Las Vegas,NV,89103,139000,1,1.0,Flamingo Palms Villas,680,6143,1990,85,204,250,Sold,,,http://www.redfin.com/NV/Las-Vegas/4200-S-Valley-View-Blvd-89103/unit-3030/home/29283866,GLVAR,2228801,N,Y,36.112173,-115.188193
PAST SALE,January-28-2021,Townhouse,4441 Via Madrigal,Las Vegas,NV,89103,195000,2,1.75,Park Villas,989,3920,1981,83,197,,Sold,,,http://www.redfin.com/NV/Las-Vegas/4441-Via-Madrigal-89103/home/29502476,GLVAR,2224370,N,Y,36.11795,-115.200499
PAST SALE,January-25-2021,Single Family Residential,6421 Derek Dr,Las Vegas,NV,89103,285000,3,1.75,First Nevada,1650,6534,1977,86,173,,Sold,,,http://www.redfin.com/NV/Las-Vegas/6421-Derek-Dr-89103/home/29573233,GLVAR,2235921,N,Y,36.1032984,-115.2322192
PAST SALE,January-22-2021,Single Family Residential,3842 Trogon Way,Las Vegas,NV,89103,350000,4,1.75,Flamingo West,1878,7405,1977,89,186,,Sold,,,http://www.redfin.com/NV/Las-Vegas/3842-Trogon-Way-89103/home/29545332,GLVAR,2253769,N,Y,36.1191523,-115.2300658
PAST SALE,February-23-2021,Single Family Residential,3976 Flickering Star Dr,Las Vegas,NV,89103,330000,4,3.0,Starlite Estate 3,2236,7841,1993,57,148,,Sold,,,http://www.redfin.com/NV/Las-Vegas/3976-Flickering-Star-Dr-89103/home/29545022,GLVAR,2217908,N,Y,36.1168499,-115.2352757
PAST SALE,March-26-2021,Single Family Residential,4601 Green Canyon Dr,Las Vegas,NV,89103,377000,4,2.0,Laurelwood Spring Valley,1771,6970,1979,26,213,,Sold,,,http://www.redfin.com/NV/Las-Vegas/4601-Green-Canyon-Dr-89103/home/29570344,GLVAR,2270375,N,Y,36.1052687,-115.237707
PAST SALE,March-17-2021,Single Family Residential,6724 Garden Grove Ave,Las Vegas,NV,89103,269000,3,1.75,Laurelwood Spring Valley,1420,7841,1973,35,189,,Sold,,,http://www.redfin.com/NV/Las-Vegas/6724-Garden-Grove-Ave-89103/home/29569181,GLVAR,2256332,N,Y,36.1096565,-115.2394204
PAST SALE,April-20-2021,Condo/Co-op,4200 Valley View Blvd #2005,Las Vegas,NV,89103,220000,2,2.0,Flamingo Palms Villas,902,,1990,1,244,330,Sold,,,http://www.redfin.com/NV/Las-Vegas/4200-S-Valley-View-Blvd-89103/unit-2005/home/29282938,GLVAR,2265897,N,Y,36.113132,-115.189006
PAST SALE,January-29-2021,Condo/Co-op,4240 Gannet Cir #218,Las Vegas,NV,89103,152000,2,2.0,Spring Oaks Amd,981,,1982,82,155,238,Sold,,,http://www.redfin.com/NV/Las-Vegas/4240-Gannet-Cir-89103/unit-218/home/29503946,GLVAR,2256092,N,Y,36.1234759,-115.197208
PAST SALE,February-15-2021,Condo/Co-op,4200 Valley View Blvd #2008,Las Vegas,NV,89103,200000,2,2.0,Flamingo Palms Villas,902,,1990,65,222,330,Sold,,,http://www.redfin.com/NV/Las-Vegas/4200-S-Valley-View-Blvd-89103/unit-2008/home/29282941,GLVAR,2229444,N,Y,36.113132,-115.189006
PAST SALE,February-3-2021,Condo/Co-op,4381 West Flamingo Rd #28310,Las Vegas,NV,89103,210000,0,1.0,PALMS PLACE A RESORT CONDO & S,615,,2006,77,341,515,Sold,,,http://www.redfin.com/NV/Las-Vegas/4381-W-Flamingo-Rd-89103/unit-28310/home/81694512,GLVAR,2226125,N,Y,36.114414,-115.1990639
PAST SALE,February-24-2021,Condo/Co-op,4575 Dean Martin Dr #2012,Las Vegas,NV,89103,815000,2,1.75,Panorama Towers 2,2173,,2005,56,375,1442,Sold,,,http://www.redfin.com/NV/Las-Vegas/4575-Dean-Martin-Dr-89103/unit-2012/home/29792290,GLVAR,2265875,N,Y,36.1066027,-115.1821536
PAST SALE,,Condo/Co-op,3651 Arville St #737,Las Vegas,NV,89103,120000,2,2.5,,968,,1983,,124,,,,,http://www.redfin.com/NV/Las-Vegas/3651-Arville-St-89103/unit-737/home/29317099,,,N,Y,36.1235595,-115.1995918
PAST SALE,February-19-2021,Condo/Co-op,4381 Flamingo Rd #1518,Las Vegas,NV,89103,215500,0,1.0,PALMS PLACE A RESORT CONDO & S,615,,2006,61,350,552,Sold,,,http://www.redfin.com/NV/Las-Vegas/4381-W-Flamingo-Rd-89103/unit-1518/home/29789628,GLVAR,2264076,N,Y,36.114414,-115.1990639
PAST SALE,March-15-2021,Condo/Co-op,4471 Dean Martin Dr #2407,Las Vegas,NV,89103,525000,2,1.75,Panorama Tower Phase Iii,1437,,2007,37,365,921,Sold,,,http://www.redfin.com/NV/Las-Vegas/4471-Dean-Martin-Dr-89103/unit-2407/home/29813702,GLVAR,2261975,N,Y,36.1086611,-115.1819222
PAST SALE,,Townhouse,3948 Cll Mirador,Las Vegas,NV,89103,103657,3,2.0,,1356,4356,1980,,76,,,,,http://www.redfin.com/NV/Las-Vegas/3948-Cll-Mirador-89103/home/29502362,,,N,Y,36.117931,-115.1996844
PAST SALE,March-25-2021,Condo/Co-op,4525 Dean Martin Dr #1004,Las Vegas,NV,89103,335000,2,2.0,Panorama Towers 1,946,,2006,27,354,628,Sold,,,http://www.redfin.com/NV/Las-Vegas/4525-Dean-Martin-Dr-89103/unit-1004/home/29765317,GLVAR,2246979,N,Y,36.107596,-115.182163
PAST SALE,March-26-2021,Condo/Co-op,4381 Flamingo Rd #2316,Las Vegas,NV,89103,220000,0,1.0,Palms Place A Resort Condo & Spa At The Palms Lv,615,,2006,26,358,552,Sold,,,http://www.redfin.com/NV/Las-Vegas/4381-W-Flamingo-Rd-89103/unit-2316/home/29789904,GLVAR,2270710,N,Y,36.114414,-115.1990639
PAST SALE,,Single Family Residential,3826 S Edmond St,Las Vegas,NV,89103,296000,3,2.0,,1640,7841,1978,,180,,,,,http://www.redfin.com/NV/Las-Vegas/3826-S-Edmond-St-89103/home/29542708,,,N,Y,36.1201179,-115.211842
PAST SALE,January-21-2021,Condo/Co-op,4381 W Flamingo Rd #30316,Las Vegas,NV,89103,226000,0,1.0,Palms Place A Resort Condo & Spa At The Palms Lv,615,,2006,90,367,552,Sold,,,http://www.redfin.com/NV/Las-Vegas/4381-W-Flamingo-Rd-89103/unit-30316/home/77437816,GLVAR,2251501,N,Y,36.114414,-115.1990639
PAST SALE,February-19-2021,Condo/Co-op,5576 Rochelle Ave Unit 7D,Las Vegas,NV,89103,150000,2,2.0,Casa Mesa 1 Condo Amd,1058,,1983,61,142,210,Sold,,,http://www.redfin.com/NV/Las-Vegas/5576-W-Rochelle-Ave-89103/unit-7D/home/29573509,GLVAR,2262483,N,Y,36.112237,-115.217229
PAST SALE,February-19-2021,Single Family Residential,5870 Michelin Cir,Las Vegas,NV,89103,350000,3,2.0,Michelin Estate,1837,8712,1979,61,191,,Sold,,,http://www.redfin.com/NV/Las-Vegas/5870-Michelin-Cir-89103/home/29540965,GLVAR,2248750,N,Y,36.1180384,-115.2218609
PAST SALE,February-23-2021,Single Family Residential,6755 Casa Linda Dr,Las Vegas,NV,89103,285000,3,2.0,Casa Linda 2,1164,6970,1973,57,245,,Sold,,,http://www.redfin.com/NV/Las-Vegas/6755-Casa-Linda-Dr-89103/home/29543966,GLVAR,2265220,N,Y,36.1230517,-115.2399761
PAST SALE,February-25-2021,Single Family Residential,6606 Boxwood Ln,Las Vegas,NV,89103,335000,4,1.75,Casa Linda #4D,1854,6098,1976,55,181,,Sold,,,http://www.redfin.com/NV/Las-Vegas/6606-Boxwood-Ln-89103/home/29543833,GLVAR,2244627,N,Y,36.1232808,-115.2363871
PAST SALE,February-26-2021,Single Family Residential,3831 New Era Ct,Las Vegas,NV,89103,498000,3,2.5,Roohani Estate,2290,10019,2002,54,217,,Sold,,,http://www.redfin.com/NV/Las-Vegas/3831-New-Era-Ct-89103/home/29545847,GLVAR,2259961,N,Y,36.1192771,-115.2269398
PAST SALE,February-26-2021,Condo/Co-op,4180 Gannet Cir #331,Las Vegas,NV,89103,175000,2,2.0,Spring Oaks 2nd Amd,1008,1130,1987,54,174,150,Sold,,,http://www.redfin.com/NV/Las-Vegas/4180-Gannet-Cir-89103/unit-331/home/29502777,GLVAR,2259061,N,Y,36.1236,-115.19631
PAST SALE,February-25-2021,Condo/Co-op,4890 Nara Vista Way #204,Las Vegas,NV,89103,145000,2,2.0,Tropicana Villas Pardee Amd,884,2209,1987,55,164,160,Sold,,,http://www.redfin.com/NV/Las-Vegas/4890-Nara-Vista-Way-89103/unit-204/home/29570721,GLVAR,2269046,N,Y,36.100393,-115.2426852
PAST SALE,February-25-2021,Single Family Residential,4372 Alderbrook Ct,Las Vegas,NV,89103,410000,4,2.5,Laurelwood Spring Valley,2116,6534,1975,55,194,,Sold,,,http://www.redfin.com/NV/Las-Vegas/4372-Alderbrook-Ct-89103/home/29570207,GLVAR,2269240,N,Y,36.1094797,-115.2361324
PAST SALE,February-19-2021,Condo/Co-op,4381 Gannet Cir #3,Las Vegas,NV,89103,115000,1,1.0,Spring Oaks Amd,684,,1980,61,168,191,Sold,,,http://www.redfin.com/NV/Las-Vegas/4381-Gannet-Cir-89103/unit-3/home/29502919,GLVAR,2258722,N,Y,36.123848,-115.198891
PAST SALE,February-25-2021,Condo/Co-op,3632 Di Salvo Dr #53,Las Vegas,NV,89103,123000,2,2.0,Silverado Villas 1 Condo,848,,1984,55,145,225,Sold,,,http://www.redfin.com/NV/Las-Vegas/3632-Di-Salvo-Dr-89103/unit-53/home/29502582,GLVAR,2255723,N,Y,36.1237039,-115.19281
PAST SALE,February-23-2021,Condo/Co-op,3651 Arville St #235,Las Vegas,NV,89103,87500,0,1.0,Twain Estate,452,,1983,57,194,337,Sold,,,http://www.redfin.com/NV/Las-Vegas/3651-Arville-St-89103/unit-235/home/29315471,GLVAR,2219807,N,Y,36.1235595,-115.1995918
PAST SALE,March-5-2021,Condo/Co-op,4918 River Glen Dr #110,Las Vegas,NV,89103,109000,1,1.0,WESTWOOD POINT,700,,1982,47,156,180,Sold,,,http://www.redfin.com/NV/Las-Vegas/4918-River-Glen-Dr-89103/unit-110/home/28967033,GLVAR,2164397,N,Y,36.1109951,-115.2092484
PAST SALE,March-15-2021,Condo/Co-op,5163 Indian River Dr #195,Las Vegas,NV,89103,107900,1,1.0,Westwood Point,700,1,1982,37,154,183,Sold,,,http://www.redfin.com/NV/Las-Vegas/5163-Indian-River-Dr-89103/unit-195/home/29031354,GLVAR,2253959,N,Y,36.1084285,-115.2114714
PAST SALE,March-11-2021,Condo/Co-op,4381 Flamingo Rd #2420,Las Vegas,NV,89103,206000,0,1.0,Palms Place A Resort Condo & Spa At The Palms Lv,615,,2006,41,335,552,Sold,,,http://www.redfin.com/NV/Las-Vegas/4381-W-Flamingo-Rd-89103/unit-2420/home/29789885,GLVAR,2269514,N,Y,36.114414,-115.1990639
PAST SALE,March-10-2021,Single Family Residential,4220 Walhaven Ct,Las Vegas,NV,89103,350000,4,2.25,Laurelwood Spring Valley,2161,6970,1978,42,162,,Sold,,,http://www.redfin.com/NV/Las-Vegas/4220-Walhaven-Ct-89103/home/29569294,GLVAR,2244760,N,Y,36.1122241,-115.2350673
PAST SALE,March-10-2021,Condo/Co-op,5246 Lisagayle Ct #111,Las Vegas,NV,89103,152500,3,2.5,Evergreen Condo Amd,1213,,1984,42,126,150,Sold,,,http://www.redfin.com/NV/Las-Vegas/5246-Lisagayle-Ct-89103/unit-111/home/29574893,GLVAR,2256433,N,Y,36.1050937,-115.2126409
PAST SALE,March-12-2021,Single Family Residential,6773 Mataro Dr,Las Vegas,NV,89103,345000,4,2.5,Villa Bonita Oeste,2205,6098,1976,40,156,,Sold,,,http://www.redfin.com/NV/Las-Vegas/6773-Mataro-Dr-89103/home/29544158,GLVAR,2231594,N,Y,36.1192474,-115.2401845
PAST SALE,March-31-2021,Condo/Co-op,4381 Flamingo Rd #50303,Las Vegas,NV,89103,205000,0,1.0,Palms Place A Resort Condo & Spa At The Palms Lv,615,,2006,21,333,575,Sold,,,http://www.redfin.com/NV/Las-Vegas/4381-W-Flamingo-Rd-89103/unit-50303/home/96724552,GLVAR,2274376,N,Y,36.114414,-115.1990639
PAST SALE,March-31-2021,Condo/Co-op,5576 Rochelle Ave Unit D,Las Vegas,NV,89103,166000,2,1.75,Casa Mesa 1 Condo Amd,1058,,1984,21,157,210,Sold,,,http://www.redfin.com/NV/Las-Vegas/5576-W-Rochelle-Ave-89103/unit-D/home/170673313,GLVAR,2273564,N,Y,36.111398,-115.218215
PAST SALE,April-2-2021,Condo/Co-op,3681 Melonies Dr #30,Las Vegas,NV,89103,117200,1,1.0,Silverado Villas 1 Condo,585,669,1984,19,200,172,Sold,,,http://www.redfin.com/NV/Las-Vegas/3681-Melonies-Dr-89103/unit-30/home/29502606,GLVAR,2242105,N,Y,36.1229705,-115.1927111
PAST SALE,April-2-2021,Condo/Co-op,5576 Rochelle Ave Unit 19D,Las Vegas,NV,89103,170000,2,1.75,Casa Mesa 1 Condo Amd,1058,2116,1984,19,161,210,Sold,,,http://www.redfin.com/NV/Las-Vegas/5576-W-Rochelle-Ave-89103/unit-19D/home/29573486,GLVAR,2250305,N,Y,36.112237,-115.217229
PAST SALE,March-17-2021,Single Family Residential,5315 Cartaro Dr,Las Vegas,NV,89103,375000,4,1.75,Valley West 7 Phase 2,1902,6970,1978,35,197,,Sold,,,http://www.redfin.com/NV/Las-Vegas/5315-Cartaro-Dr-89103/home/29542448,GLVAR,2263550,N,Y,36.1208791,-115.2138566
PAST SALE,March-18-2021,Condo/Co-op,4381 Flamingo Rd #1608,Las Vegas,NV,89103,210000,0,1.0,Palms Place A Resort Condo & Spa At The Palms Lv,615,,2006,34,341,553,Sold,,,http://www.redfin.com/NV/Las-Vegas/4381-W-Flamingo-Rd-89103/unit-1608/home/29789649,GLVAR,2257953,N,Y,36.114414,-115.1990639
PAST SALE,March-19-2021,Townhouse,6140 Meadowgrass Ln,Las Vegas,NV,89103,150000,2,1.0,Century Meadows 2,936,1742,1975,33,160,210,Sold,,,http://www.redfin.com/NV/Las-Vegas/6140-Meadowgrass-Ln-89103/home/29545312,GLVAR,2226507,N,Y,36.123448,-115.226213
PAST SALE,April-1-2021,Condo/Co-op,5415 Harmon Ave #1191,Las Vegas,NV,89103,188000,2,2.0,K C N Condo-Phase 2,1204,,1997,20,156,175,Sold,,,http://www.redfin.com/NV/Las-Vegas/5415-W-Harmon-Ave-89103/unit-1191/home/28967640,GLVAR,2269546,N,Y,36.1069066,-115.214411
PAST SALE,April-5-2021,Condo/Co-op,4381 Flamingo Rd #3102,Las Vegas,NV,89103,465000,1,1.5,Palms Place A Resort Condo & Spa At The Palms Lv,1220,,2006,16,381,1095,Sold,,,http://www.redfin.com/NV/Las-Vegas/4381-W-Flamingo-Rd-89103/unit-3102/home/29789787,GLVAR,2265078,N,Y,36.114414,-115.1990639
PAST SALE,April-6-2021,Condo/Co-op,4381 W Flamingo Rd #35306,Las Vegas,NV,89103,232500,1,1.0,Palms Place A Resort Condo & Spa At The Palms Lv,615,4000,2006,15,378,,Sold,,,http://www.redfin.com/NV/Las-Vegas/4381-W-Flamingo-Rd-89103/unit-35306/home/174384782,GLVAR,2268314,N,Y,36.114414,-115.1990639
PAST SALE,April-5-2021,Single Family Residential,6560 Baywood Ave,Las Vegas,NV,89103,349000,4,2.0,Casa Linda #4E,1470,6098,1976,16,237,,Sold,,,http://www.redfin.com/NV/Las-Vegas/6560-Baywood-Ave-89103/home/29543820,GLVAR,2276496,N,Y,36.122539,-115.235207
PAST SALE,April-8-2021,Condo/Co-op,5155 W Tropicana Ave #1102,Las Vegas,NV,89103,168500,2,2.0,Club Marbella Condo Amd,1063,,1997,13,159,165,Sold,,,http://www.redfin.com/NV/Las-Vegas/5155-W-Tropicana-Ave-89103/unit-1102/home/29578902,GLVAR,2263539,N,Y,36.1003569,-115.21189
PAST SALE,April-9-2021,Condo/Co-op,5140 Indian River Dr #306,Las Vegas,NV,89103,144000,2,1.75,Westwood Point,978,,1982,12,147,229,Sold,,,http://www.redfin.com/NV/Las-Vegas/5140-Indian-River-Dr-89103/unit-306/home/29031464,GLVAR,2271813,N,Y,36.1092272,-115.2132314
PAST SALE,April-9-2021,Mobile/Manufactured Home,4957 Royal Dr,Las Vegas,NV,89103,162000,2,1.75,Royal Ridge Mobile Home Park Aka Decatur Gardens,1649,3920,1976,12,98,118,Sold,,,http://www.redfin.com/NV/Las-Vegas/4957-Royal-Dr-89103/home/29575032,GLVAR,2264335,N,Y,36.1051179,-115.2087621
PAST SALE,April-10-2021,Condo/Co-op,5300 Indian River Dr #260,Las Vegas,NV,89103,165000,3,2.0,Westwood Point,1205,,1982,11,137,307,Sold,,,http://www.redfin.com/NV/Las-Vegas/5300-Indian-River-Dr-89103/unit-260/home/29031506,GLVAR,2271354,N,Y,36.1092339,-115.2146207
PAST SALE,April-9-2021,Condo/Co-op,4943 Indian Riv #135,Las Vegas,NV,89103,110000,1,1.0,Westwood Point,700,6098,1982,12,157,180,Sold,,,http://www.redfin.com/NV/Las-Vegas/4943-Indian-River-Dr-89103/unit-135/home/29031416,GLVAR,2254850,N,Y,36.108923,-115.209738
PAST SALE,April-12-2021,Condo/Co-op,5252 Osman Ct #35,Las Vegas,NV,89103,175000,3,2.5,Evergreen Condo Amd,1213,,1983,9,144,175,Sold,,,http://www.redfin.com/NV/Las-Vegas/5252-Osman-Ct-89103/unit-35/home/29574767,GLVAR,2263643,N,Y,36.1069195,-115.2127914
PAST SALE,April-12-2021,Condo/Co-op,4400 Jones Blvd #1120,Las Vegas,NV,89103,175000,2,2.0,BORGATA CONDO,994,,1998,9,176,221,Sold,,,http://www.redfin.com/NV/Las-Vegas/4400-S-Jones-Blvd-89103/unit-1120/home/29472995,GLVAR,2277859,N,Y,36.1100175,-115.2221234
PAST SALE,March-24-2021,Condo/Co-op,5080 Indian River Dr #402,Las Vegas,NV,89103,144000,2,2.0,Westwood Point,978,,1982,28,147,229,Sold,,,http://www.redfin.com/NV/Las-Vegas/5080-Indian-River-Dr-89103/unit-402/home/29031554,GLVAR,2255036,N,Y,36.109533,-115.211855
PAST SALE,March-23-2021,Mobile/Manufactured Home,4552 Royal Ridge Ave,Las Vegas,NV,89103,175000,2,1.75,Royal Ridge Mobile Home Park Aka Decatur Gardens,1445,3485,1992,29,121,118,Sold,,,http://www.redfin.com/NV/Las-Vegas/4552-Royal-Ridge-Ave-89103/home/29574919,GLVAR,2259838,N,Y,36.1069559,-115.2120967
PAST SALE,April-12-2021,Condo/Co-op,4941 River Glen Dr #1,Las Vegas,NV,89103,124000,1,1.0,Westwood Point,700,,1982,9,177,205,Sold,,,http://www.redfin.com/NV/Las-Vegas/4941-River-Glen-Dr-89103/unit-1/home/29030671,GLVAR,2276335,N,Y,36.1101934,-115.2096327
PAST SALE,April-13-2021,Condo/Co-op,6250 Flamingo Rd #88,Las Vegas,NV,89103,193000,2,2.25,Flamingo Ridge Amd,1424,,1986,8,136,,Sold,,,http://www.redfin.com/NV/Las-Vegas/6250-W-Flamingo-Rd-89103/unit-88/home/29546057,GLVAR,2280751,N,Y,36.115828,-115.228126
PAST SALE,April-14-2021,Single Family Residential,3748 Duneville St,Las Vegas,NV,89103,365000,3,2.0,K S Valley 2,1695,7405,1986,7,215,,Sold,,,http://www.redfin.com/NV/Las-Vegas/3748-Duneville-St-89103/home/29541057,GLVAR,2276575,N,Y,36.1211542,-115.220433
PAST SALE,April-14-2021,Condo/Co-op,4735 Nara Vista Way #201,Las Vegas,NV,89103,165000,2,1.75,Pardee Tropicana Villas,884,,1988,7,187,160,Sold,,,http://www.redfin.com/NV/Las-Vegas/4735-Nara-Vista-Way-89103/unit-201/home/29570917,GLVAR,2276639,N,Y,36.1025063,-115.2421295
PAST SALE,April-14-2021,Single Family Residential,6189 Newville Ave,Las Vegas,NV,89103,237000,3,2.0,American West,1084,6098,1974,7,219,,Sold,,,http://www.redfin.com/NV/Las-Vegas/6189-Newville-Ave-89103/home/29572503,GLVAR,2244931,N,Y,36.1109509,-115.2269166
PAST SALE,April-16-2021,Single Family Residential,3645 El Camino Rd,Las Vegas,NV,89103,347000,6,3.0,Century Spgs #4,2071,6970,1977,5,168,,Sold,,,http://www.redfin.com/NV/Las-Vegas/3645-El-Camino-Rd-89103/home/29545396,GLVAR,2280589,N,Y,36.1228436,-115.2297416
PAST SALE,April-16-2021,Condo/Co-op,4340 Sanderling Cir #74,Las Vegas,NV,89103,121000,1,1.0,Spring Oaks 4th Amd,724,,1989,5,167,150,Sold,,,http://www.redfin.com/NV/Las-Vegas/4340-Sanderling-Cir-89103/unit-74/home/29502167,GLVAR,2273571,N,Y,36.1249982,-115.1988508
PAST SALE,April-1-2021,Single Family Residential,5174 Cagney Ct,Las Vegas,NV,89103,395000,4,2.75,Valley West 7 Phase 3A,2150,9148,1980,20,184,,Sold,,,http://www.redfin.com/NV/Las-Vegas/5174-Cagney-Ct-89103/home/29542473,GLVAR,2265545,N,Y,36.1174904,-115.2126524
PAST SALE,,Mobile/Manufactured Home,4668 Royal Ridge Way,Las Vegas,NV,89103,137800,3,2.0,,1536,3920,1976,,90,,,,,http://www.redfin.com/NV/Las-Vegas/4668-Royal-Ridge-Way-89103/home/29574965,,,N,Y,36.1050314,-115.2084379
PAST SALE,April-16-2021,Condo/Co-op,4160 Gannet Cir #341,Las Vegas,NV,89103,180000,2,2.0,Spring Oaks 3rd Amd,1008,,1987,5,179,150,Sold,,,http://www.redfin.com/NV/Las-Vegas/4160-Gannet-Cir-89103/unit-341/home/29502649,GLVAR,2209832,N,Y,36.123811,-115.196284
PAST SALE,April-16-2021,Townhouse,6745 Ledgewood Dr,Las Vegas,NV,89103,198500,3,2.0,Laurel Park Homes,1311,5227,1977,5,151,,Sold,,,http://www.redfin.com/NV/Las-Vegas/6745-Ledgewood-Dr-89103/home/29569606,GLVAR,2253786,N,Y,36.111627,-115.239477
PAST SALE,April-20-2021,Condo/Co-op,4221 Gannet Cir #229,Las Vegas,NV,89103,175000,2,1.75,Spring Oaks 3rd Amd,1008,,1988,1,174,150,Sold,,,http://www.redfin.com/NV/Las-Vegas/4221-Gannet-Cir-89103/unit-229/home/29502672,GLVAR,2283862,N,Y,36.122948,-115.196666
PAST SALE,January-22-2021,Condo/Co-op,4525 Dean Martin Dr #1812,Las Vegas,NV,89103,850000,2,2.25,Panorama Towers 1,2189,,2006,89,388,1453,Sold,,,http://www.redfin.com/NV/Las-Vegas/4525-Dean-Martin-Dr-89103/unit-1812/home/29764882,GLVAR,2246117,N,Y,36.107596,-115.182163
PAST SALE,February-10-2021,Condo/Co-op,4525 Dean Martin Dr #1403,Las Vegas,NV,89103,360000,2,1.75,Panorama Towers 1,1084,,2006,70,332,726,Sold,,,http://www.redfin.com/NV/Las-Vegas/4525-Dean-Martin-Dr-89103/unit-1403/home/29764910,GLVAR,2234901,N,Y,36.107596,-115.182163
PAST SALE,February-3-2021,Condo/Co-op,4575 Dean Martin Dr #906,Las Vegas,NV,89103,447000,2,2.0,Panorama Towers 2,1385,,2005,77,323,919,Sold,,,http://www.redfin.com/NV/Las-Vegas/4575-Dean-Martin-Dr-89103/unit-906/home/29791269,GLVAR,2238828,N,Y,36.1066027,-115.1821536
PAST SALE,February-25-2021,Condo/Co-op,4525 Dean Martin Dr #611,Las Vegas,NV,89103,400000,2,2.0,Panorama Towers 1,1134,,2006,55,353,819,Sold,,,http://www.redfin.com/NV/Las-Vegas/4525-Dean-Martin-Dr-89103/unit-611/home/29765262,GLVAR,2270034,N,Y,36.107596,-115.182163
PAST SALE,February-25-2021,Condo/Co-op,4471 Dean Martin Dr #3601,Las Vegas,NV,89103,445000,1,1.5,PANORAMA TOWER PHASE III,1052,,2007,55,423,643,Sold,,,http://www.redfin.com/NV/Las-Vegas/4471-Dean-Martin-Dr-89103/unit-3601/home/29815126,GLVAR,2244048,N,Y,36.1086611,-115.1819222
PAST SALE,February-26-2021,Condo/Co-op,4575 Dean Martin Dr #2001,Las Vegas,NV,89103,370000,1,1.5,Panorama Towers 2,987,,2005,54,375,681,Sold,,,http://www.redfin.com/NV/Las-Vegas/4575-Dean-Martin-Dr-89103/unit-2001/home/29793695,GLVAR,2230566,N,Y,36.1066027,-115.1821536
PAST SALE,February-25-2021,Condo/Co-op,4200 S Valley View Blvd #2018,Las Vegas,NV,89103,230000,2,2.0,FLAMINGO PALMS VILLAS,902,,1990,55,255,330,Sold,,,http://www.redfin.com/NV/Las-Vegas/4200-S-Valley-View-Blvd-89103/unit-2018/home/29283024,GLVAR,2259531,N,Y,36.112854,-115.188333
PAST SALE,February-8-2021,Condo/Co-op,4471 Dean Martin Dr #1405,Las Vegas,NV,89103,400000,2,2.0,Panorama Tower Phase Iii,1111,,2007,72,360,712,Sold,,,http://www.redfin.com/NV/Las-Vegas/4471-Dean-Martin-Dr-89103/unit-1405/home/29813881,GLVAR,2239481,N,Y,36.1086611,-115.1819222
PAST SALE,March-17-2021,Condo/Co-op,4575 Dean Martin Dr #1003,Las Vegas,NV,89103,336500,2,1.75,PANORAMA TOWERS 2,1054,,2005,35,319,758,Sold,,,http://www.redfin.com/NV/Las-Vegas/4575-Dean-Martin-Dr-89103/unit-1003/home/29793767,GLVAR,2258523,N,Y,36.1066027,-115.1821536
PAST SALE,April-8-2021,Condo/Co-op,4471 Dean Martin Dr #1409,Las Vegas,NV,89103,735000,2,1.5,Panorama Tower Phase Iii,1652,,2007,13,445,1059,Sold,,,http://www.redfin.com/NV/Las-Vegas/4471-Dean-Martin-Dr-89103/unit-1409/home/29813868,GLVAR,2220787,N,Y,36.1086611,-115.1819222
PAST SALE,March-23-2021,Condo/Co-op,4200 Valley View Blvd #1075,Las Vegas,NV,89103,215000,2,2.0,Flamingo Palms Villas,902,,1990,29,238,330,Sold,,,http://www.redfin.com/NV/Las-Vegas/4200-S-Valley-View-Blvd-89103/unit-1075/home/29283929,GLVAR,2230544,N,Y,36.113615,-115.186801
PAST SALE,April-15-2021,Condo/Co-op,4200 Valley View Blvd #3058,Las Vegas,NV,89103,199000,2,2.0,Flamingo Palms Villas,902,,1990,6,221,1,Sold,,,http://www.redfin.com/NV/Las-Vegas/4200-S-Valley-View-Blvd-89103/unit-3058/home/29283992,GLVAR,2260301,N,Y,36.11313,-115.187697
PAST SALE,April-16-2021,Condo/Co-op,4471 Dean Martin Dr #4400,Las Vegas,NV,89103,2515000,3,2.25,Panorama Tower Phase Iii Amd,3227,,2007,5,779,1965,Sold,,,http://www.redfin.com/NV/Las-Vegas/4471-Dean-Martin-Dr-89103/unit-4400/home/40349151,GLVAR,2271803,N,Y,36.1086611,-115.1819222
PAST SALE,January-29-2021,Single Family Residential,6220 Meadow Lark Ln,Las Vegas,NV,89103,285000,4,1.75,Century Spgs #1,2093,6970,1974,82,136,,Sold,,,http://www.redfin.com/NV/Las-Vegas/6220-Meadowlark-Ln-89103/home/29544600,GLVAR,2250690,N,Y,36.1252303,-115.2276113
PAST SALE,January-29-2021,Condo/Co-op,5576 Rochelle Ave Unit 16A,Las Vegas,NV,89103,139500,2,1.75,Casa Mesa 1 Condo Amd,1058,2116,1983,82,132,200,Sold,,,http://www.redfin.com/NV/Las-Vegas/5576-W-Rochelle-Ave-89103/unit-16A/home/29573476,GLVAR,2250038,N,Y,36.112237,-115.217229
PAST SALE,January-29-2021,Single Family Residential,4672 Cedarspring Dr,Las Vegas,NV,89103,261000,2,2.0,Spring Valley Cottages Amd,1031,3920,1983,82,253,,Sold,,,http://www.redfin.com/NV/Las-Vegas/4672-Cedarspring-Dr-89103/home/29570518,GLVAR,2234942,N,Y,36.1039726,-115.240115
PAST SALE,January-25-2021,Condo/Co-op,6250 Flamingo Rd #146,Las Vegas,NV,89103,184600,2,2.25,Flamingo Ridge Amd,1424,1311,1987,86,130,190,Sold,,,http://www.redfin.com/NV/Las-Vegas/6250-W-Flamingo-Rd-89103/unit-146/home/29546236,GLVAR,2220393,N,Y,36.115119,-115.227402
PAST SALE,,Single Family Residential,4353 De Forest St,Las Vegas,NV,89103,253500,4,2.5,,2578,6534,1973,,98,,,,,http://www.redfin.com/NV/Las-Vegas/4353-De-Forest-St-89103/home/29569119,,,N,Y,36.1098539,-115.2426157
PAST SALE,January-22-2021,Single Family Residential,6834 Mangrum Cir,Las Vegas,NV,89103,220000,2,2.0,Spring Valley Cottages Amd,1031,4356,1984,89,213,,Sold,,,http://www.redfin.com/NV/Las-Vegas/6834-Mangrum-Cir-89103/home/29570482,GLVAR,2244589,N,Y,36.1055887,-115.2415969
PAST SALE,February-11-2021,Condo/Co-op,5206 River Glen Dr #256,Las Vegas,NV,89103,131000,2,1.75,Westwood Point,978,,1982,69,134,229,Sold,,,http://www.redfin.com/NV/Las-Vegas/5206-River-Glen-Dr-89103/unit-256/home/29015592,GLVAR,2259570,N,Y,36.1106175,-115.2134166
PAST SALE,February-12-2021,Single Family Residential,6841 Incline Ave,Las Vegas,NV,89103,246999,2,2.0,Spring Valley Cottages,1031,3920,1986,68,240,,Sold,,,http://www.redfin.com/NV/Las-Vegas/6841-Incline-Ave-89103/home/29570443,GLVAR,2263308,N,Y,36.1037055,-115.2420137
PAST SALE,,Condo/Co-op,4525 Dean Martin Dr #1901,Las Vegas,NV,89103,400000,2,2.0,,923,,2006,,433,,,,,http://www.redfin.com/NV/Las-Vegas/4525-Dean-Martin-Dr-89103/unit-1901/home/29764880,,,N,Y,36.107596,-115.182163
PAST SALE,March-9-2021,Condo/Co-op,4471 Dean Martin Dr #1705,Las Vegas,NV,89103,295500,1,1.0,Panorama Tower Phase Iii,821,,2007,43,360,521,Sold,,,http://www.redfin.com/NV/Las-Vegas/4471-Dean-Martin-Dr-89103/unit-1705/home/29813845,GLVAR,2264221,N,Y,36.1086611,-115.1819222
PAST SALE,February-18-2021,Condo/Co-op,5576 W Rochelle Ave Unit 23B,Las Vegas,NV,89103,167000,2,1.75,Casa Mesa 1 Condo Amd,1058,1242,1983,62,158,210,Sold,,,http://www.redfin.com/NV/Las-Vegas/5576-W-Rochelle-Ave-89103/unit-23B/home/29573439,GLVAR,2257183,N,Y,36.112237,-115.217229
PAST SALE,,Single Family Residential,6221 Fairbanks Rd,Las Vegas,NV,89103,285000,3,2.0,,1249,6970,1974,,228,,,,,http://www.redfin.com/NV/Las-Vegas/6221-Fairbanks-Rd-89103/home/29571836,,,N,Y,36.1124066,-115.2275187
PAST SALE,February-17-2021,Single Family Residential,3711 Leisure Ln,Las Vegas,NV,89103,255000,2,2.0,Victoria Vista,1072,8276,1982,63,238,,Sold,,,http://www.redfin.com/NV/Las-Vegas/3711-Leisure-Ln-89103/home/29540830,GLVAR,2250058,N,Y,36.1218794,-115.2173764
PAST SALE,March-9-2021,Multi-Family (2-4 Unit),3623 Van Dyke Ave,Las Vegas,NV,89103,462000,8,,Spring Oaks,3688,14810,1977,43,125,525,Sold,,,http://www.redfin.com/NV/Las-Vegas/3623-S-Van-Dyke-Ave-89103/home/29501144,GLVAR,2257649,N,Y,36.1241555,-115.204918
PAST SALE,March-11-2021,Single Family Residential,5629 Katie Ave,Las Vegas,NV,89103,389000,3,2.0,Viking Estate West #1,1904,7405,1996,41,204,,Sold,,,http://www.redfin.com/NV/Las-Vegas/5629-W-Katie-Ave-89103/home/29540979,GLVAR,2270859,N,Y,36.120037,-115.2182331
PAST SALE,,Condo/Co-op,4381 W Flamingo Rd #910,Las Vegas,NV,89103,270000,1,1.0,,615,,2006,,439,,,,,http://www.redfin.com/NV/Las-Vegas/4381-W-Flamingo-Rd-89103/unit-910/home/29784169,,,N,Y,36.114414,-115.1990639
PAST SALE,March-12-2021,Single Family Residential,6660 Boxwood Ln,Las Vegas,NV,89103,280000,2,1.75,Casa Linda #4D,1470,6098,1976,40,190,,Sold,,,http://www.redfin.com/NV/Las-Vegas/6660-Boxwood-Ln-89103/home/29543829,GLVAR,2264147,N,Y,36.1230099,-115.2371512
PAST SALE,,Condo/Co-op,4200 S Valley View Blvd #3068,Las Vegas,NV,89103,102349,1,1.0,,680,,1990,,151,,,,,http://www.redfin.com/NV/Las-Vegas/4200-S-Valley-View-Blvd-89103/unit-3068/home/29284037,,,N,Y,36.113224,-115.187206
PAST SALE,February-22-2021,Condo/Co-op,4381 Flamingo Rd #3908,Las Vegas,NV,89103,250000,0,1.0,Palms Place A Resort Condo & Spa At The Palms Lv,615,,2006,58,407,552,Sold,,,http://www.redfin.com/NV/Las-Vegas/4381-W-Flamingo-Rd-89103/unit-3908/home/29790089,GLVAR,2205886,N,Y,36.114414,-115.1990639
PAST SALE,March-8-2021,Condo/Co-op,4471 Dean Martin Dr #506,Las Vegas,NV,89103,340000,2,2.0,Panorama Tower Phase Iii,1111,,2007,44,306,712,Sold,,,http://www.redfin.com/NV/Las-Vegas/4471-Dean-Martin-Dr-89103/unit-506/home/29814045,GLVAR,2257723,N,Y,36.1086611,-115.1819222
PAST SALE,March-12-2021,Condo/Co-op,4381 Flamingo Rd #2021,Las Vegas,NV,89103,355000,1,1.5,Palms Place A Resort Condo & Spa At The Palms Lv,1220,,2006,40,291,1095,Sold,,,http://www.redfin.com/NV/Las-Vegas/4381-W-Flamingo-Rd-89103/unit-2021/home/29789826,GLVAR,2217512,N,Y,36.114414,-115.1990639
PAST SALE,March-11-2021,Condo/Co-op,4200 Valley View Blvd #2026,Las Vegas,NV,89103,155000,1,1.0,Flamingo Palms Villas,680,,1990,41,228,250,Sold,,,http://www.redfin.com/NV/Las-Vegas/4200-S-Valley-View-Blvd-89103/unit-2026/home/29283874,GLVAR,2265477,N,Y,36.112173,-115.188193
PAST SALE,,Condo/Co-op,4381 W Flamingo Rd #1607,Las Vegas,NV,89103,235000,1,1.0,,615,,2006,,382,,,,,http://www.redfin.com/NV/Las-Vegas/4381-W-Flamingo-Rd-89103/unit-1607/home/29789639,,,N,Y,36.114414,-115.1990639
PAST SALE,,Single Family Residential,5631 W Ibanez Ave,Las Vegas,NV,89103,298000,4,2.0,,1624,7405,1981,,183,,,,,http://www.redfin.com/NV/Las-Vegas/5631-W-Ibanez-Ave-89103/home/29540440,,,N,Y,36.1233773,-115.2182331
PAST SALE,February-25-2021,Single Family Residential,6444 Waterthrush Way,Las Vegas,NV,89103,349000,3,2.0,Flamingo West,2034,7405,1976,55,172,,Sold,,,http://www.redfin.com/NV/Las-Vegas/6444-Waterthrush-Way-89103/home/29545469,GLVAR,2261789,N,Y,36.1205984,-115.2326592
PAST SALE,February-26-2021,Condo/Co-op,5493 Indian River Dr #371,Las Vegas,NV,89103,135000,2,2.0,Westwood Point,978,,1982,54,138,256,Sold,,,http://www.redfin.com/NV/Las-Vegas/5493-Indian-River-Dr-89103/unit-371/home/29031909,GLVAR,2266015,N,Y,36.1083484,-115.2157323
PAST SALE,February-25-2021,Condo/Co-op,5415 Harmon Ave #1048,Las Vegas,NV,89103,126000,1,1.0,K C N Condo-Phase 1 Amd,723,,1995,55,174,175,Sold,,,http://www.redfin.com/NV/Las-Vegas/5415-W-Harmon-Ave-89103/unit-1048/home/29575532,GLVAR,2268501,N,Y,36.1069066,-115.214411
PAST SALE,February-26-2021,Condo/Co-op,5576 W Rochelle Ave Unit 13D,Las Vegas,NV,89103,145000,2,1.75,Casa Mesa 1 Condo Amd,1058,2080,1983,54,137,210,Sold,,,http://www.redfin.com/NV/Las-Vegas/5576-W-Rochelle-Ave-89103/unit-13D/home/29573463,GLVAR,2266617,N,Y,36.112237,-115.217229
PAST SALE,February-12-2021,Single Family Residential,6746 Casa Linda Dr,Las Vegas,NV,89103,335000,4,4.0,Casa Linda 2,2364,6098,1973,68,142,,Sold,,,http://www.redfin.com/NV/Las-Vegas/6746-Casa-Linda-Dr-89103/home/29543368,GLVAR,2249683,N,Y,36.1233735,-115.2396056
PAST SALE,March-5-2021,Single Family Residential,6381 Sandpiper Way,Las Vegas,NV,89103,359000,4,2.5,Flamingo West,2128,7405,1977,47,169,,Sold,,,http://www.redfin.com/NV/Las-Vegas/6381-Sandpiper-Way-89103/home/29545350,GLVAR,2258116,N,Y,36.118673,-115.2313162
PAST SALE,March-3-2021,Condo/Co-op,5116 River Glen Dr #222,Las Vegas,NV,89103,101000,1,1.0,Westwood Point,700,,1982,49,144,205,Sold,,,http://www.redfin.com/NV/Las-Vegas/5116-River-Glen-Dr-89103/unit-222/home/29015602,GLVAR,2250692,N,Y,36.110797,-115.211939
PAST SALE,March-8-2021,Condo/Co-op,4084 Delos #201,Las Vegas,NV,89103,168000,2,2.0,Flamingo Hgts Phase 20,1141,1722,1989,44,147,162,Sold,,,http://www.redfin.com/NV/Las-Vegas/4084-Delos-Dr-89103/unit-201/home/29543698,GLVAR,2236433,N,Y,36.1155782,-115.2108925
PAST SALE,March-11-2021,Condo/Co-op,4012 Crete Ln Unit C,Las Vegas,NV,89103,159900,2,2.0,Flamingo Heights Phase 1 2nd Amd,1141,1141,1984,41,140,148,Sold,,,http://www.redfin.com/NV/Las-Vegas/4012-Crete-Ln-89103/unit-C/home/29542517,GLVAR,2250612,N,Y,36.1165143,-115.2123051
PAST SALE,March-12-2021,Condo/Co-op,5180 Indian River Dr #352,Las Vegas,NV,89103,126500,2,1.0,Westwood Point,816,816,1982,40,155,225,Sold,,,http://www.redfin.com/NV/Las-Vegas/5180-Indian-River-Dr-89103/unit-352/home/29031599,GLVAR,2268187,N,Y,36.1096973,-115.2127124
PAST SALE,,Single Family Residential,5840 W Viking Rd,Las Vegas,NV,89103,337745,4,2.5,,2128,7841,1978,,159,,,,,http://www.redfin.com/NV/Las-Vegas/5840-W-Viking-Rd-89103/home/29540467,,,N,Y,36.1185146,-115.221475
PAST SALE,February-5-2021,Condo/Co-op,5576 W Rochelle Ave Unit 42A,Las Vegas,NV,89103,118000,2,1.75,CASA MESA #1 CONDO AMD,1058,,1984,75,112,210,Sold,,,http://www.redfin.com/NV/Las-Vegas/5576-W-Rochelle-Ave-89103/unit-42A/home/29573937,GLVAR,2217027,N,Y,36.112237,-115.217229
PAST SALE,March-26-2021,Single Family Residential,6803 Mataro Dr,Las Vegas,NV,89103,360000,4,2.25,Villa Bonita Oeste,2205,6534,1976,26,163,,Sold,,,http://www.redfin.com/NV/Las-Vegas/6803-Mataro-Dr-89103/home/29544132,GLVAR,2271894,N,Y,36.1192609,-115.2408328
PAST SALE,March-18-2021,Condo/Co-op,4471 Dean Martin Dr #2907,Las Vegas,NV,89103,574900,2,2.0,Panorama Tower Phase Iii,1437,,2007,34,400,949,Sold,,,http://www.redfin.com/NV/Las-Vegas/4471-Dean-Martin-Dr-89103/unit-2907/home/29813650,GLVAR,2266420,N,Y,36.1086611,-115.1819222
