SALE TYPE,SOLD DATE,PROPERTY TYPE,ADDRESS,CITY,STATE OR PROVINCE,ZIP OR POSTAL CODE,PRICE,BEDS,BATHS,LOCATION,SQUARE FEET,LOT SIZE,YEAR BUILT,DAYS ON MARKET,$/SQUARE FEET,HOA/MONTH,STATUS,NEXT OPEN HOUSE START TIME,NEXT OPEN HOUSE END TIME,URL (SEE http://www.redfin.com/buy-a-home/comparative-market-analysis FOR INFO ON PRICING),SOURCE,MLS#,FAVORITE,INTERESTED,LATITUDE,LONGITUDE
PAST SALE,March-19-2021,Single Family Residential,6905 Raleigh Ave,Las Vegas,NV,89108,330000,3,2.0,Rosewood Estate,1576,8712,1986,44,209,,Sold,,,http://www.redfin.com/NV/Las-Vegas/6905-W-Raleigh-Ave-89108/home/29129564,GLVAR,2264351,N,Y,36.2313259,-115.2449312
PAST SALE,April-29-2021,Multi-Family (2-4 Unit),2232 Benmore St,Las Vegas,NV,89108,580000,8,,Rock Springs Vista-Unit 6,3976,1000,1998,3,146,915,Sold,,,http://www.redfin.com/NV/Las-Vegas/2232-Benmore-St-89108/home/29847746,GLVAR,2262441,N,Y,36.200935,-115.238272
PAST SALE,February-1-2021,Single Family Residential,6645 Lund Dr,Las Vegas,NV,89108,280000,3,2.5,Rainbow Park 1,1421,3485,1994,90,197,37,Sold,,,http://www.redfin.com/NV/Las-Vegas/6645-Lund-Dr-89108/home/29192453,GLVAR,2243177,N,Y,36.1869472,-115.239513
PAST SALE,February-5-2021,Single Family Residential,4428 Bristol Manor Dr,Las Vegas,NV,89108,244000,3,1.75,Bristol Park,1115,3920,1987,86,219,,Sold,,,http://www.redfin.com/NV/Las-Vegas/4428-W-Bristol-Manor-Dr-89108/home/171654839,GLVAR,2256039,N,Y,36.2006303,-115.2031581
PAST SALE,,Single Family Residential,ADDRESS REDACTED,LAS VEGAS,NV,89108,244000,3,2.0,,1115,3920,1987,,219,,,,,http://www.redfin.com/NV/LAS-VEGAS/ADDRESS-REDACTED-89108/home/29305139,,,N,Y,36.200605,-115.203139
PAST SALE,April-8-2021,Single Family Residential,4333 Edward Ave,Las Vegas,NV,89108,275000,3,2.0,College Heights #1,1369,6098,1964,24,201,,Sold,,,http://www.redfin.com/NV/Las-Vegas/4333-Edward-Ave-89108/home/29306356,GLVAR,2280053,N,Y,36.1973653,-115.1998234
PAST SALE,April-12-2021,Single Family Residential,1701 Goodrich Cir,Las Vegas,NV,89108,275000,3,2.0,Park Vista,1160,6098,1983,20,237,,Sold,,,http://www.redfin.com/NV/Las-Vegas/1701-Goodrich-Cir-89108/home/29171678,GLVAR,2278708,N,Y,36.190485,-115.2412728
PAST SALE,February-8-2021,Single Family Residential,6805 Neepawa Cir,Las Vegas,NV,89108,283000,3,2.0,Charleston Heights Tr #56A,1413,6534,1980,83,200,,Sold,,,http://www.redfin.com/NV/Las-Vegas/6805-W-Neepawa-Cir-89108/home/29130998,GLVAR,2247125,N,Y,36.2219454,-115.2439124
PAST SALE,February-3-2021,Condo/Co-op,6909 Cobre Azul Ave #102,Las Vegas,NV,89108,187500,3,1.75,Mariposa Condo,1289,,1998,88,145,150,Sold,,,http://www.redfin.com/NV/Las-Vegas/6909-Cobre-Azul-Ave-89108/unit-102/home/29130024,GLVAR,2247455,N,Y,36.2259846,-115.2454637
PAST SALE,March-29-2021,Condo/Co-op,3428 Winterhaven St #101,Las Vegas,NV,89108,194000,3,2.0,Scottsdale Points Condo Phase 8,1156,1156,1995,34,168,165,Sold,,,http://www.redfin.com/NV/Las-Vegas/3428-Winterhaven-St-89108/unit-101/home/29130662,GLVAR,2271618,N,Y,36.2232975,-115.246112
PAST SALE,April-30-2021,Single Family Residential,6813 War Eagle Cir,Las Vegas,NV,89108,299000,3,2.0,Charleston Heights Tr #56C,1413,6534,1982,2,212,,Sold,,,http://www.redfin.com/NV/Las-Vegas/6813-W-War-Eagle-Cir-89108/home/29130282,GLVAR,2281165,N,Y,36.2240107,-115.2443523
PAST SALE,,Single Family Residential,2517 Indian Sage Way,Las Vegas,NV,89108,230000,3,2.0,,1338,6970,1978,,172,,,,,http://www.redfin.com/NV/Las-Vegas/2517-Indian-Sage-Way-89108/home/29136238,,,N,Y,36.2054958,-115.2202477
PAST SALE,February-26-2021,Single Family Residential,5225 Mambo Vista Ave,Las Vegas,NV,89108,280000,3,2.0,Madre Mesa North,1385,4792,2002,65,202,58,Sold,,,http://www.redfin.com/NV/Las-Vegas/5225-Mambo-Vista-Ave-89108/home/29914642,GLVAR,2259685,N,Y,36.2085531,-115.2124672
PAST SALE,March-11-2021,Single Family Residential,2617 La Mata St,Las Vegas,NV,89108,260000,3,2.5,Madre Mesa South,1469,3920,2003,52,177,58,Sold,,,http://www.redfin.com/NV/Las-Vegas/2617-La-Mata-St-89108/home/29952162,GLVAR,2260547,N,Y,36.2071731,-115.2124209
PAST SALE,March-30-2021,Single Family Residential,5801 Mary Way,Las Vegas,NV,89108,340000,4,1.75,Wildwood North,1383,7405,1978,33,246,,Sold,,,http://www.redfin.com/NV/Las-Vegas/5801-W-Mary-Way-89108/home/29133303,GLVAR,2270959,N,Y,36.2192384,-115.2213129
PAST SALE,April-5-2021,Single Family Residential,2424 Swaps Ln,Las Vegas,NV,89108,280000,3,2.0,New West Sub #1,1110,6970,1980,27,252,,Sold,,,http://www.redfin.com/NV/Las-Vegas/2424-Swaps-Ln-89108/home/29136198,GLVAR,2272351,N,Y,36.204388,-115.2188121
PAST SALE,April-23-2021,Single Family Residential,3228 Terra Bella Dr,Las Vegas,NV,89108,282000,3,2.0,New Country,1208,6534,1986,9,233,,Sold,,,http://www.redfin.com/NV/Las-Vegas/3228-N-Terra-Bella-Dr-89108/home/29133772,GLVAR,2283895,N,Y,36.2186709,-115.2204793
PAST SALE,March-9-2021,Condo/Co-op,2451 Rainbow Blvd #1089,Las Vegas,NV,89108,160000,3,1.75,Mountain Creek,1237,,1988,54,129,255,Sold,,,http://www.redfin.com/NV/Las-Vegas/2451-N-Rainbow-Blvd-89108/unit-1089/home/29062209,GLVAR,2260983,N,Y,36.206013,-115.243622
PAST SALE,March-8-2021,Single Family Residential,3360 Maverick St,Las Vegas,NV,89108,585000,3,2.5,,2242,42253,2004,55,261,,Sold,,,http://www.redfin.com/NV/Las-Vegas/3360-N-Maverick-St-89108/home/29132509,GLVAR,2249863,N,Y,36.2201129,-115.2295332
PAST SALE,February-22-2021,Single Family Residential,5417 Burntwood Way,Las Vegas,NV,89108,270000,4,1.75,Charleston Heights Tr #55A,1324,6970,1979,69,204,,Sold,,,http://www.redfin.com/NV/Las-Vegas/5417-Burntwood-Way-89108/home/29135115,GLVAR,2257100,N,Y,36.2142987,-115.2178395
PAST SALE,February-23-2021,Townhouse,3920 Sweet Pine St #103,Las Vegas,NV,89108,228000,3,2.5,Desert Pines Condo,1489,2906,2005,68,153,168,Sold,,,http://www.redfin.com/NV/Las-Vegas/3920-Sweet-Pine-St-89108/unit-103/home/29007071,GLVAR,2265473,N,Y,36.2309583,-115.2272176
PAST SALE,March-5-2021,Single Family Residential,3949 Coconut Ct,Las Vegas,NV,89108,280000,3,1.75,Woodcrest,1464,6098,1987,58,191,22,Sold,,,http://www.redfin.com/NV/Las-Vegas/3949-N-Coconut-Ct-89108/home/29130876,GLVAR,2268227,N,Y,36.2326825,-115.2404855
PAST SALE,March-26-2021,Single Family Residential,6668 Joe Michael Way,Las Vegas,NV,89108,380000,4,2.5,Woodcrest,1697,10454,1987,37,224,22,Sold,,,http://www.redfin.com/NV/Las-Vegas/6668-W-Joe-Michael-Way-89108/home/29131705,GLVAR,2270908,N,Y,36.2284685,-115.2419211
PAST SALE,April-15-2021,Mobile/Manufactured Home,6440 Hartman St,Las Vegas,NV,89108,205000,3,1.5,Jade Park,1638,6970,1990,17,125,,Sold,,,http://www.redfin.com/NV/Las-Vegas/6440-W-Hartman-St-89108/home/29117546,GLVAR,2276499,N,Y,36.2373539,-115.2365724
PAST SALE,April-29-2021,Single Family Residential,6713 Megan Ave,Las Vegas,NV,89108,335000,3,2.0,Rosewood Estate,1091,10454,1983,3,307,,Sold,,,http://www.redfin.com/NV/Las-Vegas/6713-W-Megan-Ave-89108/home/29130083,GLVAR,2282116,N,Y,36.2277006,-115.2432178
PAST SALE,April-30-2021,Single Family Residential,4040 Roxanne Dr,Las Vegas,NV,89108,653000,5,4.25,Big Sky Ranch Estate,3782,28314,1977,2,173,,Sold,,,http://www.redfin.com/NV/Las-Vegas/4040-N-Roxanne-Rd-89108/home/29118110,GLVAR,2277309,N,Y,36.2337848,-115.2323118
PAST SALE,March-10-2021,Single Family Residential,5924 Marka Dr,Las Vegas,NV,89108,265000,3,1.75,Charleston Heights,1218,6970,1963,53,218,,Sold,,,http://www.redfin.com/NV/Las-Vegas/5924-Marka-Dr-89108/home/29187130,GLVAR,2261145,N,Y,36.1818824,-115.2226096
PAST SALE,February-10-2021,Single Family Residential,6336 Molino St,Las Vegas,NV,89108,270000,4,3.0,Torrey Pines Park,1640,5663,1973,81,165,,Sold,,,http://www.redfin.com/NV/Las-Vegas/6336-Molino-St-89108/home/29140909,GLVAR,2259345,N,Y,36.2070716,-115.232335
PAST SALE,,Single Family Residential,1104 Saylor Way,Las Vegas,NV,89108,200000,3,2.0,,1173,6534,1963,,171,,,,,http://www.redfin.com/NV/Las-Vegas/1104-Saylor-Way-89108/home/29187202,,,N,Y,36.1829053,-115.2196457
PAST SALE,February-1-2021,Single Family Residential,4329 Fox Point Dr,Las Vegas,NV,89108,274000,4,2.5,Accent West,1741,4792,1984,90,157,,Sold,,,http://www.redfin.com/NV/Las-Vegas/4329-N-Fox-Point-Dr-89108/home/29119065,GLVAR,2249891,N,Y,36.2395986,-115.2445144
PAST SALE,March-2-2021,Mobile/Manufactured Home,6416 Bamboo Pl,Las Vegas,NV,89108,163000,3,2.0,Jade Park,1435,6970,1980,61,114,,Sold,,,http://www.redfin.com/NV/Las-Vegas/6416-W-Bamboo-Pl-89108/home/29117960,GLVAR,2254743,N,Y,36.2359649,-115.2350673
PAST SALE,March-10-2021,Mobile/Manufactured Home,4316 Jadestone Ave,Las Vegas,NV,89108,161000,3,1.5,Jade Park,1248,6970,1975,53,129,,Sold,,,http://www.redfin.com/NV/Las-Vegas/4316-N-Jadestone-Ave-89108/home/29116987,GLVAR,2256440,N,Y,36.2388496,-115.238309
PAST SALE,March-18-2021,Single Family Residential,5804 Mendoza Ct,Las Vegas,NV,89108,395000,4,2.0,Charleston Heights Tr #53D,2065,16117,1986,45,191,,Sold,,,http://www.redfin.com/NV/Las-Vegas/5804-Mendoza-Ct-89108/home/29134903,GLVAR,2266158,N,Y,36.2119327,-115.2235127
PAST SALE,March-25-2021,Single Family Residential,3441 Maverick St,Las Vegas,NV,89108,530000,3,2.5,,2542,33977,1973,38,208,,Sold,,,http://www.redfin.com/NV/Las-Vegas/3441-N-Maverick-St-89108/home/29132566,GLVAR,2229035,N,Y,36.2216939,-115.2302742
PAST SALE,March-15-2021,Single Family Residential,6720 Accent Ct,Las Vegas,NV,89108,265000,3,2.5,Accent West,1826,4792,1984,48,145,,Sold,,,http://www.redfin.com/NV/Las-Vegas/6720-W-Accent-Ct-89108/home/29119034,GLVAR,2264583,N,Y,36.2400698,-115.2431251
PAST SALE,April-29-2021,Single Family Residential,6809 Old Castle Dr,Las Vegas,NV,89108,337500,4,2.0,Suncrest Meadows,1656,7405,1980,3,204,,Sold,,,http://www.redfin.com/NV/Las-Vegas/6809-W-Old-Castle-Dr-89108/home/29119157,GLVAR,2281291,N,Y,36.2369216,-115.2442365
PAST SALE,March-29-2021,Single Family Residential,912 Niblick Dr,Las Vegas,NV,89108,370000,3,2.0,Twin Lakes Cntry Club Estate,2362,8712,1963,34,157,,Sold,,,http://www.redfin.com/NV/Las-Vegas/912-Niblick-Dr-89108/home/29342044,GLVAR,2262229,N,Y,36.1820128,-115.1935939
PAST SALE,April-9-2021,Single Family Residential,1451 Shadow Mountain Pl,Las Vegas,NV,89108,467500,4,2.0,Shadow Mountian Estate,2086,16117,1972,23,224,,Sold,,,http://www.redfin.com/NV/Las-Vegas/1451-Shadow-Mountain-Pl-89108/home/29186149,GLVAR,2246131,N,Y,36.1869339,-115.2170985
PAST SALE,February-2-2021,Single Family Residential,1201 Oak Tree Ln,Las Vegas,NV,89108,458000,3,2.0,Woodland Hills,2738,9583,1980,89,167,,Sold,,,http://www.redfin.com/NV/Las-Vegas/1201-Oak-Tree-Ln-89108/home/29341980,GLVAR,2242718,N,Y,36.1849472,-115.1922044
PAST SALE,March-31-2021,Single Family Residential,4108 Vegas Dr,Las Vegas,NV,89108,400000,4,3.0,Eastland Heights Tr #2,2634,19166,1955,32,152,,Sold,,,http://www.redfin.com/NV/Las-Vegas/4108-Vegas-Dr-89108/home/29307449,GLVAR,2280586,N,Y,36.1886955,-115.1949834
PAST SALE,March-29-2021,Single Family Residential,1341 Sun Point Dr,Las Vegas,NV,89108,270000,3,2.0,Rainbow Vista #10-Lewis Homes,1572,6098,1989,34,172,,Sold,,,http://www.redfin.com/NV/Las-Vegas/1341-Sun-Point-Dr-89108/home/29195371,GLVAR,2265474,N,Y,36.1858152,-115.2266851
PAST SALE,April-12-2021,Single Family Residential,1309 Pocono Way,Las Vegas,NV,89108,280000,4,2.0,Rainbow Vista #2 Lewis Homes,1476,6098,1984,20,190,,Sold,,,http://www.redfin.com/NV/Las-Vegas/1309-N-Pocono-Way-89108/home/29195196,GLVAR,2272424,N,Y,36.184584,-115.227125
PAST SALE,February-12-2021,Single Family Residential,6605 Chardonay Way,Las Vegas,NV,89108,300000,4,2.5,Woodcrest,1692,4792,1986,79,177,23,Sold,,,http://www.redfin.com/NV/Las-Vegas/6605-W-Chardonay-Way-89108/home/147383810,GLVAR,2263189,N,Y,36.2257166,-115.2402077
PAST SALE,March-29-2021,Single Family Residential,4809 Elmhurst Ln,Las Vegas,NV,89108,228000,3,1.75,Golfridge Terrace,1220,6098,1961,34,187,,Sold,,,http://www.redfin.com/NV/Las-Vegas/4809-Elmhurst-Ln-89108/home/29189175,GLVAR,2269755,N,Y,36.1840462,-115.2072106
PAST SALE,April-1-2021,Single Family Residential,1701 Jernae Ct,Las Vegas,NV,89108,316500,4,3.0,Dixon Estate,1739,6970,2000,31,182,,Sold,,,http://www.redfin.com/NV/Las-Vegas/1701-Jernae-Ct-89108/home/29180189,GLVAR,2272602,N,Y,36.1893222,-115.2126524
PAST SALE,February-19-2021,Single Family Residential,6276 Bunker Commons Ct,Las Vegas,NV,89108,344000,3,2.0,Bunker Commons 1,1878,7405,2006,72,183,,Sold,,,http://www.redfin.com/NV/Las-Vegas/6276-Bunker-Commons-Ct-89108/home/29061619,GLVAR,2242179,N,Y,36.2107869,-115.2307373
PAST SALE,April-16-2021,Single Family Residential,2300 El Cerrito Cir,Las Vegas,NV,89108,250000,3,2.0,Charleston Heights Tr #51A,1306,3920,1979,16,191,,Sold,,,http://www.redfin.com/NV/Las-Vegas/2300-El-Cerrito-Cir-89108/home/29172471,GLVAR,2279012,N,Y,36.2019076,-115.2303899
PAST SALE,April-1-2021,Townhouse,6964 Oyster Shell Dr,Las Vegas,NV,89108,210000,3,2.5,Las Hadas Twnhs,1289,871,1995,31,163,,Sold,,,http://www.redfin.com/NV/Las-Vegas/6964-Oyster-Shell-Dr-89108/home/29119671,GLVAR,2234427,N,Y,36.234482,-115.246355
PAST SALE,March-25-2021,Single Family Residential,6321 Crestfield Ave,Las Vegas,NV,89108,455000,3,2.5,Torrey Pines 20,2057,11761,1995,38,221,,Sold,,,http://www.redfin.com/NV/Las-Vegas/6321-W-Crestfield-Ave-89108/home/29132358,GLVAR,2271591,N,Y,36.228787,-115.2337011
PAST SALE,March-3-2021,Single Family Residential,3039 Woods Dr,Las Vegas,NV,89108,397000,3,2.0,Breton Woods South,1862,20038,1978,60,213,,Sold,,,http://www.redfin.com/NV/Las-Vegas/3039-Woods-Dr-89108/home/29135228,GLVAR,2264263,N,Y,36.2139011,-115.2227949
PAST SALE,February-18-2021,Single Family Residential,4325 Sawyer Ave,Las Vegas,NV,89108,249900,3,1.75,College Heights #1,1481,6098,1963,73,169,,Sold,,,http://www.redfin.com/NV/Las-Vegas/4325-Sawyer-Ave-89108/home/29306279,GLVAR,2260592,N,Y,36.1960817,-115.200055
PAST SALE,,Single Family Residential,1812 Parkchester Dr,Las Vegas,NV,89108,287448,3,2.0,,1954,11326,1974,,147,,,,,http://www.redfin.com/NV/Las-Vegas/1812-Parkchester-Dr-89108/home/29307220,,,N,Y,36.1932861,-115.1989665
PAST SALE,February-17-2021,Single Family Residential,6649 Lucky Strike Way,Las Vegas,NV,89108,275000,3,2.0,Rainbow Park 2,1317,5227,1995,74,209,,Sold,,,http://www.redfin.com/NV/Las-Vegas/6649-Lucky-Strike-Way-89108/home/29192322,GLVAR,2258567,N,Y,36.1862161,-115.240115
PAST SALE,March-12-2021,Single Family Residential,6557 Wild River Dr,Las Vegas,NV,89108,300000,3,2.5,Rainbow Vista #14 Lewis Homes,1734,4356,1994,51,173,,Sold,,,http://www.redfin.com/NV/Las-Vegas/6557-Wild-River-Dr-89108/home/29192059,GLVAR,2265562,N,Y,36.1813383,-115.2372439
PAST SALE,February-23-2021,Single Family Residential,6004 W Miracosta Ave,Las Vegas,NV,89108,299500,4,2.0,New Country #6,1503,6970,1983,68,199,,Sold,,,http://www.redfin.com/NV/Las-Vegas/6004-W-Miracosta-Ave-89108/home/29133322,GLVAR,2255418,N,Y,36.2195705,-115.2247863
PAST SALE,March-26-2021,Single Family Residential,5904 Carpenteria Way,Las Vegas,NV,89108,225000,3,2.0,Twin Lakes Village,1208,6098,1980,37,186,,Sold,,,http://www.redfin.com/NV/Las-Vegas/5904-W-Carpenteria-Way-89108/home/29133437,GLVAR,2253752,N,Y,36.2230957,-115.2237674
PAST SALE,March-1-2021,Single Family Residential,1813 Blue Mountain Dr,Las Vegas,NV,89108,340000,5,4.0,Wildwood,2525,6970,1973,62,135,,Sold,,,http://www.redfin.com/NV/Las-Vegas/1813-Blue-Mountain-Dr-89108/home/29176169,GLVAR,2256123,N,Y,36.1912037,-115.2167511
PAST SALE,March-31-2021,Townhouse,6429 Blue Blossom Ave,Las Vegas,NV,89108,205000,3,2.0,Rosewood Terrace Twnhs,1182,1742,1999,32,173,150,Sold,,,http://www.redfin.com/NV/Las-Vegas/6429-Blue-Blossom-Dr-89108/home/29169756,GLVAR,2274155,N,Y,36.2002679,-115.2340197
PAST SALE,February-11-2021,Single Family Residential,5613 Eugene Ave,Las Vegas,NV,89108,246000,4,2.75,Charleston Heights 50B,1659,6098,1964,80,148,,Sold,,,http://www.redfin.com/NV/Las-Vegas/5613-W-Eugene-Ave-89108/home/29175513,GLVAR,2257568,N,Y,36.1986265,-115.2179321
PAST SALE,April-12-2021,Single Family Residential,5509 Auborn Ave,Las Vegas,NV,89108,255000,4,2.0,Charleston Heights Tr #50D-3,1144,6534,1971,20,223,,Sold,,,http://www.redfin.com/NV/Las-Vegas/5509-W-Auborn-Ave-89108/home/29175187,GLVAR,2270454,N,Y,36.2018696,-115.2164038
PAST SALE,April-29-2021,Single Family Residential,5604 Bartlett Ave,Las Vegas,NV,89108,254500,3,2.0,Charleston Heights Tr #50D-3,1325,6534,1971,3,192,,Sold,,,http://www.redfin.com/NV/Las-Vegas/5604-W-Bartlett-Ave-89108/home/29175202,GLVAR,2282332,N,Y,36.2013023,-115.2175153
PAST SALE,February-26-2021,Multi-Family (2-4 Unit),1621 Cordoba Ln,Las Vegas,NV,89108,420000,8,,Wildwood Manor,3720,10454,1978,65,113,280,Sold,,,http://www.redfin.com/NV/Las-Vegas/1621-Cordoba-Ln-89108/home/29307123,GLVAR,2257645,N,Y,36.1894725,-115.202417
PAST SALE,April-27-2021,Single Family Residential,5106 Sawyer Ave,Las Vegas,NV,89108,437500,4,2.0,Curtis Park Manor,2231,20473,1964,5,196,,Sold,,,http://www.redfin.com/NV/Las-Vegas/5106-Sawyer-Ave-89108/home/29177306,GLVAR,2255326,N,Y,36.1970706,-115.210082
PAST SALE,March-5-2021,Single Family Residential,5113 Rancher Ave,Las Vegas,NV,89108,285000,3,2.0,Country Lane-Phase 2,1558,6534,1997,58,183,,Sold,,,http://www.redfin.com/NV/Las-Vegas/5113-Rancher-Ave-89108/home/29136060,GLVAR,2262571,N,Y,36.212952,-115.2125135
PAST SALE,April-28-2021,Single Family Residential,2636 Los Palos St,Las Vegas,NV,89108,290000,3,2.5,Madre Mesa South,1857,3920,2003,4,156,50,Sold,,,http://www.redfin.com/NV/Las-Vegas/2636-Los-Palos-St-89108/home/28975836,GLVAR,2288149,N,Y,36.2076909,-115.2102904
PAST SALE,February-5-2021,Single Family Residential,6603 Silver Spoon Dr,Las Vegas,NV,89108,260000,3,2.0,Sterling Spgs,1249,4356,1990,86,208,10,Sold,,,http://www.redfin.com/NV/Las-Vegas/6603-Silver-Spoon-Dr-89108/home/29138073,GLVAR,2254146,N,Y,36.2108505,-115.2395593
PAST SALE,April-7-2021,Single Family Residential,2712 Camphor Tree St,Las Vegas,NV,89108,315000,3,2.75,Metropolitans Colony Grant,1704,5663,1993,25,185,75,Sold,,,http://www.redfin.com/NV/Las-Vegas/2712-Camphor-Tree-St-89108/home/29137800,GLVAR,2274394,N,Y,36.2091965,-115.239877
PAST SALE,March-26-2021,Single Family Residential,6576 Woodsworth Ave,Las Vegas,NV,89108,280000,3,2.0,Jakes Ranch,1336,4356,1996,37,210,,Sold,,,http://www.redfin.com/NV/Las-Vegas/6576-Woodsworth-Ave-89108/home/29169695,GLVAR,2263976,N,Y,36.2002508,-115.2390036
PAST SALE,,Single Family Residential,5812 W Halfmoon Way,Las Vegas,NV,89108,430000,3,2.0,,1359,6098,1979,,316,,,,,http://www.redfin.com/NV/Las-Vegas/5812-W-Halfmoon-Way-89108/home/29133508,,,N,Y,36.2231439,-115.2219613
PAST SALE,March-19-2021,Mobile/Manufactured Home,6613 Hartman St,Las Vegas,NV,89108,176500,3,2.0,Jade Park,1000,6970,1977,44,177,,Sold,,,http://www.redfin.com/NV/Las-Vegas/6613-W-Hartman-St-89108/home/29116991,GLVAR,2258115,N,Y,36.2373358,-115.2397446
PAST SALE,March-30-2021,Single Family Residential,3548 Trilogy Dr,Las Vegas,NV,89108,259000,3,2.0,Trilogy,1160,5227,1999,33,223,,Sold,,,http://www.redfin.com/NV/Las-Vegas/3548-N-Trilogy-Dr-89108/home/29133099,GLVAR,2278091,N,Y,36.2239863,-115.2201551
PAST SALE,April-22-2021,Single Family Residential,5824 Mary Way,Las Vegas,NV,89108,318000,4,2.0,Wildwood North,1423,9583,1978,10,223,,Sold,,,http://www.redfin.com/NV/Las-Vegas/5824-W-Mary-Way-89108/home/29133295,GLVAR,2273644,N,Y,36.2196413,-115.2227023
PAST SALE,February-26-2021,Single Family Residential,2632 Shakespeare Rd,Las Vegas,NV,89108,320000,3,2.5,Mission Bend Village Metropolitans,1836,6534,1989,65,174,75,Sold,,,http://www.redfin.com/NV/Las-Vegas/2632-Shakespeare-Rd-89108/home/29139234,GLVAR,2255772,N,Y,36.2084392,-115.2345579
PAST SALE,March-12-2021,Single Family Residential,2705 Ironside Dr,Las Vegas,NV,89108,300000,3,2.5,Metropolitans Cypress Station,1763,5663,1989,51,170,75,Sold,,,http://www.redfin.com/NV/Las-Vegas/2705-Ironside-Dr-89108/home/29138861,GLVAR,2252299,N,Y,36.2088402,-115.2341874
PAST SALE,April-20-2021,Single Family Residential,6516 Deadwood Rd,Las Vegas,NV,89108,249000,3,2.0,Tanglewood,1221,3485,1984,12,204,23,Sold,,,http://www.redfin.com/NV/Las-Vegas/6516-Deadwood-Rd-89108/home/29139047,GLVAR,2272563,N,Y,36.2067662,-115.2359935
PAST SALE,April-21-2021,Single Family Residential,2625 Island Brook Dr,Las Vegas,NV,89108,355000,4,3.0,Mission Bend Village Metropolitans,2220,5227,1990,11,160,75,Sold,,,http://www.redfin.com/NV/Las-Vegas/2625-Island-Brook-Dr-89108/home/29138832,GLVAR,2281452,N,Y,36.2080287,-115.2358546
PAST SALE,April-20-2021,Single Family Residential,2676 Dorshester Heights Ct,Las Vegas,NV,89108,423000,4,2.0,Bunker Commons Iv,2043,10454,2014,12,207,65,Sold,,,http://www.redfin.com/NV/Las-Vegas/2676-Dorshester-Heights-Ct-89108/home/65556665,GLVAR,2257225,N,Y,36.2077595,-115.223258
PAST SALE,March-8-2021,Single Family Residential,2769 Trotwood Ln,Las Vegas,NV,89108,318000,3,2.5,Seasons,1887,5663,1992,55,169,75,Sold,,,http://www.redfin.com/NV/Las-Vegas/2769-Trotwood-Ln-89108/home/29138932,GLVAR,2258645,N,Y,36.20973,-115.2374754
PAST SALE,March-9-2021,Single Family Residential,6544 Old Oxford Ave,Las Vegas,NV,89108,280000,3,2.0,Sterling Spgs Amd,1655,4792,1989,54,169,12,Sold,,,http://www.redfin.com/NV/Las-Vegas/6544-Old-Oxford-Ave-89108/home/29137978,GLVAR,2265731,N,Y,36.2135816,-115.2385405
PAST SALE,March-9-2021,Single Family Residential,2721 Riley Oaks Ct,Las Vegas,NV,89108,255000,3,2.0,Metropolitans Cypress Station,1136,3920,1990,54,224,75,Sold,,,http://www.redfin.com/NV/Las-Vegas/2721-Riley-Oaks-Ct-89108/home/29138868,GLVAR,2266273,N,Y,36.2095163,-115.2350673
PAST SALE,March-22-2021,Single Family Residential,1871 Shadow Mountain Pl,Las Vegas,NV,89108,315000,6,5.0,,5036,37897,1978,41,63,,Sold,,,http://www.redfin.com/NV/Las-Vegas/1871-Shadow-Mountain-Pl-89108/home/29176579,GLVAR,2272777,N,Y,36.1932514,-115.2170985
PAST SALE,April-2-2021,Single Family Residential,6900 Old Castle Dr,Las Vegas,NV,89108,280000,3,1.75,Suncrest Meadows,1511,6970,1980,30,185,,Sold,,,http://www.redfin.com/NV/Las-Vegas/6900-W-Old-Castle-Dr-89108/home/29119141,GLVAR,2273698,N,Y,36.2373441,-115.2446533
PAST SALE,,Single Family Residential,3440 N Maverick St,Las Vegas,NV,89108,293514,5,4.0,,4129,42253,1974,,71,,,,,http://www.redfin.com/NV/Las-Vegas/3440-N-Maverick-St-89108/home/29132569,,,N,Y,36.2215714,-115.2291396
PAST SALE,April-30-2021,Single Family Residential,3805 Old Orchard Ct,Las Vegas,NV,89108,520000,4,2.5,Torrey Pines 20,2246,11326,1997,2,232,,Sold,,,http://www.redfin.com/NV/Las-Vegas/3805-N-Old-Orchard-Ct-89108/home/29132292,GLVAR,2273166,N,Y,36.2289819,-115.2321266
PAST SALE,March-8-2021,Single Family Residential,1751 Fairhaven St,Las Vegas,NV,89108,385000,3,2.0,Parcel Map File 27 Page 18,2618,20038,1981,55,147,,Sold,,,http://www.redfin.com/NV/Las-Vegas/1751-Fairhaven-St-89108/home/29178611,GLVAR,2263050,N,Y,36.1911841,-115.2086926
PAST SALE,March-26-2021,Single Family Residential,4624 Stacey Ave,Las Vegas,NV,89108,253000,3,2.0,College Heights #3A,1036,6970,1972,37,244,,Sold,,,http://www.redfin.com/NV/Las-Vegas/4624-Stacey-Ave-89108/home/29306081,GLVAR,2266396,N,Y,36.1978951,-115.2045475
PAST SALE,,Single Family Residential,1904 Parkchester Dr,Las Vegas,NV,89108,140000,4,2.0,,2180,10890,1974,,64,,,,,http://www.redfin.com/NV/Las-Vegas/1904-Parkchester-Dr-89108/home/29307226,,,N,Y,36.1941603,-115.1989665
PAST SALE,April-6-2021,Single Family Residential,5228 Apple Valley Ln,Las Vegas,NV,89108,260000,3,1.75,Golfridge Terrace,1040,6098,1962,26,250,,Sold,,,http://www.redfin.com/NV/Las-Vegas/5228-Apple-Valley-Ln-89108/home/29189474,GLVAR,2272712,N,Y,36.185806,-115.213625
PAST SALE,April-9-2021,Single Family Residential,4916 Carmen Blvd,Las Vegas,NV,89108,249900,3,1.75,Golfridge Terrace,1712,6098,1960,23,146,,Sold,,,http://www.redfin.com/NV/Las-Vegas/4916-Carmen-Blvd-89108/home/29189130,GLVAR,2262633,N,Y,36.1830719,-115.2088084
PAST SALE,February-10-2021,Multi-Family (2-4 Unit),1216 Jones Blvd,Las Vegas,NV,89108,419000,8,,Charleston Heights,3400,7405,1963,81,123,,Sold,,,http://www.redfin.com/NV/Las-Vegas/1216-N-Jones-Blvd-89108/home/29187226,GLVAR,2259009,N,Y,36.1842616,-115.2236054
PAST SALE,,Single Family Residential,5240 Carmen Blvd,Las Vegas,NV,89108,245000,3,2.0,,1488,6098,1962,,165,,,,,http://www.redfin.com/NV/Las-Vegas/5240-Carmen-Blvd-89108/home/29189520,,,N,Y,36.1851544,-115.2142271
PAST SALE,February-25-2021,Single Family Residential,1727 Michael Way,Las Vegas,NV,89108,340000,3,2.5,,1884,10890,1965,66,180,,Sold,,,http://www.redfin.com/NV/Las-Vegas/1727-Michael-Way-89108/home/29176282,GLVAR,2259013,N,Y,36.1914611,-115.2153386
PAST SALE,March-5-2021,Multi-Family (2-4 Unit),5232 Pebble Beach Blvd,Las Vegas,NV,89108,370000,8,,Golf Ridge Terrace 2nd Amd,3196,7405,1963,58,116,,Sold,,,http://www.redfin.com/NV/Las-Vegas/5232-Pebble-Beach-Blvd-89108/home/29188490,GLVAR,2238018,N,Y,36.1879334,-115.2139724
PAST SALE,March-26-2021,Single Family Residential,5817 Gordon Ave,Las Vegas,NV,89108,229000,3,2.0,Charleston Heights Tr #48A Amd,1242,6098,1964,37,184,,Sold,,,http://www.redfin.com/NV/Las-Vegas/5817-Gordon-Ave-89108/home/29176474,GLVAR,2251053,N,Y,36.1896955,-115.2210814
PAST SALE,April-7-2021,Single Family Residential,1920 Stonington Pl,Las Vegas,NV,89108,370000,4,1.75,Uptown Estate,1896,7841,1992,25,195,,Sold,,,http://www.redfin.com/NV/Las-Vegas/1920-Stonington-Pl-89108/home/29176279,GLVAR,2270353,N,Y,36.1947653,-115.2186731
PAST SALE,April-8-2021,Single Family Residential,5620 Pinecone Pl,Las Vegas,NV,89108,230000,3,2.0,Wildwood,1362,6970,1973,24,169,,Sold,,,http://www.redfin.com/NV/Las-Vegas/5620-W-Pine-Cone-Pl-89108/home/29176150,GLVAR,2253748,N,Y,36.1915044,-115.2179784
PAST SALE,,Single Family Residential,5920 Apple Valley Ln,Las Vegas,NV,89108,150000,3,2.0,,1188,7405,1963,,126,,,,,http://www.redfin.com/NV/Las-Vegas/5920-Apple-Valley-Ln-89108/home/29186450,,,N,Y,36.1855276,-115.222656
PAST SALE,April-16-2021,Single Family Residential,2108 Conchita St,Las Vegas,NV,89108,245000,3,2.0,Charleston Heights Tr #51A,1044,3485,1979,16,235,,Sold,,,http://www.redfin.com/NV/Las-Vegas/2108-Conchita-St-89108/home/29173200,GLVAR,2281761,N,Y,36.1980809,-115.2316866
PAST SALE,March-23-2021,Single Family Residential,5517 Seattle Slew Dr,Las Vegas,NV,89108,294000,4,2.0,New West Sub #1,1634,6534,1981,40,180,,Sold,,,http://www.redfin.com/NV/Las-Vegas/5517-Seattle-Slew-Dr-89108/home/29136208,GLVAR,2271641,N,Y,36.2044903,-115.217029
PAST SALE,March-11-2021,Townhouse,5041 Sublight Ave,Las Vegas,NV,89108,232000,3,2.5,Starfire Estate 6 Twnhs,1534,1307,1999,52,151,,Sold,,,http://www.redfin.com/NV/Las-Vegas/5041-Sublight-Ave-89108/home/29136838,GLVAR,2266561,N,Y,36.209563,-115.208875
PAST SALE,March-17-2021,Townhouse,5004 Starfinder Ave,Las Vegas,NV,89108,223000,3,2.5,Starfire Estate 6 Twnhs,1408,1307,1997,46,158,170,Sold,,,http://www.redfin.com/NV/Las-Vegas/5004-Starfinder-Ave-89108/home/29136829,GLVAR,2264402,N,Y,36.208897,-115.20849
PAST SALE,April-12-2021,Townhouse,5088 Sublight Ave,Las Vegas,NV,89108,232000,3,2.5,Starfire Estate 6 Twnhs,1534,1742,1998,20,151,170,Sold,,,http://www.redfin.com/NV/Las-Vegas/5088-Sublight-Ave-89108/home/29136798,GLVAR,2268349,N,Y,36.209983,-115.209691
PAST SALE,March-25-2021,Single Family Residential,1809 Joella St,Las Vegas,NV,89108,314000,4,2.5,Oeste Villas,1636,6534,1984,38,192,,Sold,,,http://www.redfin.com/NV/Las-Vegas/1809-N-Joella-St-89108/home/29177526,GLVAR,2273127,N,Y,36.1925259,-115.2141345
PAST SALE,February-12-2021,Single Family Residential,2028 Valley Dr,Las Vegas,NV,89108,259000,4,1.75,College Heights #1,1905,6098,1964,79,136,,Sold,,,http://www.redfin.com/NV/Las-Vegas/2028-Valley-Dr-89108/home/29307597,GLVAR,2246896,N,Y,36.1967897,-115.1967202
PAST SALE,,Single Family Residential,1304 Woodbridge Dr,Las Vegas,NV,89108,155000,3,2.0,,1782,6534,1980,,87,,,,,http://www.redfin.com/NV/Las-Vegas/1304-Woodbridge-Dr-89108/home/29342003,,,N,Y,36.1864605,-115.1903286
PAST SALE,April-19-2021,Single Family Residential,1325 Scenic Way,Las Vegas,NV,89108,250000,4,1.75,Twin Lakes Village,1377,8712,1957,13,182,,Sold,,,http://www.redfin.com/NV/Las-Vegas/1325-Scenic-Way-89108/home/29341945,GLVAR,2265805,N,Y,36.1869223,-115.1888002
PAST SALE,,Single Family Residential,4020 N Compass Rose Way,Las Vegas,NV,89108,225000,4,2.0,,1403,3920,1993,,160,,,,,http://www.redfin.com/NV/Las-Vegas/4020-N-Compass-Rose-Way-89108/home/29119664,,,N,Y,36.2337966,-115.2431251
PAST SALE,April-28-2021,Single Family Residential,4028 Woodgreen Dr,Las Vegas,NV,89108,274000,4,2.0,Charleston Heights Tr #62B,1335,5227,1982,4,205,,Sold,,,http://www.redfin.com/NV/Las-Vegas/4028-N-Woodgreen-Dr-89108/home/29119716,GLVAR,2271607,N,Y,36.2339777,-115.2447923
PAST SALE,April-9-2021,Single Family Residential,5200 Santo Ave,Las Vegas,NV,89108,265000,4,1.5,Golfridge Terrace,1743,6098,1962,23,152,,Sold,,,http://www.redfin.com/NV/Las-Vegas/5200-Santo-Ave-89108/home/29189228,GLVAR,2274050,N,Y,36.183986,-115.2118188
PAST SALE,February-5-2021,Townhouse,6404 Addely Dr,Las Vegas,NV,89108,139000,4,2.0,Approach 80,1122,871,1981,86,124,189,Sold,,,http://www.redfin.com/NV/Las-Vegas/6404-Addely-Dr-89108/home/28967780,GLVAR,2249844,N,Y,36.2029396,-115.2334001
PAST SALE,March-18-2021,Single Family Residential,2604 Island Brook Dr,Las Vegas,NV,89108,295000,3,2.5,Mission Bend Village Metropolitans,1836,5663,1990,45,161,75,Sold,,,http://www.redfin.com/NV/Las-Vegas/2604-Island-Brook-Dr-89108/home/29139210,GLVAR,2266330,N,Y,36.2073592,-115.2352988
PAST SALE,March-17-2021,Single Family Residential,6576 Moonshadow Cir,Las Vegas,NV,89108,396500,3,2.75,Metropolitans Governors Place,2574,6534,1989,46,154,75,Sold,,,http://www.redfin.com/NV/Las-Vegas/6576-Moonshadow-Cir-89108/home/29139113,GLVAR,2262938,N,Y,36.2046969,-115.238309
PAST SALE,March-31-2021,Single Family Residential,6532 Moon Roses Ct,Las Vegas,NV,89108,264000,4,2.75,Rainbow Vista #14 Lewis Homes,1753,4356,1994,32,151,,Sold,,,http://www.redfin.com/NV/Las-Vegas/6532-Moon-Roses-Ct-89108/home/29192026,GLVAR,2261375,N,Y,36.1824583,-115.2365029
PAST SALE,March-26-2021,Single Family Residential,4816 Cannon Cir,Las Vegas,NV,89108,240000,3,2.0,Golfridge Terrace,1220,5663,1960,37,197,,Sold,,,http://www.redfin.com/NV/Las-Vegas/4816-Cannon-Cir-89108/home/29190362,GLVAR,2264130,N,Y,36.1816833,-115.2075579
PAST SALE,February-19-2021,Single Family Residential,6556 Castor Tree Way,Las Vegas,NV,89108,282000,3,2.5,Seasons,1601,3920,1991,72,176,75,Sold,,,http://www.redfin.com/NV/Las-Vegas/6556-Castor-Tree-Way-89108/home/29137838,GLVAR,2258046,N,Y,36.2103579,-115.2382164
PAST SALE,February-1-2021,Single Family Residential,2744 Trotwood Ln,Las Vegas,NV,89108,281000,3,2.5,Seasons,1887,4356,1992,90,149,75,Sold,,,http://www.redfin.com/NV/Las-Vegas/2744-Trotwood-Ln-89108/home/29138986,GLVAR,2240454,N,Y,36.2093822,-115.2376409
PAST SALE,February-24-2021,Single Family Residential,1908 Indrio Cir,Las Vegas,NV,89108,267000,3,2.0,Park Vista,1160,4792,1984,67,230,,Sold,,,http://www.redfin.com/NV/Las-Vegas/1908-Indrio-Cir-89108/home/29172133,GLVAR,2261787,N,Y,36.1932971,-115.2411339
PAST SALE,March-3-2021,Single Family Residential,6252 Espinosa Ave,Las Vegas,NV,89108,250000,3,1.75,Charleston Heights Tr #51H,1196,6534,1979,60,209,,Sold,,,http://www.redfin.com/NV/Las-Vegas/6252-Espinosa-Ave-89108/home/29173241,GLVAR,2262167,N,Y,36.1984884,-115.2296953
PAST SALE,March-24-2021,Single Family Residential,6500 Sterling Springs Pkwy,Las Vegas,NV,89108,260200,3,2.0,Sterling Spgs Amd,1243,4792,1989,39,209,10,Sold,,,http://www.redfin.com/NV/Las-Vegas/6500-Sterling-Springs-Pkwy-89108/home/29137996,GLVAR,2261830,N,Y,36.2129632,-115.2368734
PAST SALE,April-13-2021,Single Family Residential,2224 San Deluna St,Las Vegas,NV,89108,230000,3,2.0,Charleston Heights Tr #51E,1056,6098,1979,19,218,,Sold,,,http://www.redfin.com/NV/Las-Vegas/2224-San-Deluna-St-89108/home/29172530,GLVAR,2278480,N,Y,36.2008365,-115.2263146
PAST SALE,March-26-2021,Single Family Residential,5913 Condor Ave,Las Vegas,NV,89108,290000,4,2.0,Charleston Heights 50D,1698,6534,1972,37,171,,Sold,,,http://www.redfin.com/NV/Las-Vegas/5913-W-Condor-Ave-89108/home/29175312,GLVAR,2273214,N,Y,36.2019728,-115.2219613
PAST SALE,March-31-2021,Single Family Residential,6521 Chilton Ct,Las Vegas,NV,89108,250000,3,2.0,Sterling Spgs,1236,5663,1990,32,202,10,Sold,,,http://www.redfin.com/NV/Las-Vegas/6521-Chilton-Ct-89108/home/29138154,GLVAR,2269578,N,Y,36.2108827,-115.2383553
PAST SALE,April-16-2021,Single Family Residential,6668 Silver Penny Ave,Las Vegas,NV,89108,249000,3,2.0,Sterling Spgs Amd,1249,4792,1990,16,199,10,Sold,,,http://www.redfin.com/NV/Las-Vegas/6668-Silver-Penny-Ave-89108/home/29138034,GLVAR,2253784,N,Y,36.2143812,-115.2418748
PAST SALE,April-21-2021,Single Family Residential,6545 Gumwood Rd,Las Vegas,NV,89108,350000,4,2.5,Tanglewood,1726,5227,1984,11,203,23,Sold,,,http://www.redfin.com/NV/Las-Vegas/6545-Gumwood-Rd-89108/home/29139981,GLVAR,2279577,N,Y,36.2051409,-115.2371281
PAST SALE,,Single Family Residential,6604 Silvery Ave,Las Vegas,NV,89108,240000,3,2.0,,1192,4356,1991,,201,,,,,http://www.redfin.com/NV/Las-Vegas/6604-Silvery-Ave-89108/home/29138161,,,N,Y,36.2123805,-115.2394667
PAST SALE,April-28-2021,Single Family Residential,2353 Mallard St,Las Vegas,NV,89108,260000,3,1.75,Charleston Heights 50D,1036,6534,1972,4,251,,Sold,,,http://www.redfin.com/NV/Las-Vegas/2353-N-Mallard-St-89108/home/29175224,GLVAR,2280300,N,Y,36.2023712,-115.2228412
PAST SALE,February-20-2021,Single Family Residential,1313 Strike Jumper Ct,Las Vegas,NV,89108,290500,3,2.0,Rainbow Park 2,1084,4792,1994,71,268,,Sold,,,http://www.redfin.com/NV/Las-Vegas/1313-Strike-Jumper-Ct-89108/home/29192355,GLVAR,2262357,N,Y,36.1858116,-115.2393509
PAST SALE,February-19-2021,Single Family Residential,6308 Greyhawk Ave,Las Vegas,NV,89108,299000,4,2.5,Rainbow Vista #5 Lewis Homes,1746,4356,1986,72,171,,Sold,,,http://www.redfin.com/NV/Las-Vegas/6308-Greyhawk-Ave-89108/home/29196159,GLVAR,2254861,N,Y,36.1815761,-115.2299037
PAST SALE,February-26-2021,Single Family Residential,1629 Stoneybrook Dr,Las Vegas,NV,89108,249000,3,2.0,Kingswood Estate,1605,6534,1978,65,155,,Sold,,,http://www.redfin.com/NV/Las-Vegas/1629-Stoneybrook-Dr-89108/home/29174241,GLVAR,2255441,N,Y,36.1900841,-115.2274029
PAST SALE,March-23-2021,Multi-Family (2-4 Unit),6217 Bellota Dr,Las Vegas,NV,89108,475000,8,,Sierra Oeste,3892,6970,1985,40,122,,Sold,,,http://www.redfin.com/NV/Las-Vegas/6217-Bellota-Dr-89108/home/29173506,GLVAR,2263128,N,Y,36.1936939,-115.2279586
PAST SALE,March-31-2021,Single Family Residential,6249 Mandarin Dr,Las Vegas,NV,89108,275000,3,2.5,Rainbow Vista #12-Lewis Homes,1779,5227,1990,32,155,,Sold,,,http://www.redfin.com/NV/Las-Vegas/6249-Mandarin-Dr-89108/home/29195484,GLVAR,2265428,N,Y,36.1864825,-115.2284912
PAST SALE,April-2-2021,Single Family Residential,6228 Lanning Ln,Las Vegas,NV,89108,314000,4,2.5,Kingswood Estate,1844,6534,1979,30,170,,Sold,,,http://www.redfin.com/NV/Las-Vegas/6228-W-Lanning-Ln-89108/home/29173407,GLVAR,2270006,N,Y,36.1934601,-115.2299732
PAST SALE,,Single Family Residential,1824 Palo Alto Cir,Las Vegas,NV,89108,270900,3,2.0,,942,8276,1984,,288,,,,,http://www.redfin.com/NV/Las-Vegas/1824-Palo-Alto-Cir-89108/home/29173551,,,N,Y,36.1932635,-115.2248326
PAST SALE,March-16-2021,Single Family Residential,6544 Joe Michael Way,Las Vegas,NV,89108,255000,3,2.0,Woodcrest,1188,4792,1984,47,215,18,Sold,,,http://www.redfin.com/NV/Las-Vegas/6544-W-Joe-Michael-Way-89108/home/29131688,GLVAR,2262495,N,Y,36.2282819,-115.2388647
PAST SALE,March-19-2021,Single Family Residential,3440 Mustang St,Las Vegas,NV,89108,525000,4,2.5,,2400,32234,1974,44,219,,Sold,,,http://www.redfin.com/NV/Las-Vegas/3440-Mustang-St-89108/home/29132563,GLVAR,2085638,N,Y,36.2217454,-115.2315477
PAST SALE,March-31-2021,Townhouse,3904 Sweet Pine St #102,Las Vegas,NV,89108,211000,3,2.5,Desert Pines Condo,1448,2906,2004,32,146,168,Sold,,,http://www.redfin.com/NV/Las-Vegas/3904-Sweet-Pine-St-89108/unit-102/home/29003614,GLVAR,2277685,N,Y,36.2302435,-115.2272176
PAST SALE,March-31-2021,Single Family Residential,3655 Jones Blvd,Las Vegas,NV,89108,400000,4,2.0,,2352,23958,1978,32,170,,Sold,,,http://www.redfin.com/NV/Las-Vegas/3655-N-Jones-Blvd-89108/home/29132650,GLVAR,2266153,N,Y,36.2250715,-115.2261988
PAST SALE,March-30-2021,Single Family Residential,6520 Rocking Horse Ave,Las Vegas,NV,89108,300000,4,3.0,Liberty Village,2355,13068,1984,33,127,,Sold,,,http://www.redfin.com/NV/Las-Vegas/6520-W-Rocking-Horse-Ave-89108/home/29131342,GLVAR,2283344,N,Y,36.2224551,-115.2368734
PAST SALE,,Single Family Residential,6637 W Miragrande Dr,Las Vegas,NV,89108,265000,4,2.0,,1338,6970,1985,,198,,,,,http://www.redfin.com/NV/Las-Vegas/6637-W-Miragrande-Dr-89108/home/29117858,,,N,Y,36.2332496,-115.2413191
PAST SALE,February-26-2021,Single Family Residential,6420 Beechcrest Rd,Las Vegas,NV,89108,278000,3,2.0,Woodcrest Amd,1391,6970,1984,65,200,23,Sold,,,http://www.redfin.com/NV/Las-Vegas/6420-W-Beechcrest-Rd-89108/home/29131109,GLVAR,2265065,N,Y,36.2292382,-115.2356693
PAST SALE,March-23-2021,Single Family Residential,6557 Gatehouse Ln,Las Vegas,NV,89108,267000,3,2.0,Woodcrest,1307,4356,1986,40,204,22,Sold,,,http://www.redfin.com/NV/Las-Vegas/6557-W-Gatehouse-Ln-89108/home/29130930,GLVAR,2251477,N,Y,36.229383,-115.239334
PAST SALE,April-19-2021,Single Family Residential,1345 Scenic Way,Las Vegas,NV,89108,260000,4,1.75,Twin Lakes Village,1448,10019,1957,13,180,,Sold,,,http://www.redfin.com/NV/Las-Vegas/1345-Scenic-Way-89108/home/29341955,GLVAR,2261295,N,Y,36.1878785,-115.1890549
PAST SALE,April-16-2021,Single Family Residential,3413 Navajo Way,Las Vegas,NV,89108,275000,3,2.0,Twin Lakes Village,1376,7841,1954,16,200,,Sold,,,http://www.redfin.com/NV/Las-Vegas/3413-Navajo-Way-89108/home/29343133,GLVAR,2270338,N,Y,36.1841708,-115.1882212
PAST SALE,February-25-2021,Single Family Residential,6524 Yarmouth Dr,Las Vegas,NV,89108,334000,4,2.5,Metropolitans Cypress Station,1759,7405,1988,66,190,75,Sold,,,http://www.redfin.com/NV/Las-Vegas/6524-Yarmouth-Dr-89108/home/29138945,GLVAR,2263336,N,Y,36.210255,-115.2365034
PAST SALE,March-22-2021,Single Family Residential,2709 Cheshire Ct,Las Vegas,NV,89108,266000,3,2.0,Metropolitans Cypress Station,1137,4792,1988,41,234,75,Sold,,,http://www.redfin.com/NV/Las-Vegas/2709-Cheshire-Ct-89108/home/29138885,GLVAR,2269876,N,Y,36.2091891,-115.2359935
PAST SALE,,Single Family Residential,3804 N Maurice Ct,Las Vegas,NV,89108,480000,5,3.5,,2769,11326,1997,,173,,,,,http://www.redfin.com/NV/Las-Vegas/3804-N-Maurice-Ct-89108/home/29132309,,,N,Y,36.2287211,-115.2304594
PAST SALE,April-1-2021,Single Family Residential,6308 Barkstone Ave,Las Vegas,NV,89108,305000,3,2.0,Willows,1835,6534,1989,31,166,,Sold,,,http://www.redfin.com/NV/Las-Vegas/6308-W-Barkstone-Ave-89108/home/29140267,GLVAR,2241473,N,Y,36.2171058,-115.2323118
PAST SALE,April-1-2021,Single Family Residential,6601 Genevieve Ct,Las Vegas,NV,89108,295000,3,2.0,Jakes Ranch,1702,4792,1997,31,173,,Sold,,,http://www.redfin.com/NV/Las-Vegas/6601-Genevieve-Ct-89108/home/29169676,GLVAR,2264407,N,Y,36.2012845,-115.2398835
PAST SALE,March-11-2021,Single Family Residential,6609 Lund Dr,Las Vegas,NV,89108,280000,3,3.0,Rainbow Park 1,1572,5227,1993,52,178,42,Sold,,,http://www.redfin.com/NV/Las-Vegas/6609-Lund-Dr-89108/home/28969330,GLVAR,2269056,N,Y,36.1869585,-115.2384016
PAST SALE,April-19-2021,Single Family Residential,1524 Bonnie Castle Way,Las Vegas,NV,89108,305000,3,3.0,Rainbow Park 1,1572,4792,1995,13,194,35,Sold,,,http://www.redfin.com/NV/Las-Vegas/1524-Bonnie-Castle-Way-89108/home/29192422,GLVAR,2272850,N,Y,36.1879755,-115.2390036
PAST SALE,April-7-2021,Single Family Residential,1400 Padre Bay Dr,Las Vegas,NV,89108,279900,3,2.0,Rainbow Park 1 Amd,1069,5227,1993,25,262,42,Sold,,,http://www.redfin.com/NV/Las-Vegas/1400-Padre-Bay-Dr-89108/home/29192381,GLVAR,2272597,N,Y,36.1858016,-115.2378922
PAST SALE,February-26-2021,Condo/Co-op,2801 N Rainbow Blvd #132,Las Vegas,NV,89108,170000,3,2.0,Riviera Ranch,1180,1180,1990,65,144,291,Sold,,,http://www.redfin.com/NV/Las-Vegas/2801-N-Rainbow-Blvd-89108/unit-132/home/29026521,GLVAR,2268388,N,Y,36.211684,-115.242599
PAST SALE,February-19-2021,Single Family Residential,2917 Old Majestic St,Las Vegas,NV,89108,287000,3,2.0,Sterling Spgs Amd,1249,4792,1990,72,230,10,Sold,,,http://www.redfin.com/NV/Las-Vegas/2917-Old-Majestic-St-89108/home/29138009,GLVAR,2262466,N,Y,36.2136532,-115.2412265
PAST SALE,March-24-2021,Single Family Residential,2616 Camphor Tree St,Las Vegas,NV,89108,331000,4,2.25,Metropolitans Colony Grant,1869,4356,1988,39,177,75,Sold,,,http://www.redfin.com/NV/Las-Vegas/2616-Camphor-Tree-St-89108/home/29137797,GLVAR,2235729,N,Y,36.208551,-115.2398988
PAST SALE,,Single Family Residential,6532 Chilton Ct,Las Vegas,NV,89108,230000,3,2.0,,1105,6970,1990,,208,,,,,http://www.redfin.com/NV/Las-Vegas/6532-Chilton-Ct-89108/home/29138150,,,N,Y,36.2113035,-115.2389573
PAST SALE,April-7-2021,Single Family Residential,3121 Budding Blossom Ct,Las Vegas,NV,89108,340000,3,2.0,Willows,1918,6970,1988,25,177,,Sold,,,http://www.redfin.com/NV/Las-Vegas/3121-Budding-Blossom-Ct-89108/home/29140229,GLVAR,2258986,N,Y,36.2166155,-115.2312235
PAST SALE,April-27-2021,Single Family Residential,6309 Morning Glen Cir,Las Vegas,NV,89108,424000,3,2.0,Foxglen,1738,10890,1993,5,244,,Sold,,,http://www.redfin.com/NV/Las-Vegas/6309-W-Morning-Glen-Cir-89108/home/29132638,GLVAR,2266179,N,Y,36.2261743,-115.2314551
PAST SALE,April-14-2021,Condo/Co-op,6704 Dorita Ave #201,Las Vegas,NV,89108,210000,3,2.0,Mariposa Condo,1289,1289,1996,18,163,150,Sold,,,http://www.redfin.com/NV/Las-Vegas/6704-Dorita-Ave-89108/unit-201/home/29129945,GLVAR,2274028,N,Y,36.2273201,-115.2430557
PAST SALE,April-22-2021,Single Family Residential,6668 Lost Dutchman Dr,Las Vegas,NV,89108,325000,3,2.5,Rainbow Park 2,1591,4792,1994,10,204,,Sold,,,http://www.redfin.com/NV/Las-Vegas/6668-Lost-Dutchman-Dr-89108/home/29192374,GLVAR,2277125,N,Y,36.1851945,-115.2409486
PAST SALE,,Single Family Residential,6241 Saginaw Dr,Las Vegas,NV,89108,215000,3,2.0,,1180,5227,1984,,182,,,,,http://www.redfin.com/NV/Las-Vegas/6241-Saginaw-Dr-89108/home/28964654,,,N,Y,36.1829963,-115.2284449
PAST SALE,April-12-2021,Single Family Residential,6236 Spanish Moss Ave,Las Vegas,NV,89108,325000,4,2.25,Rainbow Vista #2 Lewis Homes,1746,4792,1984,20,186,,Sold,,,http://www.redfin.com/NV/Las-Vegas/6236-Spanish-Moss-Ave-89108/home/29195165,GLVAR,2271965,N,Y,36.1847843,-115.2284449
PAST SALE,April-30-2021,Single Family Residential,1524 Valley Crest St,Las Vegas,NV,89108,350000,4,2.0,Rainbow Vista #12-Lewis Homes,1902,6534,1990,2,184,,Sold,,,http://www.redfin.com/NV/Las-Vegas/1524-Valley-Crest-St-89108/home/29195453,GLVAR,2280735,N,Y,36.1874715,-115.2284217
PAST SALE,February-4-2021,Single Family Residential,1509 Winwood St,Las Vegas,NV,89108,499000,4,4.0,Winwood Knolls,2964,9583,2019,87,168,,Sold,,,http://www.redfin.com/NV/Las-Vegas/1509-Winwood-St-89108/home/33528063,GLVAR,2217475,N,Y,36.187371,-115.219297
PAST SALE,February-5-2021,Single Family Residential,5430 Auborn Ave,Las Vegas,NV,89108,369000,3,1.75,Worthen Est,1804,11761,1988,86,205,,Sold,,,http://www.redfin.com/NV/Las-Vegas/5430-W-Auborn-Ave-89108/home/29177160,GLVAR,2233359,N,Y,36.2019529,-115.2145281
PAST SALE,April-5-2021,Single Family Residential,6624 Escalon Dr,Las Vegas,NV,89108,275000,3,1.75,Park Vista,1281,3920,1983,27,215,,Sold,,,http://www.redfin.com/NV/Las-Vegas/6624-Escalon-Dr-89108/home/29171708,GLVAR,2271890,N,Y,36.1914583,-115.2403003
PAST SALE,April-28-2021,Single Family Residential,5825 Pebble Beach Blvd,Las Vegas,NV,89108,305000,3,1.75,Charleston Heights,1670,6534,1963,4,183,,Sold,,,http://www.redfin.com/NV/Las-Vegas/5825-Pebble-Beach-Blvd-89108/home/29185096,GLVAR,2273935,N,Y,36.1871782,-115.2214982
PAST SALE,March-19-2021,Single Family Residential,2333 Bristol View Ct,Las Vegas,NV,89108,290000,5,3.0,Bristol Park,1781,3920,1987,44,163,,Sold,,,http://www.redfin.com/NV/Las-Vegas/2333-N-Bristol-View-Ct-89108/home/29305155,GLVAR,2259068,N,Y,36.2008541,-115.2046401
PAST SALE,February-18-2021,Single Family Residential,3460 Trilogy Dr,Las Vegas,NV,89108,262000,3,2.0,Trilogy,1160,3920,1999,73,226,,Sold,,,http://www.redfin.com/NV/Las-Vegas/3460-N-Trilogy-Dr-89108/home/29133247,GLVAR,2246546,N,Y,36.2223418,-115.2188121
PAST SALE,March-24-2021,Single Family Residential,5825 Robin Ln,Las Vegas,NV,89108,269000,3,1.75,Wildwood North,1423,10890,1978,39,189,,Sold,,,http://www.redfin.com/NV/Las-Vegas/5825-W-Robin-Ln-89108/home/29133798,GLVAR,2276758,N,Y,36.2185188,-115.2227486
PAST SALE,March-18-2021,Single Family Residential,3120 Autumn Leaf Ct,Las Vegas,NV,89108,320000,4,2.0,Willows,2195,6970,1988,45,146,,Sold,,,http://www.redfin.com/NV/Las-Vegas/3120-Autumn-Leaf-Ct-89108/home/29140182,GLVAR,2230632,N,Y,36.2165096,-115.2299268
PAST SALE,March-29-2021,Single Family Residential,6240 Barkstone Ave,Las Vegas,NV,89108,283500,4,2.0,Willows,1918,6534,1989,34,148,,Sold,,,http://www.redfin.com/NV/Las-Vegas/6240-W-Barkstone-Ave-89108/home/29139857,GLVAR,2257311,N,Y,36.2170382,-115.2316403
PAST SALE,April-27-2021,Single Family Residential,6236 Barkstone Ave,Las Vegas,NV,89108,290000,4,2.0,Willows,1918,6534,1988,5,151,,Sold,,,http://www.redfin.com/NV/Las-Vegas/6236-W-Barkstone-Ave-89108/home/29139858,GLVAR,2220053,N,Y,36.2170401,-115.2314551
PAST SALE,April-26-2021,Townhouse,3904 Sweet Pine St #103,Las Vegas,NV,89108,231000,3,2.5,Desert Pines Condo,1489,2906,2004,6,155,168,Sold,,,http://www.redfin.com/NV/Las-Vegas/3904-Sweet-Pine-St-89108/unit-103/home/29001802,GLVAR,2278195,N,Y,36.2302435,-115.2272176
PAST SALE,April-26-2021,Single Family Residential,6644 Lombard Dr,Las Vegas,NV,89108,280000,3,2.25,Park Vista,1287,4356,1985,6,218,,Sold,,,http://www.redfin.com/NV/Las-Vegas/6644-Lombard-Dr-89108/home/29170785,GLVAR,2279591,N,Y,36.193987,-115.240917
PAST SALE,April-2-2021,Single Family Residential,1312 Nugget Creek Dr,Las Vegas,NV,89108,275000,3,2.0,Rainbow Park 2,1317,5227,1995,30,209,,Sold,,,http://www.redfin.com/NV/Las-Vegas/1312-Nugget-Creek-Dr-89108/home/29192288,GLVAR,2270116,N,Y,36.1855128,-115.2413886
PAST SALE,March-5-2021,Single Family Residential,3429 Winterhaven St,Las Vegas,NV,89108,272000,3,2.0,Charleston Heights Tr #56C,1224,6970,1981,58,222,,Sold,,,http://www.redfin.com/NV/Las-Vegas/3429-Winterhaven-St-89108/home/29130266,GLVAR,2250430,N,Y,36.223464,-115.2453711
PAST SALE,February-19-2021,Single Family Residential,6512 Romance Cir,Las Vegas,NV,89108,281500,4,3.0,Bedford Village West,2104,8276,1984,72,134,,Sold,,,http://www.redfin.com/NV/Las-Vegas/6512-Romance-Cir-89108/home/29117282,GLVAR,2223680,N,Y,36.2429286,-115.2383553
PAST SALE,,Single Family Residential,6612 Wheelbarrow Peak Dr,Las Vegas,NV,89108,268000,3,2.5,,1370,3485,1984,,196,,,,,http://www.redfin.com/NV/Las-Vegas/6612-Wheelbarrow-Peak-Dr-89108/home/29117320,,,N,Y,36.2425272,-115.2406708
PAST SALE,April-9-2021,Single Family Residential,3733 Broadriver Dr,Las Vegas,NV,89108,295000,3,2.5,Rosewood Estate,1402,5663,1983,23,210,,Sold,,,http://www.redfin.com/NV/Las-Vegas/3733-N-Broadriver-Dr-89108/home/29130121,GLVAR,2268556,N,Y,36.2288093,-115.2444681
PAST SALE,March-10-2021,Single Family Residential,6309 Jennifer Ct,Las Vegas,NV,89108,590000,4,3.0,Big Sky Ranch Estate,3436,32670,1978,53,172,,Sold,,,http://www.redfin.com/NV/Las-Vegas/6309-Jennifer-Ct-89108/home/29118098,GLVAR,2260037,N,Y,36.2345165,-115.2325897
PAST SALE,April-20-2021,Single Family Residential,4316 Fox Point Dr,Las Vegas,NV,89108,286000,3,2.5,Suncrest Gardens,1741,5663,1984,12,164,,Sold,,,http://www.redfin.com/NV/Las-Vegas/4316-N-Fox-Point-Dr-89108/home/29119092,GLVAR,2265444,N,Y,36.2392837,-115.245209
PAST SALE,April-2-2021,Single Family Residential,4445 Marlena Cir,Las Vegas,NV,89108,374000,3,3.0,Parkchester Estate,2289,9583,1963,30,163,,Sold,,,http://www.redfin.com/NV/Las-Vegas/4445-Marlena-Cir-89108/home/29307636,GLVAR,2272217,N,Y,36.1907071,-115.2001013
PAST SALE,March-10-2021,Single Family Residential,1716 Stonehaven Dr,Las Vegas,NV,89108,410000,5,3.0,Stonehaven,2405,10890,1970,53,170,,Sold,,,http://www.redfin.com/NV/Las-Vegas/1716-Stonehaven-Dr-89108/home/29307397,GLVAR,2249759,N,Y,36.1921708,-115.1972066
PAST SALE,April-6-2021,Single Family Residential,4027 Melody Ln,Las Vegas,NV,89108,510000,4,3.25,Eastland Heights Tr #2,3233,23522,1949,26,158,,Sold,,,http://www.redfin.com/NV/Las-Vegas/4027-Melody-Ln-89108/home/29307517,GLVAR,2258434,N,Y,36.1906839,-115.1932929
PAST SALE,March-24-2021,Single Family Residential,4149 Overbrook Dr,Las Vegas,NV,89108,257000,3,2.0,Charleston Heights Tr #62A,1235,3485,1981,39,208,,Sold,,,http://www.redfin.com/NV/Las-Vegas/4149-N-Overbrook-Dr-89108/home/29119390,GLVAR,2268939,N,Y,36.2359694,-115.2451164
PAST SALE,April-19-2021,Single Family Residential,6944 Manistee Ct,Las Vegas,NV,89108,272000,3,2.0,Nevada Classic North 2,1135,3920,1992,13,240,,Sold,,,http://www.redfin.com/NV/Las-Vegas/6944-W-Manistee-Ct-89108/home/29119299,GLVAR,2282127,N,Y,36.2352262,-115.24595
PAST SALE,,Single Family Residential,6504 Gumwood Rd,Las Vegas,NV,89108,117604,4,2.5,,1726,3485,1984,,68,,,,,http://www.redfin.com/NV/Las-Vegas/6504-Gumwood-Rd-89108/home/29139961,,,N,Y,36.2054885,-115.2356693
PAST SALE,February-16-2021,Single Family Residential,3570 Torrey Pines Dr,Las Vegas,NV,89108,370000,3,2.0,,1864,20909,1970,75,198,,Sold,,,http://www.redfin.com/NV/Las-Vegas/3570-N-Torrey-Pines-Dr-89108/home/29132529,GLVAR,2255742,N,Y,36.2242807,-115.2336085
PAST SALE,,Single Family Residential,ADDRESS REDACTED,LAS VEGAS,NV,89108,300000,4,2.5,,1692,4792,1986,,177,,,,,http://www.redfin.com/NV/LAS-VEGAS/ADDRESS-REDACTED-89108/home/29131582,,,N,Y,36.22571,-115.24019
PAST SALE,February-25-2021,Single Family Residential,6636 Chardonay Way,Las Vegas,NV,89108,300000,4,2.5,Woodcrest,2186,4792,1986,66,137,22,Sold,,,http://www.redfin.com/NV/Las-Vegas/6636-W-Chardonay-Way-89108/home/29131542,GLVAR,2258804,N,Y,36.226261,-115.2413191
PAST SALE,March-11-2021,Single Family Residential,3750 Edward Ave,Las Vegas,NV,89108,355000,5,2.0,Tonopah Terrace,1768,27007,1975,52,201,,Sold,,,http://www.redfin.com/NV/Las-Vegas/3750-N-Edward-Ave-89108/home/29132402,GLVAR,2261614,N,Y,36.2270586,-115.2236285
PAST SALE,March-17-2021,Single Family Residential,4221 Stonebridge Ln,Las Vegas,NV,89108,370000,6,3.0,Stonehaven,2834,11326,1969,46,131,,Sold,,,http://www.redfin.com/NV/Las-Vegas/4221-Stonebridge-Ln-89108/home/29307590,GLVAR,2231173,N,Y,36.1886227,-115.1978781
PAST SALE,February-23-2021,Single Family Residential,6521 Miragrande Dr,Las Vegas,NV,89108,268900,4,2.0,Miramonte Estate North,1338,6970,1985,68,201,,Sold,,,http://www.redfin.com/NV/Las-Vegas/6521-W-Miragrande-Dr-89108/home/29117734,GLVAR,2258947,N,Y,36.2329327,-115.2374291
PAST SALE,March-3-2021,Single Family Residential,6557 Canyon Cove Way,Las Vegas,NV,89108,280000,3,2.0,Woodcrest,1492,4792,1987,60,188,22,Sold,,,http://www.redfin.com/NV/Las-Vegas/6557-W-Canyon-Cove-Way-89108/home/29130773,GLVAR,2261861,N,Y,36.2315946,-115.2391426
PAST SALE,February-17-2021,Single Family Residential,6445 Beechcrest Rd,Las Vegas,NV,89108,295000,4,3.0,WOODCREST UNIT #1 AMD,1870,10019,1984,74,158,,Sold,,,http://www.redfin.com/NV/Las-Vegas/6445-W-Beechcrest-Rd-89108/home/29131116,GLVAR,2073610,N,Y,36.2289657,-115.2370586
PAST SALE,February-26-2021,Single Family Residential,5813 Martita Ave,Las Vegas,NV,89108,267000,4,2.0,Charleston Heights Tr #48A Amd,1432,6098,1964,65,186,,Sold,,,http://www.redfin.com/NV/Las-Vegas/5813-Martita-Ave-89108/home/29176514,GLVAR,2263880,N,Y,36.1890218,-115.2208961
PAST SALE,March-4-2021,Single Family Residential,5812 Gordon Ave,Las Vegas,NV,89108,308000,4,3.0,Charleston Heights Tr #48A Amd,1874,6098,1964,59,164,,Sold,,,http://www.redfin.com/NV/Las-Vegas/5812-Gordon-Ave-89108/home/29176186,GLVAR,2265124,N,Y,36.190105,-115.2208498
PAST SALE,March-15-2021,Single Family Residential,3116 Budding Blossom Ct,Las Vegas,NV,89108,303800,3,2.0,Willows,1835,6534,1988,48,166,,Sold,,,http://www.redfin.com/NV/Las-Vegas/3116-Budding-Blossom-Ct-89108/home/29140200,GLVAR,2270457,N,Y,36.2164268,-115.2307373
PAST SALE,March-18-2021,Single Family Residential,6233 Heather Mist Ln,Las Vegas,NV,89108,330000,4,2.0,Willows Amd,1848,6534,1987,45,179,,Sold,,,http://www.redfin.com/NV/Las-Vegas/6233-Heather-Mist-Ln-89108/home/29140112,GLVAR,2265655,N,Y,36.2150523,-115.2316403
PAST SALE,March-24-2021,Single Family Residential,6110 Brooks Ave,Las Vegas,NV,89108,469000,3,2.0,Willows Amd,1768,10890,1988,39,265,,Sold,,,http://www.redfin.com/NV/Las-Vegas/6110-W-Brooks-Ave-89108/home/29140083,GLVAR,2266109,N,Y,36.2138173,-115.2281207
PAST SALE,March-2-2021,Single Family Residential,1950 Michael Way,Las Vegas,NV,89108,359000,4,1.75,,1540,18731,1962,61,233,,Sold,,,http://www.redfin.com/NV/Las-Vegas/1950-Michael-Way-89108/home/29176583,GLVAR,2249697,N,Y,36.1945559,-115.2152691
PAST SALE,February-19-2021,Single Family Residential,5288 Auborn Ave,Las Vegas,NV,89108,430000,5,2.5,Curtis Park Manor,2840,20038,1963,72,151,,Sold,,,http://www.redfin.com/NV/Las-Vegas/5288-W-Auborn-Ave-89108/home/29177205,GLVAR,2241204,N,Y,36.2019335,-115.2124903
PAST SALE,March-15-2021,Single Family Residential,2149 La Sombra St,Las Vegas,NV,89108,265000,3,2.0,Charleston Heights 51-A4,1238,4792,1987,48,214,,Sold,,,http://www.redfin.com/NV/Las-Vegas/2149-La-Sombra-St-89108/home/29173228,GLVAR,2248903,N,Y,36.1992699,-115.2240916
PAST SALE,February-16-2021,Single Family Residential,5212 Loma Verde Ave,Las Vegas,NV,89108,281500,3,2.5,Madre Mesa South,1857,3920,2004,75,152,58,Sold,,,http://www.redfin.com/NV/Las-Vegas/5212-Loma-Verde-Ave-89108/home/28987109,GLVAR,2254479,N,Y,36.2080734,-115.2117725
PAST SALE,April-30-2021,Single Family Residential,1701 Crest Haven Ave,Las Vegas,NV,89108,276000,3,1.75,Kingswood Estate,1416,6098,1978,2,195,,Sold,,,http://www.redfin.com/NV/Las-Vegas/1701-Crest-Haven-Ave-89108/home/29174546,GLVAR,2279151,N,Y,36.1903142,-115.2257588
PAST SALE,April-21-2021,Single Family Residential,5237 Pebble Beach Blvd,Las Vegas,NV,89108,229900,3,1.0,Golfridge Terrace,1000,6098,1962,11,230,,Sold,,,http://www.redfin.com/NV/Las-Vegas/5237-Pebble-Beach-Blvd-89108/home/29188483,GLVAR,2272687,N,Y,36.1875403,-115.2140418
PAST SALE,,Single Family Residential,5301 Your Ave,Las Vegas,NV,89108,315000,4,3.0,,2008,7841,2000,,157,,,,,http://www.redfin.com/NV/Las-Vegas/5301-Your-Ave-89108/home/29136941,,,N,Y,36.2115285,-115.2143429
PAST SALE,,Single Family Residential,5601 Burntwood Way,Las Vegas,NV,89108,80000,3,2.0,,1096,6970,1980,,73,,,,,http://www.redfin.com/NV/Las-Vegas/5601-Burntwood-Way-89108/home/29135182,,,N,Y,36.2143045,-115.2192289
PAST SALE,April-16-2021,Single Family Residential,3071 Breton Dr,Las Vegas,NV,89108,500000,4,2.0,Breton Woods South,2296,20038,1978,16,218,,Sold,,,http://www.redfin.com/NV/Las-Vegas/3071-Breton-Dr-89108/home/29135220,GLVAR,2279165,N,Y,36.2145521,-115.2217529
PAST SALE,March-22-2021,Single Family Residential,1005 Aspen Hill Cir,Las Vegas,NV,89108,270000,4,2.75,Rainbow Vista #3 Lewis Homes,1746,3920,1986,41,155,,Sold,,,http://www.redfin.com/NV/Las-Vegas/1005-Aspen-Hill-Cir-89108/home/29195014,GLVAR,2235292,N,Y,36.1826354,-115.2307604
PAST SALE,March-10-2021,Single Family Residential,5913 Oceanside Way,Las Vegas,NV,89108,250000,3,2.0,Twin Lakes Village,1371,6534,1981,53,182,,Sold,,,http://www.redfin.com/NV/Las-Vegas/5913-W-Oceanside-Way-89108/home/29133686,GLVAR,2257720,N,Y,36.2205795,-115.2241842
PAST SALE,March-17-2021,Single Family Residential,2105 Jeanne Dr,Las Vegas,NV,89108,275000,3,2.0,Charleston Heights #50A,1519,6534,1972,46,181,,Sold,,,http://www.redfin.com/NV/Las-Vegas/2105-Jeanne-Dr-89108/home/28967990,GLVAR,2264802,N,Y,36.1973339,-115.2160796
PAST SALE,March-5-2021,Single Family Residential,1017 Fay Blvd,Las Vegas,NV,89108,227000,4,2.0,Golfridge Terrace,1800,7405,1961,58,126,,Sold,,,http://www.redfin.com/NV/Las-Vegas/1017-Fay-Blvd-89108/home/29189251,GLVAR,2264355,N,Y,36.1823086,-115.2146902
PAST SALE,March-22-2021,Single Family Residential,917 Shadow Mountain Pl,Las Vegas,NV,89108,262500,3,2.0,Casa Linda,1532,7841,1978,41,171,,Sold,,,http://www.redfin.com/NV/Las-Vegas/917-Shadow-Mountain-Pl-89108/home/29187144,GLVAR,2269533,N,Y,36.1821259,-115.2170985
PAST SALE,March-12-2021,Single Family Residential,6363 Blue Twilight Ct,Las Vegas,NV,89108,278000,3,2.5,Lake Mead Torrey Pines,1483,2178,2007,51,187,73,Sold,,,http://www.redfin.com/NV/Las-Vegas/6363-Blue-Twilight-Ct-89108/home/29479349,GLVAR,2255719,N,Y,36.1946313,-115.2320108
PAST SALE,February-23-2021,Single Family Residential,5300 Clouds Rest Ave,Las Vegas,NV,89108,290000,3,2.0,Country Lane-Phase 1,1550,6534,1996,68,187,,Sold,,,http://www.redfin.com/NV/Las-Vegas/5300-Clouds-Rest-Ave-89108/home/29136009,GLVAR,2250541,N,Y,36.2126639,-115.214505
PAST SALE,March-17-2021,Single Family Residential,5710 Madre Mesa Dr,Las Vegas,NV,89108,455000,3,2.75,Hillcrest Manor,2786,18731,1974,46,163,,Sold,,,http://www.redfin.com/NV/Las-Vegas/5710-Madre-Mesa-Dr-89108/home/29134911,GLVAR,2261956,N,Y,36.2085223,-115.2203066
PAST SALE,,Single Family Residential,1701 Blue Mountain Dr,Las Vegas,NV,89108,328000,3,2.0,,1825,6970,1974,,180,,,,,http://www.redfin.com/NV/Las-Vegas/1701-Blue-Mountain-Dr-89108/home/29176433,,,N,Y,36.1895936,-115.2168438
PAST SALE,,Single Family Residential,1568 Shadow Mountain Pl,Las Vegas,NV,89108,242500,3,2.0,,1740,17860,1954,,139,,,,,http://www.redfin.com/NV/Las-Vegas/1568-Shadow-Mountain-Pl-89108/home/29186227,,,N,Y,36.1879285,-115.2164733
PAST SALE,March-25-2021,Single Family Residential,6617 Crosstimber Ct,Las Vegas,NV,89108,319000,3,2.0,Woodcrest,1457,4356,1985,38,219,22,Sold,,,http://www.redfin.com/NV/Las-Vegas/6617-W-Crosstimber-Ct-89108/home/29131429,GLVAR,2278211,N,Y,36.2272341,-115.2403466
PAST SALE,March-4-2021,Single Family Residential,6640 Chardonay Way,Las Vegas,NV,89108,280000,3,2.0,Woodcrest,1457,4792,1986,59,192,23,Sold,,,http://www.redfin.com/NV/Las-Vegas/6640-W-Chardonay-Way-89108/home/29131598,GLVAR,2251863,N,Y,36.2262445,-115.2414812
PAST SALE,,Single Family Residential,3741 N Progress Cir,Las Vegas,NV,89108,194000,3,2.5,,1402,5227,1983,,138,,,,,http://www.redfin.com/NV/Las-Vegas/3741-N-Progress-Cir-89108/home/29130102,,,N,Y,36.2290669,-115.2426157
PAST SALE,February-9-2021,Single Family Residential,5600 Emilia Ave,Las Vegas,NV,89108,250000,3,2.0,Casa Linda,1294,9148,1978,82,193,,Sold,,,http://www.redfin.com/NV/Las-Vegas/5600-Emilia-Ave-89108/home/29187140,GLVAR,2255052,N,Y,36.1844581,-115.21733
PAST SALE,March-5-2021,Single Family Residential,6420 Faith Peak Dr,Las Vegas,NV,89108,287000,3,2.0,Lone Mountain Estate,1387,6534,1983,58,207,,Sold,,,http://www.redfin.com/NV/Las-Vegas/6420-Faith-Peak-Dr-89108/home/28969334,GLVAR,2268352,N,Y,36.2407727,-115.2366418
PAST SALE,March-8-2021,Single Family Residential,4409 Stacey Ave,Las Vegas,NV,89108,257000,4,1.75,College Heights #3A,1352,6534,1966,55,190,,Sold,,,http://www.redfin.com/NV/Las-Vegas/4409-Stacey-Ave-89108/home/29306061,GLVAR,2262685,N,Y,36.1988245,-115.2009349
PAST SALE,March-24-2021,Single Family Residential,3509 Navajo Way,Las Vegas,NV,89108,198000,3,1.75,Twin Lakes Village,1370,9148,1954,39,145,,Sold,,,http://www.redfin.com/NV/Las-Vegas/3509-Navajo-Way-89108/home/29343124,GLVAR,2259325,N,Y,36.18399,-115.1889391
PAST SALE,April-5-2021,Single Family Residential,913 Pyramid Dr,Las Vegas,NV,89108,290000,3,2.0,Twin Lakes Village,1684,6970,1955,27,172,,Sold,,,http://www.redfin.com/NV/Las-Vegas/913-Pyramid-Dr-89108/home/29343181,GLVAR,2272042,N,Y,36.1819482,-115.1899812
PAST SALE,April-1-2021,Single Family Residential,2001 Ullom Dr,Las Vegas,NV,89108,207000,3,2.0,Pima Village-Phase 1,1162,4792,1992,31,178,51,Sold,,,http://www.redfin.com/NV/Las-Vegas/2001-Ullom-Dr-89108/home/29306107,GLVAR,2253797,N,Y,36.1957441,-115.2051033
PAST SALE,February-25-2021,Single Family Residential,3609 Roseglen Ct,Las Vegas,NV,89108,320000,4,2.0,Woodland Hills C,1829,8712,1981,66,175,,Sold,,,http://www.redfin.com/NV/Las-Vegas/3609-Roseglen-Ct-89108/home/29342015,GLVAR,2259095,N,Y,36.1864361,-115.1907918
PAST SALE,March-16-2021,Single Family Residential,1300 Oak Tree Ln,Las Vegas,NV,89108,428000,4,3.5,Woodland Hills,2751,9148,1980,47,156,,Sold,,,http://www.redfin.com/NV/Las-Vegas/1300-Oak-Tree-Ln-89108/home/29341989,GLVAR,2261486,N,Y,36.1864816,-115.1917413
PAST SALE,February-25-2021,Single Family Residential,4325 Edward Ave,Las Vegas,NV,89108,253777,4,1.75,COLLEGE HGTS #1,1308,6098,1964,66,194,,Sold,,,http://www.redfin.com/NV/Las-Vegas/4325-Edward-Ave-89108/home/29306369,GLVAR,2226127,N,Y,36.1975572,-115.1994992
PAST SALE,March-12-2021,Single Family Residential,4324 Sawyer Ave,Las Vegas,NV,89108,260000,3,2.0,College Heights #1,1655,6098,1964,51,157,,Sold,,,http://www.redfin.com/NV/Las-Vegas/4324-Sawyer-Ave-89108/home/29306314,GLVAR,2265040,N,Y,36.196498,-115.2001476
PAST SALE,March-26-2021,Single Family Residential,2008 Madeline Dr,Las Vegas,NV,89108,237000,3,2.25,College Heights #1,1700,6534,1964,37,139,,Sold,,,http://www.redfin.com/NV/Las-Vegas/2008-Madeline-Dr-89108/home/29306328,GLVAR,2251488,N,Y,36.1960311,-115.2011665
PAST SALE,February-25-2021,Single Family Residential,1724 Gatewood Dr,Las Vegas,NV,89108,282000,3,2.0,Kingswood Estate,1605,8276,1978,66,176,,Sold,,,http://www.redfin.com/NV/Las-Vegas/1724-Gatewood-Dr-89108/home/29174537,GLVAR,2263842,N,Y,36.1914808,-115.2272871
PAST SALE,March-16-2021,Single Family Residential,4525 Stacey Ave,Las Vegas,NV,89108,231000,4,2.0,College Heights #3A,1535,6970,1972,47,150,,Sold,,,http://www.redfin.com/NV/Las-Vegas/4525-Stacey-Ave-89108/home/29306049,GLVAR,2255471,N,Y,36.1975417,-115.2031117
PAST SALE,,Single Family Residential,5604 W Eugene Ave,Las Vegas,NV,89108,195000,3,2.0,,1544,6098,1964,,126,,,,,http://www.redfin.com/NV/Las-Vegas/5604-W-Eugene-Ave-89108/home/29175521,,,N,Y,36.1991778,-115.2174227
PAST SALE,March-24-2021,Single Family Residential,5505 Eugene Ave,Las Vegas,NV,89108,265000,4,2.75,Charleston Heights 50B,1796,9148,1964,39,148,,Sold,,,http://www.redfin.com/NV/Las-Vegas/5505-W-Eugene-Ave-89108/home/29175536,GLVAR,2257738,N,Y,36.1989401,-115.2163575
PAST SALE,March-19-2021,Single Family Residential,5713 Reiter Ave,Las Vegas,NV,89108,292000,4,2.0,Charleston Heights 50B,1680,6534,1965,44,174,,Sold,,,http://www.redfin.com/NV/Las-Vegas/5713-Reiter-Ave-89108/home/29175413,GLVAR,2269216,N,Y,36.19979,-115.219402
PAST SALE,April-1-2021,Single Family Residential,1117 Mallard St,Las Vegas,NV,89108,237000,4,1.75,Charleston Heights,1796,6098,1963,31,132,,Sold,,,http://www.redfin.com/NV/Las-Vegas/1117-N-Mallard-St-89108/home/29186508,GLVAR,2250245,N,Y,36.183278,-115.2231191
PAST SALE,March-12-2021,Single Family Residential,3440 Trilogy Dr,Las Vegas,NV,89108,263000,3,2.0,Trilogy,1160,3920,1998,51,227,,Sold,,,http://www.redfin.com/NV/Las-Vegas/3440-N-Trilogy-Dr-89108/home/29133223,GLVAR,2265000,N,Y,36.221919,-115.2183952
PAST SALE,,Single Family Residential,5612 W Balzar Ave,Las Vegas,NV,89108,200000,4,2.0,,1606,6098,1965,,125,,,,,http://www.redfin.com/NV/Las-Vegas/5612-W-Balzar-Ave-89108/home/29175505,,,N,Y,36.1997285,-115.2179784
PAST SALE,March-8-2021,Single Family Residential,6212 Old Trail Rd,Las Vegas,NV,89108,250000,3,2.0,Kingswood Estate,1416,6534,1977,55,177,,Sold,,,http://www.redfin.com/NV/Las-Vegas/6212-Old-Trail-Rd-89108/home/29174383,GLVAR,2250944,N,Y,36.1892325,-115.2286301
PAST SALE,April-7-2021,Multi-Family (2-4 Unit),6200 Camino De Rosa Dr,Las Vegas,NV,89108,437900,8,,Charleston Heights Tr #51-F1,2980,7405,1978,25,147,,Sold,,,http://www.redfin.com/NV/Las-Vegas/6200-Camino-De-Rosa-Dr-89108/home/29172669,GLVAR,2275972,N,Y,36.202445,-115.2268472
PAST SALE,April-6-2021,Single Family Residential,6372 Mint Frost Way,Las Vegas,NV,89108,355000,4,2.0,Rainbow Vista #11-Lewis Homes,1902,6534,1990,26,187,,Sold,,,http://www.redfin.com/NV/Las-Vegas/6372-Mint-Frost-Way-89108/home/29194005,GLVAR,2274140,N,Y,36.1883115,-115.2313162
