SALE TYPE,SOLD DATE,PROPERTY TYPE,ADDRESS,CITY,STATE OR PROVINCE,ZIP OR POSTAL CODE,PRICE,BEDS,BATHS,LOCATION,SQUARE FEET,LOT SIZE,YEAR BUILT,DAYS ON MARKET,$/SQUARE FEET,HOA/MONTH,STATUS,NEXT OPEN HOUSE START TIME,NEXT OPEN HOUSE END TIME,URL (SEE http://www.redfin.com/buy-a-home/comparative-market-analysis FOR INFO ON PRICING),SOURCE,MLS#,FAVORITE,INTERESTED,LATITUDE,LONGITUDE
PAST SALE,March-3-2021,Single Family Residential,8156 Tilkuni Dr,Las Vegas,NV,89166,328000,3,2.5,Centennial Point,1840,5663,2004,51,178,83,Sold,,,http://www.redfin.com/NV/Las-Vegas/8156-Tilkuni-Dr-89166/home/28983118,GLVAR,2263331,N,Y,36.3099468,-115.3042468
PAST SALE,February-24-2021,Single Family Residential,10567 Copperas Cove Ave,Las Vegas,NV,89166,450000,4,3.5,Providence Pod 308 Phase 2B,2948,5663,2017,58,153,60,Sold,,,http://www.redfin.com/NV/Las-Vegas/10567-Copperas-Cove-Ave-89166/home/143191344,GLVAR,2260332,N,Y,36.2796508,-115.327559
PAST SALE,February-12-2021,Single Family Residential,8121 Tilkuni Dr,Las Vegas,NV,89166,315000,3,2.5,Centennial Point,1840,3920,2004,70,171,80,Sold,,,http://www.redfin.com/NV/Las-Vegas/8121-Tilkuni-Dr-89166/home/28983153,GLVAR,2258899,N,Y,36.3089804,-115.3046635
PAST SALE,January-29-2021,Single Family Residential,9341 Pink Stargazer Ave,Las Vegas,NV,89166,292000,3,2.5,Sky Ridge,1680,2178,2015,84,174,45,Sold,,,http://www.redfin.com/NV/Las-Vegas/9341-Pink-Stargazer-Ave-89166/home/109533528,GLVAR,2256695,N,Y,36.3085601,-115.3003069
PAST SALE,February-2-2021,Single Family Residential,8142 Canyon Grassland St,Las Vegas,NV,89166,476500,3,2.5,Skye Canyon Parcel 13 - Phase 1,2222,5663,2017,80,214,55,Sold,,,http://www.redfin.com/NV/Las-Vegas/8142-Canyon-Grassland-St-89166/home/109871146,GLVAR,2257260,N,Y,36.3095543,-115.3107843
PAST SALE,February-11-2021,Single Family Residential,9922 Celestial Cliffs Ave,Las Vegas,NV,89166,530000,4,3.0,Skye Canyon Parcel 11 - Phase 1,2774,4792,2017,71,191,51,Sold,,,http://www.redfin.com/NV/Las-Vegas/9922-Celestial-Cliffs-Ave-89166/home/107396205,GLVAR,2259815,N,Y,36.311888,-115.3112843
PAST SALE,,Single Family Residential,7539 Edgartown Harbor St,Las Vegas,NV,89166,310000,4,2.5,,1756,2614,2013,,177,,,,,http://www.redfin.com/NV/Las-Vegas/7539-Edgartown-Harbor-St-89166/home/44650509,,,N,Y,36.298353,-115.3192475
PAST SALE,January-28-2021,Single Family Residential,10757 Dobbs Ave,Las Vegas,NV,89166,348500,3,2.5,Beazer At Cliffs Edge Pod 205,1930,3485,2012,85,181,60,Sold,,,http://www.redfin.com/NV/Las-Vegas/10757-Dobbs-Ave-89166/home/52624527,GLVAR,2257687,N,Y,36.3016814,-115.3313772
PAST SALE,February-5-2021,Single Family Residential,10818 Cain Ave,Las Vegas,NV,89166,330000,3,2.5,Beazer At Cliffs Edge Pod 205,1835,4792,2010,77,180,31,Sold,,,http://www.redfin.com/NV/Las-Vegas/10818-Cain-Ave-89166/home/33465320,GLVAR,2255875,N,Y,36.3001515,-115.331655
PAST SALE,February-11-2021,Single Family Residential,6561 Macdoogle St,Las Vegas,NV,89166,339900,3,2.0,Ryland Homes At Cliffs Edge Pods 305 & 309,1739,5663,2008,71,195,48,Sold,,,http://www.redfin.com/NV/Las-Vegas/6561-Macdoogle-St-89166/home/29760320,GLVAR,2220728,N,Y,36.2806039,-115.3321642
PAST SALE,March-10-2021,Single Family Residential,8130 Pinyon Ridge St,Las Vegas,NV,89166,420000,3,2.5,Skye Canyon Ii Parcel 227 Phase 1 Aka Pinyon Chase,1850,4356,2018,44,227,48,Sold,,,http://www.redfin.com/NV/Las-Vegas/8130-Pinyon-Ridge-St-89166/home/161754826,GLVAR,2266036,N,Y,36.3092449,-115.3196352
PAST SALE,March-8-2021,Single Family Residential,8325 Beaten Path Ct,Las Vegas,NV,89166,469000,4,2.75,Skye Canyon Parcel 12 Amd,2326,5227,2019,46,202,50,Sold,,,http://www.redfin.com/NV/Las-Vegas/8325-Beaten-path-Ct-89166/home/165752286,GLVAR,2259059,N,Y,36.311389,-115.309438
PAST SALE,February-18-2021,Single Family Residential,10245 Headrick Dr,Las Vegas,NV,89166,319000,3,2.5,Madison Colony At Providence,1816,3049,2008,64,176,40,Sold,,,http://www.redfin.com/NV/Las-Vegas/10245-Headrick-Dr-89166/home/29796866,GLVAR,2224458,N,Y,36.3031974,-115.318692
PAST SALE,February-12-2021,Single Family Residential,10246 Bristol Peak Ave,Las Vegas,NV,89166,540000,4,3.0,Pods 106 & 109 At Providence Models,2548,8276,2007,70,212,38,Sold,,,http://www.redfin.com/NV/Las-Vegas/10246-Bristol-Peak-Ave-89166/home/29759374,GLVAR,2259100,N,Y,36.3012416,-115.3193633
PAST SALE,February-12-2021,Single Family Residential,7852 Pyramid Peak St,Las Vegas,NV,89166,340000,3,2.5,Northern Terrace At Providence,1950,3049,2016,70,174,105,Sold,,,http://www.redfin.com/NV/Las-Vegas/7852-Pyramid-Peak-St-89166/home/109860913,GLVAR,2259507,N,Y,36.3041652,-115.3258217
PAST SALE,February-12-2021,Single Family Residential,10722 Broxden Junction Ave,Las Vegas,NV,89166,312500,3,2.5,Cliffs Edge Pods 201 & 203,1544,4356,2007,70,202,45,Sold,,,http://www.redfin.com/NV/Las-Vegas/10722-W-Broxden-Junction-Ave-89166/home/29774167,GLVAR,2260191,N,Y,36.3060709,-115.3298495
PAST SALE,February-21-2021,Single Family Residential,8228 Desert Madera St,Las Vegas,NV,89166,364410,2,2.5,Skye Canyon Ii Parcel 220 Phase 1,1742,4792,2020,61,209,55,Sold,,,http://www.redfin.com/NV/Las-Vegas/8228-Desert-Madera-St-89161/home/169227408,GLVAR,2230519,N,Y,36.310955,-115.329591
PAST SALE,February-12-2021,Single Family Residential,10845 Cowlite Ave,Las Vegas,NV,89166,397900,3,2.0,Providence Pod 211 - Phase 2,2153,5227,2017,70,185,50,Sold,,,http://www.redfin.com/NV/Las-Vegas/10845-Cowlite-Ave-89166/home/145871507,GLVAR,2247770,N,Y,36.2900898,-115.3329148
PAST SALE,,Single Family Residential,9655 Canyon Landing Ave,Las Vegas,NV,89166,415000,3,2.5,,2002,5663,2017,,207,,,,,http://www.redfin.com/NV/Las-Vegas/9655-Canyon-Landing-Ave-89166/home/109871800,,,N,Y,36.3069928,-115.3073836
PAST SALE,February-25-2021,Single Family Residential,7355 Brisbane Hills St,Las Vegas,NV,89166,326000,3,2.5,Cliffs Edge Pod 115 116 & 117,1617,4792,2013,57,202,42,Sold,,,http://www.redfin.com/NV/Las-Vegas/7355-Brisbane-Hills-St-89166/home/52625337,GLVAR,2263926,N,Y,36.2950605,-115.3278587
PAST SALE,March-1-2021,Single Family Residential,10225 Danskin Dr,Las Vegas,NV,89166,307000,4,3.0,Madison Colony At Providence,1755,3485,2011,53,175,50,Sold,,,http://www.redfin.com/NV/Las-Vegas/10225-Danskin-Dr-89166/home/40234929,GLVAR,2235590,N,Y,36.3037987,-115.3181364
PAST SALE,March-5-2021,Single Family Residential,7930 Brookside Falls Ct,Las Vegas,NV,89166,411001,4,2.25,Oxford Commons Ii,2497,3485,2017,49,165,35,Sold,,,http://www.redfin.com/NV/Las-Vegas/7930-Brookside-Falls-Ct-89166/home/145873510,GLVAR,2266239,N,Y,36.3054997,-115.3182485
PAST SALE,March-5-2021,Single Family Residential,7114 Brighton Village St,Las Vegas,NV,89166,327000,3,2.5,Brighton & Kensington Providence Cliffs Edge,1847,3920,2008,49,177,40,Sold,,,http://www.redfin.com/NV/Las-Vegas/7114-Brighton-Village-St-89166/home/29598469,GLVAR,2263448,N,Y,36.2903354,-115.326655
PAST SALE,March-15-2021,Single Family Residential,10428 Ingelow Ct,Las Vegas,NV,89166,485000,5,3.0,BRIGHTON & KENSINGTON PROVIDEN,3230,8276,2013,39,150,49,Sold,,,http://www.redfin.com/NV/Las-Vegas/10428-Ingelow-Ct-89166/home/52626143,GLVAR,2268847,N,Y,36.2891254,-115.3245485
PAST SALE,April-6-2021,Single Family Residential,7965 Forspence Ct,Las Vegas,NV,89166,385000,3,2.5,Oxford Commons Ii,2116,3485,2018,17,182,35,Sold,,,http://www.redfin.com/NV/Las-Vegas/7965-Forspence-Ct-89166/home/147876041,GLVAR,2269921,N,Y,36.3057603,-115.319531
PAST SALE,April-6-2021,Single Family Residential,6643 Brooklyn Heights St,Las Vegas,NV,89166,360000,3,2.0,Ryland Homes At Cliffs Edge Pods 305 & 309,1739,4792,2009,17,207,55,Sold,,,http://www.redfin.com/NV/Las-Vegas/6643-Brooklyn-Heights-St-89166/home/29760652,GLVAR,2274464,N,Y,36.2820606,-115.3330901
PAST SALE,,Single Family Residential,7329 Picnic Hill St,Las Vegas,NV,89166,400000,4,3.0,,2384,4792,2009,,168,,,,,http://www.redfin.com/NV/Las-Vegas/7329-Picnic-Hill-St-89166/home/29759494,,,N,Y,36.2948625,-115.3210068
PAST SALE,March-26-2021,Single Family Residential,7720 Houston Peak Ave,Las Vegas,NV,89166,352500,3,2.5,BEAZER AT CLIFFS EDGE POD 205,1942,3485,2013,28,182,31,Sold,,,http://www.redfin.com/NV/Las-Vegas/7720-Houston-Peak-St-89166/home/52624565,GLVAR,2271521,N,Y,36.3013484,-115.3293402
PAST SALE,April-16-2021,Single Family Residential,10865 Arusha Ave,Las Vegas,NV,89166,330000,3,2.5,Easton Place At Providence Phase 2,1675,3485,2009,7,197,11,Sold,,,http://www.redfin.com/NV/Las-Vegas/10865-Arusha-Ave-89166/home/29760496,GLVAR,2276976,N,Y,36.2845698,-115.3330439
PAST SALE,April-14-2021,Single Family Residential,9740 Bold Skye Ave,Las Vegas,NV,89166,569000,3,2.5,SKYE CANYON PARCEL 1.2 AMD,2327,5320,2017,9,245,67,Sold,,,http://www.redfin.com/NV/Las-Vegas/9740-Bold-Skye-Ave-89166/home/145873484,GLVAR,2234340,N,Y,36.3110247,-115.3087841
PAST SALE,April-1-2021,Single Family Residential,7905 Formitch Ct,Las Vegas,NV,89166,450000,5,2.75,Oxford Commons Ii,2471,3485,2017,22,182,35,Sold,,,http://www.redfin.com/NV/Las-Vegas/7905-Formitch-Ct-89166/home/144164551,GLVAR,2273319,N,Y,36.305234,-115.3179079
PAST SALE,April-1-2021,Single Family Residential,7935 Forspence Ct,Las Vegas,NV,89166,429000,4,3.5,Oxford Commons Ii,2471,3485,2018,22,174,35,Sold,,,http://www.redfin.com/NV/Las-Vegas/7935-Forspence-Ct-89166/home/161750009,GLVAR,2268646,N,Y,36.3054719,-115.3195296
PAST SALE,March-31-2021,Single Family Residential,7975 Jaspence St,Las Vegas,NV,89166,372000,4,2.5,Oxford Commons Ii,1858,3485,2019,23,200,35,Sold,,,http://www.redfin.com/NV/Las-Vegas/7975-Jaspence-St-89166/home/166576557,GLVAR,2277723,N,Y,36.3057353,-115.3211396
PAST SALE,April-19-2021,Single Family Residential,7619 Anatolian St,Las Vegas,NV,89166,390000,4,2.5,Farm & Hualapai,2239,3485,2010,4,174,65,Sold,,,http://www.redfin.com/NV/Las-Vegas/7619-Anatolian-St-89166/home/30469434,GLVAR,2271887,N,Y,36.300007,-115.3159604
PAST SALE,April-21-2021,Single Family Residential,10733 Red Badge Ave,Las Vegas,NV,89166,365000,3,2.5,Astoria Homes Cliffs Edge Pod 301,2130,2614,2014,2,171,57,Sold,,,http://www.redfin.com/NV/Las-Vegas/10733-Red-Badge-Ave-89166/home/109624772,GLVAR,2276718,N,Y,36.2864287,-115.3300809
PAST SALE,April-20-2021,Single Family Residential,10640 Capitol Peak Ave,Las Vegas,NV,89166,350000,3,2.25,Northern Terrace At Providence,1985,3485,2013,3,176,105,Sold,,,http://www.redfin.com/NV/Las-Vegas/10640-Capitol-Peak-Ave-89166/home/52625253,GLVAR,2272383,N,Y,36.3054957,-115.3281828
PAST SALE,April-21-2021,Single Family Residential,10735 Iona Island Ave,Las Vegas,NV,89166,385000,4,2.5,Cliffs Edge Pods 201 & 203,2328,3485,2007,2,165,40,Sold,,,http://www.redfin.com/NV/Las-Vegas/10735-Iona-Island-Ave-89166/home/29759336,GLVAR,2277616,N,Y,36.3028861,-115.3300809
PAST SALE,April-21-2021,Single Family Residential,10584 Sariah Skye Ave Lot 104,Las Vegas,NV,89166,407402,3,2.5,Ravenna at Skye Canyon,2138,3049,2020,2,191,47,Sold,,,http://www.redfin.com/NV/Las-Vegas/10584-Sariah-Skye-Ave-89124/unit-104/home/174293428,GLVAR,2264536,N,Y,36.3073288,-115.3270731
PAST SALE,February-16-2021,Single Family Residential,9996 Shadow Landing Ave,Las Vegas,NV,89166,509900,4,3.25,Skye Canyon Parcel 11 - Phase 2,2775,4792,2017,66,184,50,Sold,,,http://www.redfin.com/NV/Las-Vegas/9996-Shadow-Landing-Ave-89166/home/109872145,GLVAR,2260174,N,Y,36.3112594,-115.3143227
PAST SALE,February-10-2021,Single Family Residential,8064 Soaring Cry St,Las Vegas,NV,89166,460000,3,2.0,Skye Canyon Ii Parcel 228,1939,5227,2019,72,237,86,Sold,,,http://www.redfin.com/NV/Las-Vegas/8064-Soaring-Cry-St-89166/home/166462499,GLVAR,2259993,N,Y,36.3079213,-115.3180625
PAST SALE,February-23-2021,Single Family Residential,10586 Sariah Skye Ave Lot 79,Las Vegas,NV,89166,465910,4,3.5,Ravenna Skye Canyon,2633,3080,2020,59,177,47,Sold,,,http://www.redfin.com/NV/Las-Vegas/N-Shaumber-Rd-89166/unit-79/home/173418581,GLVAR,2239134,N,Y,36.3071258,-115.3263332
PAST SALE,March-5-2021,Single Family Residential,9950 Rams Leap Ave,Las Vegas,NV,89166,475000,3,2.5,Skye Canyon Parcel 13 - Phase 1,2794,4356,2016,49,170,55,Sold,,,http://www.redfin.com/NV/Las-Vegas/9950-Rams-Leap-Ave-89166/home/109634137,GLVAR,2263923,N,Y,36.3082501,-115.3121176
PAST SALE,March-18-2021,Single Family Residential,9876 Outer Hebrides Ave,Las Vegas,NV,89166,430000,3,2.5,00,1715,5227,2021,36,251,48,Sold,,,http://www.redfin.com/NV/Las-Vegas/Outer-Hebrides-Ave-89166/home/171825313,GLVAR,2261540,N,Y,36.3139,-115.3097
PAST SALE,March-12-2021,Single Family Residential,8217 Brilliant Pompon Pl,Las Vegas,NV,89166,300000,3,2.5,Sky Ridge,1479,2614,2008,42,203,50,Sold,,,http://www.redfin.com/NV/Las-Vegas/8217-Brilliant-Pompon-89166/home/29060371,GLVAR,2269122,N,Y,36.3103486,-115.2985982
PAST SALE,March-3-2021,Single Family Residential,9355 Dorenne St,Las Vegas,NV,89166,500000,4,2.25,Land Div 32-86,3475,89734,1993,51,144,,Sold,,,http://www.redfin.com/NV/Las-Vegas/9355-Dorenne-St-89166/home/29103885,GLVAR,2262873,N,Y,36.3226105,-115.3676014
PAST SALE,April-9-2021,Single Family Residential,9893 Outer Hebrides Ave,Las Vegas,NV,89129,432500,3,2.5,00,2004,4356,2021,14,216,48,Sold,,,http://www.redfin.com/NV/Las-Vegas/Outer-Hebrides-Ave-89166/home/171825308,GLVAR,2268135,N,Y,36.3139,-115.3097
PAST SALE,March-31-2021,Single Family Residential,9602 Shadow Cliff Ave,Las Vegas,NV,89166,475000,4,2.5,Skye Canyon Parcel 14,2577,4792,2018,23,184,55,Sold,,,http://www.redfin.com/NV/Las-Vegas/9602-Shadow-Cliff-Ave-89166/home/109871670,GLVAR,2272175,N,Y,36.3086575,-115.3061426
PAST SALE,April-13-2021,Single Family Residential,8925 Skye Treeline St,Las Vegas,NV,89166,507764,3,2.5,Aviano,2029,5227,2020,10,250,115,Sold,,,http://www.redfin.com/NV/Las-Vegas/8925-Skye-Treeline-St-89166/home/171301523,GLVAR,2243638,N,Y,36.3171961,-115.3144573
PAST SALE,January-26-2021,Single Family Residential,7752 Houston Peak St,Las Vegas,NV,89166,326000,3,2.5,Beazer At Cliffs Edge Pod 205,1930,3920,2012,87,169,31,Sold,,,http://www.redfin.com/NV/Las-Vegas/7752-Houston-Peak-St-89166/home/40498183,GLVAR,2249151,N,Y,36.3021414,-115.3293402
PAST SALE,January-27-2021,Single Family Residential,10849 Hunters Green Ave,Las Vegas,NV,89166,322000,4,2.5,Beazer At Cliffs Edge Pod 205,1942,4356,2013,86,166,31,Sold,,,http://www.redfin.com/NV/Las-Vegas/10849-Hunters-Green-Ave-89166/home/52624540,GLVAR,2207553,N,Y,36.3021523,-115.3328471
PAST SALE,February-9-2021,Single Family Residential,7853 Blue Lake Peak St,Las Vegas,NV,89166,360000,3,2.5,Northern Terrace At Providence,2075,3049,2016,73,173,60,Sold,,,http://www.redfin.com/NV/Las-Vegas/7853-Blue-Lake-Peak-St-89166/home/109860907,GLVAR,2253470,N,Y,36.3042331,-115.3255753
PAST SALE,February-5-2021,Single Family Residential,8160 Pinyon Ridge St,Las Vegas,NV,89166,449000,3,2.5,Skye Canyon Ii Parcel 227 Phase 1 Aka Pinyon Chase,1850,4356,2018,77,243,48,Sold,,,http://www.redfin.com/NV/Las-Vegas/8160-Pinyon-Ridge-St-89166/home/161754825,GLVAR,2260117,N,Y,36.3109478,-115.3205439
PAST SALE,January-29-2021,Single Family Residential,7879 Shoreline Ridge Ct,Las Vegas,NV,89166,319900,3,2.5,Cliffs Edge Pod 201 & 203,1840,3485,2014,84,174,40,Sold,,,http://www.redfin.com/NV/Las-Vegas/7879-Shoreline-Ridge-Ct-89166/home/54784144,GLVAR,2238674,N,Y,36.3045437,-115.3332753
PAST SALE,,Single Family Residential,13040 Horse Dr,Las Vegas,NV,89166,798000,4,2.5,,2364,180774,1996,,338,,,,,http://www.redfin.com/NV/Las-Vegas/13040-Horse-Dr-89166/home/29103820,,,N,Y,36.31496,-115.384042
PAST SALE,February-8-2021,Single Family Residential,7229 Beachwood Crest St,Las Vegas,NV,89166,312000,3,2.5,Cliffs Edge Pod 115 116 & 117,1789,2178,2007,74,174,60,Sold,,,http://www.redfin.com/NV/Las-Vegas/7229-Beachwood-Crest-St-89166/home/29760428,GLVAR,2254376,N,Y,36.2931381,-115.3209296
PAST SALE,February-5-2021,Single Family Residential,7543 Whitman Colonial St,Las Vegas,NV,89166,310000,3,2.5,Emerson,1579,2178,2017,77,196,65,Sold,,,http://www.redfin.com/NV/Las-Vegas/7543-Whitman-Colonial-St-89166/home/113712450,GLVAR,2258445,N,Y,36.298597,-115.315628
PAST SALE,January-26-2021,Single Family Residential,7511 Bedford Ridge Ct,Las Vegas,NV,89166,308000,3,2.5,Emerson,1579,2178,2017,87,195,65,Sold,,,http://www.redfin.com/NV/Las-Vegas/7511-Bedford-Ridge-Ct-89166/home/143186539,GLVAR,2246878,N,Y,36.2977149,-115.3169789
PAST SALE,February-9-2021,Single Family Residential,9695 Skye Star Ave,Las Vegas,NV,89166,721000,4,3.5,Skye Canyon Parcel 12 Amd,3570,7841,2017,73,202,50,Sold,,,http://www.redfin.com/NV/Las-Vegas/9695-Skye-Star-Ave-89166/home/146418003,GLVAR,2257830,N,Y,36.312344,-115.307558
PAST SALE,February-25-2021,Single Family Residential,8320 Skye Creek St,Las Vegas,NV,89166,520000,4,3.0,Skye Canyon Parcel 12 Amd,2733,5663,2017,57,190,50,Sold,,,http://www.redfin.com/NV/Las-Vegas/8320-Skye-Creek-St-89166/home/146418022,GLVAR,2267754,N,Y,36.3112221,-115.3070791
PAST SALE,February-26-2021,Condo/Co-op,8250 Grand Canyon Dr #1058,Las Vegas,NV,89166,172000,2,2.0,Grand Canyon Village Condo,1094,,2004,56,157,189,Sold,,,http://www.redfin.com/NV/Las-Vegas/8250-N-Grand-Canyon-Dr-89166/unit-1058/home/29179780,GLVAR,2262713,N,Y,36.3113052,-115.30552
PAST SALE,April-2-2021,Single Family Residential,9506 Diamond Bridge Ave,Las Vegas,NV,89166,267000,3,2.5,Grand Canyon Terrace,1278,2178,2006,21,209,47,Sold,,,http://www.redfin.com/NV/Las-Vegas/9506-Diamond-Bridge-Ave-89166/home/28966129,GLVAR,2269658,N,Y,36.3137243,-115.3042005
PAST SALE,February-19-2021,Single Family Residential,6438 Mayfair Park St,Las Vegas,NV,89166,420000,4,3.0,Providence Pod 307 Phase 2,2996,4792,2013,63,140,55,Sold,,,http://www.redfin.com/NV/Las-Vegas/6438-Mayfair-Park-St-89166/home/55520697,GLVAR,2260228,N,Y,36.2785644,-115.3318865
PAST SALE,February-5-2021,Single Family Residential,10116 Ocicat Ave,Las Vegas,NV,89166,380000,4,2.5,Farm & Hualapai,2239,3920,2010,77,170,68,Sold,,,http://www.redfin.com/NV/Las-Vegas/10116-Ocicat-Ave-89166/home/30469443,GLVAR,2260859,N,Y,36.3020734,-115.31559
PAST SALE,March-22-2021,Single Family Residential,7618 Phoenix Peak St,Las Vegas,NV,89166,380000,3,2.5,Northern Terrace At Providence,2114,3920,2016,32,180,60,Sold,,,http://www.redfin.com/NV/Las-Vegas/7618-Phoenix-Peak-St-89166/home/101675909,GLVAR,2266476,N,Y,36.3000459,-115.3245717
PAST SALE,February-19-2021,Single Family Residential,8236 Serpentine Sands St,Las Vegas,NV,89166,525000,4,2.75,Skye Canyon Parcel 11 - Phase 1,3144,6098,2016,63,167,51,Sold,,,http://www.redfin.com/NV/Las-Vegas/8236-Serpentine-Sands-St-89166/home/109871198,GLVAR,2259736,N,Y,36.3113851,-115.3110528
PAST SALE,February-17-2021,Single Family Residential,10750 Fenway Park Ave,Las Vegas,NV,89166,350000,3,3.0,Astoria Homes Cliffs Edge Pod 301,2279,2614,2016,65,154,57,Sold,,,http://www.redfin.com/NV/Las-Vegas/10750-Fenway-Park-Ave-89166/home/109864880,GLVAR,2262251,N,Y,36.2871152,-115.3307291
PAST SALE,February-3-2021,Single Family Residential,10554 Angels Rest Ave,Las Vegas,NV,89166,329000,4,3.5,Northern Terrace At Providence,1985,3485,2015,79,166,105,Sold,,,http://www.redfin.com/NV/Las-Vegas/10554-Angels-Rest-Ave-89166/home/109620958,GLVAR,2258233,N,Y,36.3062102,-115.3264235
PAST SALE,March-16-2021,Single Family Residential,10812 Mason Hill Ave,Las Vegas,NV,89166,310000,3,2.25,Manchester Park Pod 207,1513,3049,2010,38,205,65,Sold,,,http://www.redfin.com/NV/Las-Vegas/10812-Mason-Hill-Ave-89166/home/30468911,GLVAR,2269434,N,Y,36.2961777,-115.3315161
PAST SALE,March-25-2021,Single Family Residential,8042 Skye Dragon St,Las Vegas,NV,89166,471077,4,3.5,Skye Canyon Ii Parcel 220 Phase 1,2605,3920,2020,29,181,83,Sold,,,http://www.redfin.com/NV/Las-Vegas/8042-Skye-Dragon-St-89161/home/169227680,GLVAR,2265050,N,Y,36.308276,-115.330717
PAST SALE,March-12-2021,Single Family Residential,10741 Beach House Ave,Las Vegas,NV,89166,365000,3,2.5,Cliffs Edge Pods 201 & 203,1951,3920,2008,42,187,40,Sold,,,http://www.redfin.com/NV/Las-Vegas/10741-Beach-House-Ave-89166/home/29759257,GLVAR,2272307,N,Y,36.3039733,-115.3303587
PAST SALE,,Single Family Residential,10616 Kearney Mountain Ave,Las Vegas,NV,89166,365000,3,3.0,,2160,5663,2008,,169,,,,,http://www.redfin.com/NV/Las-Vegas/10616-Kearney-Mountain-Ave-89166/home/29759514,,,N,Y,36.3017438,-115.3268865
PAST SALE,March-17-2021,Single Family Residential,8123 Skye Glen St,Las Vegas,NV,89166,450000,3,2.5,Skye Canyon Parcel 223B,2390,4792,2019,37,188,82,Sold,,,http://www.redfin.com/NV/Las-Vegas/8123-Skye-Glen-St-89166/home/167628936,GLVAR,2265956,N,Y,36.3091234,-115.3263696
PAST SALE,March-22-2021,Single Family Residential,10838 Dobbs Ave,Las Vegas,NV,89166,370000,3,2.5,Beazer At Cliffs Edge Pod 205,1942,3920,2013,32,191,45,Sold,,,http://www.redfin.com/NV/Las-Vegas/10838-Dobbs-Ave-89166/home/65554465,GLVAR,2265432,N,Y,36.3014888,-115.3325809
PAST SALE,April-8-2021,Single Family Residential,10580 Sariah Skye Ave Lot 103,Las Vegas,NV,89166,394990,3,2.5,Ravenna at Skye Canyon,2138,3049,2020,15,185,47,Sold,,,http://www.redfin.com/NV/Las-Vegas/N-Shaumber-Rd-89166/unit-103/home/173226856,GLVAR,2233175,N,Y,36.3071258,-115.3263332
PAST SALE,April-16-2021,Single Family Residential,10640 Scorched Skye Ave,Las Vegas,NV,89166,520000,4,2.75,Skye Canyon Parcel 223B Amd,2564,5663,2019,7,203,87,Sold,,,http://www.redfin.com/NV/Las-Vegas/10640-Scorched-Skye-Ave-89124/home/167628977,GLVAR,2277258,N,Y,36.308729,-115.327233
PAST SALE,April-16-2021,Single Family Residential,10648 Kennedy Peak Ln,Las Vegas,NV,89166,355000,3,2.5,Northern Terrace At Providence,1950,3049,2017,7,182,105,Sold,,,http://www.redfin.com/NV/Las-Vegas/10648-Kennedy-Peak-Ln-89166/home/144161276,GLVAR,2279252,N,Y,36.3033858,-115.3280439
PAST SALE,April-19-2021,Single Family Residential,7913 Lindores Loch St,Las Vegas,NV,89166,347000,4,2.5,Cliffs Edge Pod 201 & 203-Amd,1721,3485,2008,4,202,40,Sold,,,http://www.redfin.com/NV/Las-Vegas/7913-N-Lindores-Loch-St-89166/home/29796709,GLVAR,2281675,N,Y,36.3050618,-115.3322105
PAST SALE,April-19-2021,Single Family Residential,7771 Lone Shepherd Dr,Las Vegas,NV,89166,326000,3,2.5,Beazer At Cliffs Edge Pod 205,1943,3485,2009,4,168,31,Sold,,,http://www.redfin.com/NV/Las-Vegas/7771-Lone-Shepherd-Dr-89166/home/29598569,GLVAR,2283045,N,Y,36.3015589,-115.3299883
PAST SALE,April-19-2021,Single Family Residential,10643 Forum Peak Ln,Las Vegas,NV,89166,358000,3,2.75,Northern Terrace At Providence,1950,3049,2016,4,184,104,Sold,,,http://www.redfin.com/NV/Las-Vegas/10643-Forum-Peak-Ln-89166/home/109860903,GLVAR,2275803,N,Y,36.3035984,-115.3280155
PAST SALE,February-12-2021,Single Family Residential,10404 Bush Mountain Ave,Las Vegas,NV,89166,370000,3,2.5,Northern Terrace At Providence,1877,5227,2010,70,197,135,Sold,,,http://www.redfin.com/NV/Las-Vegas/10404-Bush-Mountain-Ave-89166/home/39658977,GLVAR,2255157,N,Y,36.299978,-115.3218865
PAST SALE,January-29-2021,Single Family Residential,10130 Ragdoll Ave,Las Vegas,NV,89166,380000,4,2.5,Farm & Hualapai,2239,3485,2011,84,170,64,Sold,,,http://www.redfin.com/NV/Las-Vegas/10130-Ragdoll-Ave-89166/home/40233924,GLVAR,2262431,N,Y,36.3015765,-115.3161224
PAST SALE,February-19-2021,Single Family Residential,7624 Sugarloaf Peak St,Las Vegas,NV,89166,395000,3,2.5,Northern Terrace At Providence,2016,5227,2015,63,196,136,Sold,,,http://www.redfin.com/NV/Las-Vegas/7624-Sugarloaf-Peak-St-89166/home/109621714,GLVAR,2260053,N,Y,36.3003386,-115.3232754
PAST SALE,,Single Family Residential,10556 Mt Blackburn Ave,Las Vegas,NV,89166,365000,3,2.5,,2098,3920,2015,,174,,,,,http://www.redfin.com/NV/Las-Vegas/10556-Mt-Blackburn-Ave-89166/home/109861027,,,N,Y,36.2998181,-115.325405
PAST SALE,March-4-2021,Single Family Residential,9953 Rams Leap Ave,Las Vegas,NV,89166,450000,4,3.0,Skye Canyon Parcel 13 - Phase 1,2352,4356,2017,50,191,55,Sold,,,http://www.redfin.com/NV/Las-Vegas/9953-Rams-Leap-Ave-89166/home/109871141,GLVAR,2263413,N,Y,36.3078147,-115.3122485
PAST SALE,March-15-2021,Single Family Residential,10012 Rams Leap Ave,Las Vegas,NV,89166,529900,5,3.75,Skye Canyon Parcel 13 Phase 2,3612,4356,2018,39,147,55,Sold,,,http://www.redfin.com/NV/Las-Vegas/10012-Rams-Leap-Ave-89149/home/161755123,GLVAR,2264744,N,Y,36.3082061,-115.3135253
PAST SALE,March-15-2021,Single Family Residential,8112 Starling View Ct,Las Vegas,NV,89166,307500,3,2.5,Centennial Point,1499,3049,2004,39,205,83,Sold,,,http://www.redfin.com/NV/Las-Vegas/8112-Starling-View-Ct-89166/home/28983194,GLVAR,2268642,N,Y,36.3087469,-115.3034134
PAST SALE,,Single Family Residential,9860 Fountain Walk Ave,Las Vegas,NV,89149,257225,3,2.5,,1739,2614,2005,,148,,,,,http://www.redfin.com/NV/Las-Vegas/9860-Fountain-Walk-Ave-89149/home/29022838,,,N,Y,36.305357,-115.310614
PAST SALE,February-26-2021,Single Family Residential,8233 Brilliant Pompon Pl,Las Vegas,NV,89166,317500,3,2.5,Sky Ridge Unit 1,1887,2614,2007,56,168,50,Sold,,,http://www.redfin.com/NV/Las-Vegas/8233-Brilliant-Pompon-89166/home/29060410,GLVAR,2264009,N,Y,36.3107513,-115.2989223
PAST SALE,March-18-2021,Single Family Residential,9324 Euphoria Rose Ave,Las Vegas,NV,89166,335000,4,2.5,Sky Ridge,1827,2614,2010,36,183,50,Sold,,,http://www.redfin.com/NV/Las-Vegas/9324-Euphoria-Rose-Ave-89166/home/30040727,GLVAR,2270696,N,Y,36.310602,-115.299741
PAST SALE,February-4-2021,Single Family Residential,10309 Jolly Hill Ave,Las Vegas,NV,89166,302000,3,2.5,CLIFFS EDGE POD 115 116 & 117,1632,2614,2013,78,185,40,Sold,,,http://www.redfin.com/NV/Las-Vegas/10309-Jolly-Hill-Ave-89166/home/52625379,GLVAR,2254993,N,Y,36.2922139,-115.3202661
PAST SALE,March-10-2021,Single Family Residential,7110 Forest Heights Ct,Las Vegas,NV,89166,352000,4,3.25,Providence Pod 118 Phase 2,2090,4356,2010,44,168,45,Sold,,,http://www.redfin.com/NV/Las-Vegas/7110-Forest-Heights-Ct-89166/home/35656656,GLVAR,2265114,N,Y,36.290289,-115.3215829
PAST SALE,January-29-2021,Single Family Residential,7036 Tidelands Park Ct,Las Vegas,NV,89166,389900,4,2.5,Brighton & Kensington Providence Cliffs Edge,2573,3920,2007,84,152,40,Sold,,,http://www.redfin.com/NV/Las-Vegas/7036-Tidelands-Park-Ct-89166/home/29598460,GLVAR,2250215,N,Y,36.2894549,-115.3256365
PAST SALE,February-19-2021,Single Family Residential,10313 Northern Hills Ave,Las Vegas,NV,89166,353000,4,3.0,Providence Pod 118 Phase 2,1929,4356,2013,63,183,45,Sold,,,http://www.redfin.com/NV/Las-Vegas/10313-Northern-Hills-Ave-89166/home/52613894,GLVAR,2258774,N,Y,36.2886611,-115.3205439
PAST SALE,March-4-2021,Single Family Residential,7224 Puckershire St,Las Vegas,NV,89166,560000,5,3.0,Cliffs Edge Pod 115 116 & 117,4422,7841,2010,50,127,60,Sold,,,http://www.redfin.com/NV/Las-Vegas/7224-Puckershire-St-89166/home/30479936,GLVAR,2256253,N,Y,36.2932355,-115.3172336
PAST SALE,March-10-2021,Single Family Residential,10412 Scotch Elm Ave,Las Vegas,NV,89166,340000,3,2.5,Cliffs Edge Pod 115 116 & 117,1789,2178,2008,44,190,42,Sold,,,http://www.redfin.com/NV/Las-Vegas/10412-Scotch-Elm-Ave-89166/home/29760433,GLVAR,2262236,N,Y,36.2937093,-115.3218954
PAST SALE,March-16-2021,Single Family Residential,10424 Loma Portal Ave,Las Vegas,NV,89166,425000,3,2.5,Brighton & Kensington Providence Cliffs Edge,2099,5663,2009,38,202,49,Sold,,,http://www.redfin.com/NV/Las-Vegas/10424-Loma-Portal-Ave-89166/home/29760452,GLVAR,2266481,N,Y,36.2917042,-115.3243137
PAST SALE,April-6-2021,Single Family Residential,10314 Jolly Hill Ave,Las Vegas,NV,89166,330000,3,2.5,Cliffs Edge Pod 115 116 & 117,1789,2178,2012,17,184,40,Sold,,,http://www.redfin.com/NV/Las-Vegas/10314-Jolly-Hill-Ave-89166/home/52625402,GLVAR,2260217,N,Y,36.2924498,-115.3204513
PAST SALE,April-12-2021,Single Family Residential,10237 Pine Ridge Peak Ave,Las Vegas,NV,89166,501000,4,2.0,Pod 121 At Providence,2227,6098,2011,11,225,42,Sold,,,http://www.redfin.com/NV/Las-Vegas/10237-Pine-Ridge-Peak-Ave-89166/home/40234138,GLVAR,2272550,N,Y,36.290626,-115.3182521
PAST SALE,March-29-2021,Single Family Residential,7008 Tidelands Park Ct,Las Vegas,NV,89166,381500,4,2.75,Brighton & Kensington Providence Cliffs Edge,1847,4356,2008,25,207,40,Sold,,,http://www.redfin.com/NV/Las-Vegas/7008-Tidelands-Park-Ct-89166/home/29598519,GLVAR,2278367,N,Y,36.2886032,-115.3255439
PAST SALE,March-26-2021,Single Family Residential,7014 Whitford St,Las Vegas,NV,89166,430000,3,2.5,Brighton & Kensington Providence Cliffs Edge,2476,6098,2007,28,174,49,Sold,,,http://www.redfin.com/NV/Las-Vegas/7014-Whitford-St-89166/home/29760337,GLVAR,2267795,N,Y,36.2888628,-115.3232522
PAST SALE,April-20-2021,Single Family Residential,10533 Hartford Hills Ave,Las Vegas,NV,89166,371000,4,2.75,Cliffs Edge Pod 115 116 & 117,2136,3485,2010,3,174,42,Sold,,,http://www.redfin.com/NV/Las-Vegas/10533-Hartford-Hills-Ave-89166/home/30468876,GLVAR,2274563,N,Y,36.2939031,-115.325081
PAST SALE,February-4-2021,Single Family Residential,8050 Pinyon Ridge St,Las Vegas,NV,89166,469500,4,3.0,Skye Canyon Ii Parcel 227 Phase 1 Aka Pinyon Chase,2161,4356,2019,78,217,48,Sold,,,http://www.redfin.com/NV/Las-Vegas/8050-Pinyon-Ridge-St-89166/home/165776505,GLVAR,2262977,N,Y,36.3079271,-115.319578
PAST SALE,February-23-2021,Single Family Residential,7859 Shoreline Ridge Ct,Las Vegas,NV,89166,341000,3,2.5,Cliffs Edge Pod 201 & 203,1840,6098,2014,59,185,40,Sold,,,http://www.redfin.com/NV/Las-Vegas/7859-Shoreline-Ridge-Ct-89166/home/65558448,GLVAR,2264856,N,Y,36.3040679,-115.3332753
PAST SALE,March-5-2021,Single Family Residential,10140 Iron Wood Peak Ave,Las Vegas,NV,89166,365000,4,2.5,Pod 106 & 109 At Providence,2282,4356,2012,49,160,38,Sold,,,http://www.redfin.com/NV/Las-Vegas/10140-Iron-Wood-Peak-Ave-89166/home/45356771,GLVAR,2258483,N,Y,36.3041936,-115.3165623
PAST SALE,January-27-2021,Single Family Residential,10825 Irving Park Ave,Las Vegas,NV,89166,585000,3,2.5,Franklin Park At Providence Ii - Phase 3,2528,6534,2017,86,231,57,Sold,,,http://www.redfin.com/NV/Las-Vegas/10825-Irving-Park-Ave-89166/home/143189312,GLVAR,2244241,N,Y,36.2926669,-115.3320485
PAST SALE,February-10-2021,Single Family Residential,10723 Mason Hill Ave,Las Vegas,NV,89166,320000,3,2.5,Manchester Park Pod 207,1800,3920,2010,72,178,65,Sold,,,http://www.redfin.com/NV/Las-Vegas/10723-Mason-Hill-Ave-89166/home/30468886,GLVAR,2248501,N,Y,36.2959492,-115.330457
PAST SALE,January-29-2021,Single Family Residential,10007 Rams Leap Ave,Las Vegas,NV,89166,464000,4,2.75,Skye Canyon Parcel 13 Phase 2,2794,3920,2018,84,166,55,Sold,,,http://www.redfin.com/NV/Las-Vegas/10007-Rams-Leap-Ave-89166/home/148041100,GLVAR,2261229,N,Y,36.3078468,-115.3133985
PAST SALE,January-29-2021,Single Family Residential,9900 Outer Hebrides Ave,Las Vegas,NV,89166,425000,3,2.5,00,2004,4792,2020,84,212,48,Sold,,,http://www.redfin.com/NV/Las-Vegas/9900-Outer-Hebrides-AVE-89166/home/173421552,GLVAR,2249239,N,Y,36.317246,-115.311124
PAST SALE,February-8-2021,Single Family Residential,8295 Charleston Peak St,Las Vegas,NV,89166,552000,5,4.5,Skye Canyon Parcel 12 Amd,3190,5227,2017,74,173,50,Sold,,,http://www.redfin.com/NV/Las-Vegas/8295-Charleston-Peak-St-89149/home/146418027,GLVAR,2263344,N,Y,36.310878,-115.306777
PAST SALE,,Single Family Residential,10745 Drake Ridge Ave,Las Vegas,NV,89166,350000,3,2.5,,2361,3920,2013,,148,,,,,http://www.redfin.com/NV/Las-Vegas/10745-Drake-Ridge-Ave-89166/home/50273909,,,N,Y,36.2896826,-115.3307754
PAST SALE,February-19-2021,Single Family Residential,10707 Drake Ridge Ave,Las Vegas,NV,89166,348000,3,2.5,Windimere At Providence Cliffs Edge,2361,4792,2012,63,147,52,Sold,,,http://www.redfin.com/NV/Las-Vegas/10707-Drake-Ridge-Ave-89166/home/52624495,GLVAR,2259662,N,Y,36.2895704,-115.3293402
PAST SALE,February-3-2021,Single Family Residential,10625 Lomaland Ave,Las Vegas,NV,89166,368000,4,3.0,Brighton,2212,3920,2013,79,166,40,Sold,,,http://www.redfin.com/NV/Las-Vegas/10625-Lomaland-Ave-89166/home/65558803,GLVAR,2240026,N,Y,36.2912952,-115.3276735
PAST SALE,January-29-2021,Single Family Residential,10628 Strand City Ave,Las Vegas,NV,89166,335000,3,2.5,Brighton & Kensington Providence/Cliffs Edge - Amd,1768,3920,2013,84,189,40,Sold,,,http://www.redfin.com/NV/Las-Vegas/10628-Strand-City-Ave-89166/home/65558812,GLVAR,2251023,N,Y,36.2910259,-115.3278124
PAST SALE,January-29-2021,Single Family Residential,7449 Old Compton St,Las Vegas,NV,89166,415000,4,3.0,West End Aka Farm & Shaumber,2642,5227,2016,84,157,60,Sold,,,http://www.redfin.com/NV/Las-Vegas/7449-Old-Compton-St-89166/home/109630403,GLVAR,2260312,N,Y,36.2971291,-115.3273032
PAST SALE,February-26-2021,Single Family Residential,10735 Cowlite Ave,Las Vegas,NV,89166,433000,3,2.0,Providence Pod 211 - Phase 1,2168,6098,2017,56,200,50,Sold,,,http://www.redfin.com/NV/Las-Vegas/10735-Cowlite-Ave-89166/home/113713089,GLVAR,2258748,N,Y,36.2902463,-115.3304745
PAST SALE,March-16-2021,Single Family Residential,10811 Mason Hill Ave,Las Vegas,NV,89166,330000,4,3.0,Manchester Park Pod 207,2027,3049,2010,38,163,65,Sold,,,http://www.redfin.com/NV/Las-Vegas/10811-Mason-Hill-Ave-89166/home/30468891,GLVAR,2270661,N,Y,36.2959398,-115.3315161
PAST SALE,April-16-2021,Single Family Residential,7576 Clifton Gardens St,Las Vegas,NV,89166,308000,3,2.5,Manchester Park Pod 207,1640,3920,2011,7,188,65,Sold,,,http://www.redfin.com/NV/Las-Vegas/7576-Clifton-Gardens-St-89166/home/40081456,GLVAR,2278861,N,Y,36.2983595,-115.3297569
PAST SALE,April-16-2021,Single Family Residential,10730 Azure Ocean Ave,Las Vegas,NV,89166,305000,3,2.5,Manchester Park Pod 207,1640,3049,2008,7,186,65,Sold,,,http://www.redfin.com/NV/Las-Vegas/10730-Azure-Ocean-Ave-89166/home/29759571,GLVAR,2280334,N,Y,36.2984979,-115.3311213
PAST SALE,February-16-2021,Single Family Residential,8045 Farthings Hill Dr,Las Vegas,NV,89166,335000,3,2.5,Centennial Point,1854,5663,2004,66,181,83,Sold,,,http://www.redfin.com/NV/Las-Vegas/8045-Farthings-Hill-Dr-89166/home/28976763,GLVAR,2258912,N,Y,36.3077098,-115.3022096
PAST SALE,March-19-2021,Single Family Residential,8168 Starling View Ct,Las Vegas,NV,89166,375500,3,2.5,Centennial Point,1522,4356,2004,35,247,83,Sold,,,http://www.redfin.com/NV/Las-Vegas/8168-Starling-View-Ct-89166/home/28983286,GLVAR,2274454,N,Y,36.3101348,-115.3034134
PAST SALE,March-31-2021,Single Family Residential,8048 Caspian Moon Dr,Las Vegas,NV,89166,323500,3,2.5,Centennial Point,1896,3485,2004,23,171,83,Sold,,,http://www.redfin.com/NV/Las-Vegas/8048-Caspian-Moon-Dr-89166/home/28983226,GLVAR,2274336,N,Y,36.3077677,-115.3049413
PAST SALE,March-5-2021,Single Family Residential,7928 Airola Peak St,Las Vegas,NV,89166,440000,4,3.0,Northern Terrace At Providence,2718,4792,2007,49,162,107,Sold,,,http://www.redfin.com/NV/Las-Vegas/7928-Airola-Peak-St-89166/home/29759333,GLVAR,2267938,N,Y,36.3055545,-115.3223031
PAST SALE,March-9-2021,Single Family Residential,10318 Mount Oxford Ave,Las Vegas,NV,89166,394500,3,2.5,Northern Terrace At Providence,2016,5227,2013,45,196,138,Sold,,,http://www.redfin.com/NV/Las-Vegas/10318-Mont-Oxford-Ave-89166/home/55520347,GLVAR,2265842,N,Y,36.3007694,-115.3207522
PAST SALE,March-17-2021,Single Family Residential,10418 Prairie Mountain Ave,Las Vegas,NV,89166,410000,4,2.75,Northern Terrace At Providence,2816,4356,2007,37,146,105,Sold,,,http://www.redfin.com/NV/Las-Vegas/10418-Prairie-Mountain-Ave-89166/home/29759364,GLVAR,2269369,N,Y,36.3056022,-115.3228819
PAST SALE,April-16-2021,Single Family Residential,10331 Parkview Mountain Ave,Las Vegas,NV,89166,539900,5,3.0,Northern Terrace At Providence,3538,5663,2014,7,153,136,Sold,,,http://www.redfin.com/NV/Las-Vegas/10331-Parkview-Mountain-Ave-89166/home/65556299,GLVAR,2273604,N,Y,36.3009758,-115.3213309
PAST SALE,March-30-2021,Single Family Residential,10415 Prairie Mountain Ave,Las Vegas,NV,89166,449888,4,3.0,Northern Terrace At Providence,3040,4356,2007,24,148,104,Sold,,,http://www.redfin.com/NV/Las-Vegas/10415-Prairie-Mountain-Ave-89166/home/29759306,GLVAR,2263639,N,Y,36.3052475,-115.3226967
PAST SALE,April-5-2021,Single Family Residential,10307 Bush Mountain Ave,Las Vegas,NV,89166,416000,3,2.5,Northern Terrace At Providence,1877,8276,2011,18,222,135,Sold,,,http://www.redfin.com/NV/Las-Vegas/10307-Bush-Mountain-Ave-89166/home/40234111,GLVAR,2270845,N,Y,36.2996613,-115.3201272
PAST SALE,February-19-2021,Single Family Residential,8048 Satin Carnation Ln,Las Vegas,NV,89166,288000,3,2.5,Sky Ridge,1457,2614,2015,63,198,50,Sold,,,http://www.redfin.com/NV/Las-Vegas/8048-Satin-Carnation-Ln-89166/home/109533553,GLVAR,2262371,N,Y,36.307923,-115.3006933
PAST SALE,March-26-2021,Single Family Residential,8124 Winterfell Pl,Las Vegas,NV,89166,355000,3,2.5,Grand Teton & Tee Pee,2022,3920,2014,28,176,50,Sold,,,http://www.redfin.com/NV/Las-Vegas/8124-Winterfell-Pl-89166/home/65559505,GLVAR,2269653,N,Y,36.307928,-115.2980539
PAST SALE,March-26-2021,Single Family Residential,8038 Mosaic Sunrise Ln,Las Vegas,NV,89166,409000,3,2.5,Grand Teton & Tee Pee Amd,2022,5663,2015,28,202,49,Sold,,,http://www.redfin.com/NV/Las-Vegas/8038-Mosaic-Sunrise-Ln-89166/home/92908719,GLVAR,2269257,N,Y,36.3068312,-115.3005759
PAST SALE,January-29-2021,Single Family Residential,10321 Pima Crossing Ave,Las Vegas,NV,89166,350000,4,2.75,Providence Pod 118 Phase 3,1929,4356,2013,84,181,45,Sold,,,http://www.redfin.com/NV/Las-Vegas/10321-Pima-Crossing-Ave-89166/home/45069675,GLVAR,2255031,N,Y,36.2914311,-115.3206596
PAST SALE,April-13-2021,Single Family Residential,10351 Pima Crossing Ave,Las Vegas,NV,89166,390000,5,3.5,PROVIDENCE POD 118 PHASE 3,2459,4356,2013,10,159,55,Sold,,,http://www.redfin.com/NV/Las-Vegas/10351-Pima-Crossing-Ave-89166/home/40542633,GLVAR,2271640,N,Y,36.2913473,-115.3214698
PAST SALE,April-12-2021,Single Family Residential,9964 Celestial Cliffs Ave,Las Vegas,NV,89166,565000,4,3.5,Skye Canyon Parcel 11 - Phase 1,3046,5663,2017,11,185,51,Sold,,,http://www.redfin.com/NV/Las-Vegas/9964-Celestial-Cliffs-Ave-89166/home/109871239,GLVAR,2271060,N,Y,36.3119794,-115.3124858
PAST SALE,March-25-2021,Single Family Residential,8401 Canyon Sun Ct,Las Vegas,NV,89166,555000,3,2.5,Skye Canyon Parcel 11 - Phase 1,2450,8712,2016,29,227,51,Sold,,,http://www.redfin.com/NV/Las-Vegas/8401-Canyon-Sun-Ct-89166/home/109635144,GLVAR,2231501,N,Y,36.3129585,-115.3124755
PAST SALE,February-16-2021,Single Family Residential,10561 Hartford Hills Ave,Las Vegas,NV,89166,350000,4,2.75,Cliffs Edge Pod 115 116 & 117,2136,3485,2011,66,164,42,Sold,,,http://www.redfin.com/NV/Las-Vegas/10561-Hartford-Hills-Ave-89166/home/39605570,GLVAR,2261413,N,Y,36.2939133,-115.3259143
PAST SALE,April-13-2021,Single Family Residential,7442 Old Compton St,Las Vegas,NV,89166,445000,4,3.0,WEST END (AKA FARM AND SHAUMBE,2642,4356,2015,10,168,60,Sold,,,http://www.redfin.com/NV/Las-Vegas/7442-Old-Compton-St-89166/home/109630767,GLVAR,2277472,N,Y,36.2968768,-115.3268402
PAST SALE,February-16-2021,Single Family Residential,7949 Violet Sky St,Las Vegas,NV,89149,250000,3,2.5,Beazer At Grand Teton Village,1453,2614,2005,66,172,65,Sold,,,http://www.redfin.com/NV/Las-Vegas/7949-Violet-Sky-St-89149/home/29022701,GLVAR,2228422,N,Y,36.3059858,-115.3116084
PAST SALE,February-22-2021,Single Family Residential,7924 Crimson Point St,Las Vegas,NV,89149,249000,3,2.5,Beazer At Grand Teton Village,1608,2614,2005,60,155,65,Sold,,,http://www.redfin.com/NV/Las-Vegas/7924-Crimson-Point-St-89149/home/29022829,GLVAR,2251430,N,Y,36.3054908,-115.310319
PAST SALE,February-2-2021,Condo/Co-op,8250 Grand Canyon Dr #1019,Las Vegas,NV,89166,132000,1,1.0,Grand Canyon Village Condo,769,2500,2004,80,172,130,Sold,,,http://www.redfin.com/NV/Las-Vegas/8250-N-Grand-Canyon-Dr-89166/unit-1019/home/29178549,GLVAR,2255919,N,Y,36.3113052,-115.30552
PAST SALE,February-25-2021,Single Family Residential,10525 Galleon Peak Ln,Las Vegas,NV,89166,339000,3,2.0,Northern Terrace At Providence,1582,4792,2007,57,214,105,Sold,,,http://www.redfin.com/NV/Las-Vegas/10525-Galleon-Peak-Ln-89166/home/29598670,GLVAR,2258892,N,Y,36.301534,-115.3244791
PAST SALE,March-24-2021,Single Family Residential,7611 Phoenix Peak St,Las Vegas,NV,89166,395000,4,2.5,Northern Terrace At Providence,2269,4356,2015,30,174,104,Sold,,,http://www.redfin.com/NV/Las-Vegas/7611-Phoenix-Peak-St-89166/home/109861031,GLVAR,2268436,N,Y,36.2997932,-115.3249884
PAST SALE,March-10-2021,Condo/Co-op,8250 Grand Canyon Dr #2039,Las Vegas,NV,89166,169900,2,2.0,Grand Canyon Village Condo,1094,,2004,44,155,189,Sold,,,http://www.redfin.com/NV/Las-Vegas/8250-N-Grand-Canyon-Dr-89166/unit-2039/home/29272067,GLVAR,2260508,N,Y,36.3113052,-115.30552
PAST SALE,March-22-2021,Condo/Co-op,8250 Grand Canyon Dr #1186,Las Vegas,NV,89166,149900,1,1.0,Grand Canyon Village Condo,769,,2004,32,195,142,Sold,,,http://www.redfin.com/NV/Las-Vegas/8250-N-Grand-Canyon-Dr-89166/unit-1186/home/29179941,GLVAR,2272181,N,Y,36.3113052,-115.30552
PAST SALE,March-30-2021,Condo/Co-op,8250 Grand Canyon Dr #2156,Las Vegas,NV,89166,157500,1,1.0,Grand Canyon Village Condo,813,813,2004,24,194,142,Sold,,,http://www.redfin.com/NV/Las-Vegas/8250-N-Grand-Canyon-Dr-89166/unit-2156/home/29179904,GLVAR,2266607,N,Y,36.3113052,-115.30552
PAST SALE,February-24-2021,Single Family Residential,8944 Skye Canyon Ranch St,Las Vegas,NV,89166,481995,3,2.0,Aviano,1848,5227,2020,58,261,115,Sold,,,http://www.redfin.com/NV/Las-Vegas/8944-Skye-Canyon-Ranch-St-89166/home/171301402,GLVAR,2243605,N,Y,36.3178539,-115.3129639
PAST SALE,February-24-2021,Single Family Residential,8938 Skye Canyon Ranch St,Las Vegas,NV,89166,489995,4,2.5,Aviano,2029,5227,2020,58,241,115,Sold,,,http://www.redfin.com/NV/Las-Vegas/8938-Skye-Canyon-Ranch-St-89166/home/171301519,GLVAR,2243572,N,Y,36.3177165,-115.3129551
PAST SALE,February-24-2021,Single Family Residential,8937 Skye Treeline St,Las Vegas,NV,89166,471926,3,2.0,Aviano,1805,5663,2020,58,261,115,Sold,,,http://www.redfin.com/NV/Las-Vegas/8937-Skye-Treeline-St-89166/home/171301521,GLVAR,2243618,N,Y,36.3174702,-115.3144577
PAST SALE,January-23-2021,Single Family Residential,9675 Skye Cliff Ave,Las Vegas,NV,89166,660000,4,3.0,Skye Canyon Parcel 12,2822,8712,2017,90,234,50,Sold,,,http://www.redfin.com/NV/Las-Vegas/9675-Skye-Cliff-Ave-89166/home/109872515,GLVAR,2255162,N,Y,36.313213,-115.307262
PAST SALE,March-11-2021,Single Family Residential,9538 Diamond Bridge Ave,Las Vegas,NV,89166,285900,4,2.5,GRAND CANYON TERRACE UNIT 2,1718,2178,2006,43,166,47,Sold,,,http://www.redfin.com/NV/Las-Vegas/9538-Diamond-Bridge-Ave-89166/home/29020815,GLVAR,2172320,N,Y,36.3137407,-115.305358
PAST SALE,February-26-2021,Single Family Residential,8950 Skye Canyon Ranch St,Las Vegas,NV,89166,439995,3,2.0,Aviano,1805,5227,2020,56,244,115,Sold,,,http://www.redfin.com/NV/Las-Vegas/8950-Skye-Canyon-Ranch-St-89166/home/171301403,GLVAR,2243591,N,Y,36.3179912,-115.3129651
PAST SALE,March-8-2021,Single Family Residential,8460 Footpath St,Las Vegas,NV,89166,736000,4,3.5,Skye Canyon Parcel 12,3570,10019,2017,46,206,50,Sold,,,http://www.redfin.com/NV/Las-Vegas/8460-Footpath-St-89166/home/109872190,GLVAR,2262333,N,Y,36.3134418,-115.3063452
PAST SALE,March-8-2021,Single Family Residential,9511 Milkweed Canyon Ave,Las Vegas,NV,89166,291500,3,2.5,Grand Canyon Terrace,1559,2178,2006,46,187,40,Sold,,,http://www.redfin.com/NV/Las-Vegas/9511-Milkweed-Canyon-Ave-89166/home/29020457,GLVAR,2268609,N,Y,36.312998,-115.304432
PAST SALE,March-18-2021,Single Family Residential,9441 Milkweed Canyon Ave,Las Vegas,NV,89166,300000,4,2.5,Grand Canyon Terrace,1558,3485,2006,36,193,34,Sold,,,http://www.redfin.com/NV/Las-Vegas/9441-Milkweed-Canyon-Ave-89166/home/29020502,GLVAR,2270928,N,Y,36.3130464,-115.3028115
PAST SALE,April-13-2021,Single Family Residential,9885 Outer Hebrides Ave,Las Vegas,NV,89166,429000,3,2.5,00,2093,4792,2021,10,205,48,Sold,,,http://www.redfin.com/NV/Las-Vegas/Outer-Hebrides-Ave-89166/home/171825307,GLVAR,2264526,N,Y,36.3139,-115.3097
PAST SALE,April-14-2021,Single Family Residential,8460 Skye Walk Ct,Las Vegas,NV,89166,645000,3,2.0,Skye Canyon Parcel 12,2515,7405,2017,9,256,133,Sold,,,http://www.redfin.com/NV/Las-Vegas/8460-Skye-Walk-Ct-89166/home/109872538,GLVAR,2256278,N,Y,36.3135689,-115.3085148
PAST SALE,,Single Family Residential,8046 Eve Rock St,Las Vegas,NV,89166,427000,3,2.0,,1748,6098,2019,,244,,,,,http://www.redfin.com/NV/Las-Vegas/8046-Eve-Rock-St-89166/home/166462502,,,N,Y,36.3075624,-115.3162949
PAST SALE,February-19-2021,Single Family Residential,10260 Pond Pine Ave,Las Vegas,NV,89166,495000,4,3.25,Skye Canyon Ii Parcel 227 Phase 1 Aka Pinyon Chase,2215,4356,2020,63,223,48,Sold,,,http://www.redfin.com/NV/Las-Vegas/10260-Pond-Pine-Ave-89124/home/166088745,GLVAR,2265145,N,Y,36.3099888,-115.3202231
PAST SALE,March-26-2021,Single Family Residential,8099 Skye Foothills St,Las Vegas,NV,89166,380000,4,2.5,Skye Canyon Parcel 223A,1785,3485,2018,28,213,86,Sold,,,http://www.redfin.com/NV/Las-Vegas/8099-Skye-Foothills-St-89166/home/161754820,GLVAR,2272739,N,Y,36.3096354,-115.3222152
PAST SALE,April-15-2021,Single Family Residential,10285 Sierra Skye Ave,Las Vegas,NV,89166,675000,5,4.5,Skye Canyon Parcel 215 Phase 1,3540,6098,2019,8,191,50,Sold,,,http://www.redfin.com/NV/Las-Vegas/10285-Sierra-Skye-Ave-89166/home/166526328,GLVAR,2277520,N,Y,36.3109567,-115.3196471
PAST SALE,February-25-2021,Single Family Residential,10409 Skye Canyon Falls Ave,Las Vegas,NV,89166,355000,4,2.5,Skye Canyon Parcel 223A,1805,3049,2018,57,197,86,Sold,,,http://www.redfin.com/NV/Las-Vegas/10409-Skye-Canyon-Falls-Ave-89166/home/161754806,GLVAR,2207219,N,Y,36.3091081,-115.3222907
PAST SALE,February-25-2021,Single Family Residential,10414 Skye Canyon Falls Ave,Las Vegas,NV,89166,370000,3,2.25,Skye Canyon Parcel 223A,1805,3049,2019,57,205,86,Sold,,,http://www.redfin.com/NV/Las-Vegas/10414-Skye-Canyon-Falls-Ave-89124/home/165776417,GLVAR,2259218,N,Y,36.309483,-115.32233
PAST SALE,March-1-2021,Single Family Residential,10267 Sierra Skye Ave,Las Vegas,NV,89166,599000,5,4.0,Skye Canyon Parcel 215 Phase 1,3328,5663,2019,53,180,133,Sold,,,http://www.redfin.com/NV/Las-Vegas/10267-Sierra-Skye-Ave-89124/home/166462439,GLVAR,2260805,N,Y,36.310914,-115.319061
PAST SALE,March-5-2021,Single Family Residential,10054 Rams Leap Ave,Las Vegas,NV,89166,565000,3,2.5,Skye Canyon Parcel 13 Phase 2,2794,8276,2018,49,202,55,Sold,,,http://www.redfin.com/NV/Las-Vegas/10054-Rams-Leap-Ave-89149/home/147876825,GLVAR,2266573,N,Y,36.308406,-115.314542
PAST SALE,April-13-2021,Single Family Residential,10146 Skye Run Ave,Las Vegas,NV,89166,445000,3,1.5,Skye Canyon Ii Parcel 228,1748,5227,2019,10,255,86,Sold,,,http://www.redfin.com/NV/Las-Vegas/10146-Skye-Run-Ave-89166/home/165776590,GLVAR,2274538,N,Y,36.3086466,-115.3165003
PAST SALE,March-31-2021,Single Family Residential,10135 Skye Camp Dr,Las Vegas,NV,89166,425000,3,2.5,Skye Canyon Ii Parcel 229 Phase 1,2474,3920,2019,23,172,56,Sold,,,http://www.redfin.com/NV/Las-Vegas/10135-Skye-Camp-Dr-89166/home/166462471,GLVAR,2261115,N,Y,36.3089151,-115.3164822
PAST SALE,March-31-2021,Single Family Residential,10300 Foothill Pine Ct,Las Vegas,NV,89166,436500,4,3.5,Skye Canyon Ii Parcel 227 Phase 1 Aka Pinyon Chase,2161,4792,2019,23,202,48,Sold,,,http://www.redfin.com/NV/Las-Vegas/10300-Foothill-Pine-Ct-89124/home/166088740,GLVAR,2262462,N,Y,36.310448,-115.320926
PAST SALE,April-2-2021,Single Family Residential,8465 Skye Walk Ct,Las Vegas,NV,89166,715000,5,4.5,Skye Canyon Parcel 12,3905,6534,2017,21,183,50,Sold,,,http://www.redfin.com/NV/Las-Vegas/8465-Skye-Walk-Ct-89166/home/109872408,GLVAR,2272452,N,Y,36.3135941,-115.3091289
PAST SALE,April-5-2021,Single Family Residential,8104 Skye Canyon Grand St,Las Vegas,NV,89166,390000,3,2.5,Skye Canyon Parcel 223A,1805,3049,2019,18,216,86,Sold,,,http://www.redfin.com/NV/Las-Vegas/8104-Skye-Canyon-Grand-St-89166/home/165776430,GLVAR,2271337,N,Y,36.3096154,-115.3232704
PAST SALE,January-26-2021,Single Family Residential,6743 Haymarket St,Las Vegas,NV,89166,345000,4,3.0,Monticello At Cliffs Edge,2264,2614,2014,87,152,40,Sold,,,http://www.redfin.com/NV/Las-Vegas/6743-Haymarket-St-89166/home/65555803,GLVAR,2257847,N,Y,36.2836262,-115.3331827
PAST SALE,February-26-2021,Single Family Residential,6636 Brooklyn Heights St,Las Vegas,NV,89166,413000,4,2.75,Ryland Homes At Cliffs Edge Pods 305 & 309,3043,4356,2009,56,136,55,Sold,,,http://www.redfin.com/NV/Las-Vegas/6636-Brooklyn-Heights-St-89166/home/29760634,GLVAR,2250799,N,Y,36.2819272,-115.3326272
PAST SALE,March-18-2021,Single Family Residential,6608 Chinatown St,Las Vegas,NV,89166,367000,3,2.5,Ryland Homes At Cliffs Edge Pods 305 & 309,2709,3485,2008,36,135,55,Sold,,,http://www.redfin.com/NV/Las-Vegas/6608-Chinatown-St-89166/home/29760230,GLVAR,2265410,N,Y,36.2811054,-115.3308217
PAST SALE,April-7-2021,Single Family Residential,10729 Wrigley Field Ave,Las Vegas,NV,89166,362000,3,3.0,Astoria Homes Cliffs Edge Pod 301,2279,2614,2014,16,159,57,Sold,,,http://www.redfin.com/NV/Las-Vegas/10729-Wrigley-Field-Ave-89166/home/65557138,GLVAR,2268143,N,Y,36.2872428,-115.3299883
PAST SALE,March-26-2021,Single Family Residential,6619 Brooklyn Heights St,Las Vegas,NV,89166,363000,3,2.0,Ryland Homes At Cliffs Edge Pods 305 & 309,1739,4792,2009,28,209,55,Sold,,,http://www.redfin.com/NV/Las-Vegas/6619-Brooklyn-Heights-St-89166/home/29760657,GLVAR,2270322,N,Y,36.2814365,-115.3330439
PAST SALE,March-31-2021,Single Family Residential,6847 Quindio St,Las Vegas,NV,89166,325000,3,2.5,Easton Place At Providence Phase 2,1675,3485,2008,23,194,11,Sold,,,http://www.redfin.com/NV/Las-Vegas/6847-Quindio-St-89166/home/29760628,GLVAR,2264271,N,Y,36.28528,-115.331655
PAST SALE,March-26-2021,Single Family Residential,6545 Ditmars St,Las Vegas,NV,89166,365000,3,2.5,Ryland Homes At Cliffs Edge Pods 305 & 309,2709,4356,2013,28,135,55,Sold,,,http://www.redfin.com/NV/Las-Vegas/6545-Ditmars-St-89166/home/52625450,GLVAR,2268781,N,Y,36.2801765,-115.3305439
PAST SALE,April-21-2021,Single Family Residential,6615 Grand Concourse St,Las Vegas,NV,89166,339990,3,2.5,Ryland Homes At Cliffs Edge Pods 305 & 309,2077,6098,2010,2,164,50,Sold,,,http://www.redfin.com/NV/Las-Vegas/6615-Grand-Concourse-St-89166/home/30470000,GLVAR,2273152,N,Y,36.281327,-115.3296643
PAST SALE,January-29-2021,Single Family Residential,10119 Mayflower Bay Ave,Las Vegas,NV,89166,307000,3,2.5,Emerson,1656,2178,2016,84,185,65,Sold,,,http://www.redfin.com/NV/Las-Vegas/10119-Mayflower-Bay-Ave-89166/home/109862505,GLVAR,2220476,N,Y,36.2986169,-115.3161456
PAST SALE,February-5-2021,Single Family Residential,10143 Tarbell Grove Ave,Las Vegas,NV,89166,485000,4,3.5,Madison Grove At Providence Phase 3,3539,6534,2014,77,137,85,Sold,,,http://www.redfin.com/NV/Las-Vegas/10143-Tarbell-Grove-Ave-89166/home/56836068,GLVAR,2246863,N,Y,36.2954693,-115.3161224
PAST SALE,February-11-2021,Single Family Residential,7324 Marbury St,Las Vegas,NV,89166,477000,5,3.5,Madison Grove At Providence Phase 3,3539,6534,2014,71,135,85,Sold,,,http://www.redfin.com/NV/Las-Vegas/7324-Marbury-St-89166/home/92908051,GLVAR,2254860,N,Y,36.2947848,-115.3152891
PAST SALE,February-23-2021,Single Family Residential,7564 Swan Cove Ct,Las Vegas,NV,89166,295000,3,2.5,Emerson,1579,2178,2008,59,187,65,Sold,,,http://www.redfin.com/NV/Las-Vegas/7564-Swan-Cove-Ct-89166/home/29779453,GLVAR,2261630,N,Y,36.2989569,-115.3167475
PAST SALE,March-3-2021,Single Family Residential,7571 Bethel Cove Ct,Las Vegas,NV,89166,290000,2,2.5,Emerson,1579,3049,2008,51,184,65,Sold,,,http://www.redfin.com/NV/Las-Vegas/7571-Bethel-Cove-Ct-89166/home/29779323,GLVAR,2257485,N,Y,36.2991214,-115.3179512
PAST SALE,March-31-2021,Single Family Residential,10108 Amana Oaks Ave,Las Vegas,NV,89166,520000,4,3.5,Madison Grove At Providence Phase 2,3539,7405,2012,23,147,85,Sold,,,http://www.redfin.com/NV/Las-Vegas/10108-Amana-Oaks-Ave-89166/home/44585007,GLVAR,2269521,N,Y,36.2973751,-115.3154974
PAST SALE,April-19-2021,Single Family Residential,10118 Royal Mint Ave,Las Vegas,NV,89166,660000,4,2.5,Cliffs Edge Pod 115 116 & 117,3134,7841,2007,4,211,60,Sold,,,http://www.redfin.com/NV/Las-Vegas/10118-Royal-Mint-Ave-89166/home/29774511,GLVAR,2273114,N,Y,36.2937703,-115.3155669
PAST SALE,February-17-2021,Single Family Residential,7631 Houston Peak St,Las Vegas,NV,89166,349000,3,2.5,Beazer At Cliffs Edge Pod 205,1943,3485,2007,65,180,31,Sold,,,http://www.redfin.com/NV/Las-Vegas/7631-Houston-Peak-St-89166/home/29598648,GLVAR,2256906,N,Y,36.300185,-115.3297697
PAST SALE,February-18-2021,Single Family Residential,10761 Noble Mesa Ave,Las Vegas,NV,89166,330000,3,2.5,Beazer At Cliffs Edge Pod 205,1835,3485,2008,64,180,31,Sold,,,http://www.redfin.com/NV/Las-Vegas/10761-Noble-Mesa-Ave-89166/home/29598647,GLVAR,2261305,N,Y,36.2993844,-115.3311357
PAST SALE,March-9-2021,Single Family Residential,10813 Cain Ave,Las Vegas,NV,89166,340000,3,2.5,Beazer At Cliffs Edge Pod 205,1943,3485,2010,45,175,31,Sold,,,http://www.redfin.com/NV/Las-Vegas/10813-Cain-Ave-89166/home/30378321,GLVAR,2265284,N,Y,36.2997863,-115.3315161
PAST SALE,April-5-2021,Single Family Residential,10721 Dobbs Ave,Las Vegas,NV,89166,360000,3,2.5,Beazer At Cliffs Edge Pod 205,1930,3485,2012,18,187,31,Sold,,,http://www.redfin.com/NV/Las-Vegas/10721-Dobbs-Ave-89166/home/52624538,GLVAR,2274241,N,Y,36.3018134,-115.3302661
PAST SALE,March-12-2021,Single Family Residential,10683 Sariah Skye Ave Lot 5,Las Vegas,NV,89166,364990,3,2.5,Ravenna at Skye Canyon,1916,3049,2020,42,190,47,Sold,,,http://www.redfin.com/NV/Las-Vegas/10683-Sariah-Skye-Ave-89124/unit-5/home/174105420,GLVAR,2258868,N,Y,36.3073288,-115.3270731
PAST SALE,January-28-2021,Single Family Residential,10624 Kearney Mountain Ave,Las Vegas,NV,89166,400000,6,4.0,Northern Terrace At Providence,2545,5227,2014,85,157,105,Sold,,,http://www.redfin.com/NV/Las-Vegas/10624-Kearney-Mountain-Ave-89166/home/65555740,GLVAR,2257052,N,Y,36.3016811,-115.3271643
PAST SALE,January-29-2021,Single Family Residential,10747 Cowlite Ave,Las Vegas,NV,89166,400000,3,2.0,Providence Pod 211 - Phase 1,1741,5227,2016,84,230,50,Sold,,,http://www.redfin.com/NV/Las-Vegas/10747-Cowlite-Ave-89166/home/102185079,GLVAR,2250327,N,Y,36.2903442,-115.3310069
PAST SALE,April-2-2021,Single Family Residential,10727 Cowlite Ave,Las Vegas,NV,89166,481000,3,2.5,Providence Pod 211 - Phase 1,2168,7405,2017,21,222,50,Sold,,,http://www.redfin.com/NV/Las-Vegas/10727-Cowlite-Ave-89166/home/113713046,GLVAR,2271694,N,Y,36.2901713,-115.3301041
PAST SALE,February-16-2021,Single Family Residential,7220 Breakfast Hill St,Las Vegas,NV,89166,276000,3,2.5,Cliffs Edge Pod 115 116 & 117,1632,2614,2010,66,169,40,Sold,,,http://www.redfin.com/NV/Las-Vegas/7220-Breakfast-Hill-St-89166/home/30469470,GLVAR,2222334,N,Y,36.2928919,-115.321655
PAST SALE,February-5-2021,Single Family Residential,10304 Highbridge Ct,Las Vegas,NV,89166,402500,4,3.0,"Cliffs Edge Pod 115,116 & 117",2661,6970,2008,77,151,40,Sold,,,http://www.redfin.com/NV/Las-Vegas/10304-Highbridge-Ct-89166/home/29759493,GLVAR,2258872,N,Y,36.2953617,-115.3198494
PAST SALE,March-12-2021,Single Family Residential,10429 Scotch Elm Ave,Las Vegas,NV,89166,297000,3,2.5,Cliffs Edge Pod 115 116 & 117,1451,2178,2009,42,205,42,Sold,,,http://www.redfin.com/NV/Las-Vegas/10429-Scotch-Elm-Ave-89166/home/29760418,GLVAR,2266022,N,Y,36.2934573,-115.3224883
PAST SALE,March-26-2021,Single Family Residential,10721 Wrigley Field Ave,Las Vegas,NV,89166,360000,3,3.25,Astoria Homes Cliffs Edge Pod 301,2021,2178,2014,28,178,57,Sold,,,http://www.redfin.com/NV/Las-Vegas/10721-Wrigley-Field-Ave-89166/home/52748712,GLVAR,2273184,N,Y,36.2872763,-115.3296643
PAST SALE,March-30-2021,Single Family Residential,10745 Fenway Park Ave,Las Vegas,NV,89166,365000,3,2.25,Astoria Homes Cliffs Edge Pod 301,2130,2614,2014,24,171,57,Sold,,,http://www.redfin.com/NV/Las-Vegas/10745-Fenway-Park-Ave-89166/home/65557147,GLVAR,2271783,N,Y,36.2868689,-115.3305902
PAST SALE,April-5-2021,Single Family Residential,8281 Skye Highlands St,Las Vegas,NV,89166,457883,3,2.5,SKYE CANYON PARCEL 1.2 AMD,2013,5600,2020,18,227,50,Sold,,,http://www.redfin.com/NV/Las-Vegas/8281-Skye-Highlands-St-89124/home/169227843,GLVAR,2221481,N,Y,36.3126855,-115.3206645
PAST SALE,March-15-2021,Single Family Residential,7327 Durand Park St,Las Vegas,NV,89166,667500,3,3.25,Franklin Park At Providence Ii-Phase 2A,3148,7841,2019,39,212,60,Sold,,,http://www.redfin.com/NV/Las-Vegas/7327-Durand-Park-St-89166/home/165777486,GLVAR,2268941,N,Y,36.2940033,-115.3297761
PAST SALE,March-24-2021,Single Family Residential,10808 Myrtle Grove Ave,Las Vegas,NV,89166,315000,3,2.5,Manchester Park Pod 207,1801,3049,2009,30,175,65,Sold,,,http://www.redfin.com/NV/Las-Vegas/10808-Myrtle-Grove-Ave-89166/home/29759562,GLVAR,2272862,N,Y,36.2973194,-115.3313772
PAST SALE,April-22-2021,Single Family Residential,10806 Mystic Shore Ave,Las Vegas,NV,89166,336000,3,2.5,Manchester Park Pod 207,1801,3049,2009,1,187,65,Sold,,,http://www.redfin.com/NV/Las-Vegas/10806-Mystic-Shore-Ave-89166/home/29759654,GLVAR,2279215,N,Y,36.2967747,-115.3313309
PAST SALE,February-16-2021,Single Family Residential,6984 Comiskey Park St,Las Vegas,NV,89166,335000,3,3.5,Astoria Homes Cliffs Edge Pod 301,2108,2178,2014,66,159,57,Sold,,,http://www.redfin.com/NV/Las-Vegas/6984-Comiskey-Park-St-89166/home/109624787,GLVAR,2259313,N,Y,36.2872745,-115.33278
PAST SALE,February-5-2021,Single Family Residential,7136 Flora Lam St,Las Vegas,NV,89166,430000,4,3.0,Providence Pod 211 - Phase 2,2153,7405,2016,77,200,50,Sold,,,http://www.redfin.com/NV/Las-Vegas/7136-Flora-Lam-St-89166/home/109872213,GLVAR,2257944,N,Y,36.2911931,-115.332604
PAST SALE,April-9-2021,Single Family Residential,7736 Ashby Gate St,Las Vegas,NV,89166,365000,3,2.5,Beazer At Cliffs Edge Pod 205,1930,3485,2013,14,189,31,Sold,,,http://www.redfin.com/NV/Las-Vegas/7736-Ashby-Gate-St-89166/home/65554464,GLVAR,2271937,N,Y,36.3017747,-115.3327198
PAST SALE,February-5-2021,Single Family Residential,10140 Ocicat Ave,Las Vegas,NV,89166,400000,4,2.5,Farm & Hualapai,2239,3485,2010,77,179,65,Sold,,,http://www.redfin.com/NV/Las-Vegas/10140-Ocicat-Ave-89166/home/30469450,GLVAR,2256338,N,Y,36.3020627,-115.316516
PAST SALE,February-26-2021,Single Family Residential,7739 Tree Lane Peak Ct,Las Vegas,NV,89166,302900,3,2.0,POD 106 & 109 AT PROVIDENCE UN,1645,4356,2008,56,184,35,Sold,,,http://www.redfin.com/NV/Las-Vegas/7739-Tree-Lane-Peak-Ct-89166/home/29779476,GLVAR,1991340,N,Y,36.3027658,-115.3174419
PAST SALE,March-4-2021,Single Family Residential,10116 Nash Peak Ave,Las Vegas,NV,89166,410000,5,3.0,Pod 106 & 109 At Providence,2591,4356,2012,50,158,40,Sold,,,http://www.redfin.com/NV/Las-Vegas/10116-Nash-Peak-Ave-89166/home/52626078,GLVAR,2262721,N,Y,36.3048159,-115.3154743
PAST SALE,April-6-2021,Single Family Residential,10112 Nash Peak Ave,Las Vegas,NV,89166,425000,4,3.0,Pod 106 & 109 At Providence,2591,5227,2012,17,164,40,Sold,,,http://www.redfin.com/NV/Las-Vegas/10112-Nash-Peak-Ave-89166/home/52626077,GLVAR,2273029,N,Y,36.3048035,-115.3152659
PAST SALE,February-22-2021,Single Family Residential,10112 Siamese Ct,Las Vegas,NV,89166,320000,3,3.0,Farm & Hualapai,1869,3485,2011,60,171,65,Sold,,,http://www.redfin.com/NV/Las-Vegas/10112-Siamese-Ct-89166/home/40233923,GLVAR,2261765,N,Y,36.3004893,-115.3154048
PAST SALE,March-4-2021,Single Family Residential,10235 Rockridge Peak Ave,Las Vegas,NV,89166,425000,4,3.5,Pod 106 & 109 At Providence,2819,5227,2011,50,151,38,Sold,,,http://www.redfin.com/NV/Las-Vegas/10235-Rockridge-Peak-Ave-89166/home/40234212,GLVAR,2262276,N,Y,36.2996764,-115.3188309
PAST SALE,March-17-2021,Single Family Residential,10223 Rockridge Peak,Las Vegas,NV,89166,405000,4,2.5,Pod 106 & 109 At Providence Unit 1,2819,5227,2012,37,144,37,Sold,,,http://www.redfin.com/NV/Las-Vegas/10223-Rockridge-Peak-Ave-89166/home/52626177,GLVAR,2187080,N,Y,36.2996682,-115.3182521
PAST SALE,March-26-2021,Single Family Residential,10207 Borah Peak Ave,Las Vegas,NV,89166,515500,3,3.5,Pod 106 & 109 At Providence,2819,4792,2012,28,183,38,Sold,,,http://www.redfin.com/NV/Las-Vegas/10207-Borah-Peak-Ave-89166/home/40548866,GLVAR,2268696,N,Y,36.3016345,-115.3175345
PAST SALE,April-1-2021,Single Family Residential,10211 Borah Peak Ave,Las Vegas,NV,89166,600000,5,2.75,Pod 106 & 109 At Providence,3215,4792,2012,22,187,38,Sold,,,http://www.redfin.com/NV/Las-Vegas/10211-Borah-Peak-Ave-89166/home/40548865,GLVAR,2272106,N,Y,36.3015927,-115.3177197
PAST SALE,March-31-2021,Single Family Residential,7636 Heavenly Peak St,Las Vegas,NV,89166,445888,4,2.75,Pod 106 & 109 At Providence,2548,5227,2009,23,175,38,Sold,,,http://www.redfin.com/NV/Las-Vegas/7636-Heavenly-Peak-St-89166/home/29779499,GLVAR,2269385,N,Y,36.3005392,-115.3162382
PAST SALE,March-16-2021,Single Family Residential,10610 Pennant Ave,Las Vegas,NV,89166,334000,3,2.5,Brighton & Kensington Providence Cliffs Edge,1914,4356,2011,38,175,40,Sold,,,http://www.redfin.com/NV/Las-Vegas/10610-Pennant-Ave-89166/home/39990339,GLVAR,2257044,N,Y,36.2888532,-115.3270717
PAST SALE,February-12-2021,Single Family Residential,9928 Markhorn Ct,Las Vegas,NV,89149,297100,3,3.0,Antelope,1572,3049,2007,70,189,54,Sold,,,http://www.redfin.com/NV/Las-Vegas/9928-Markhorn-Ct-89149/home/29023171,GLVAR,2259851,N,Y,36.3047878,-115.3114695
PAST SALE,February-26-2021,Single Family Residential,9924 Kalahari Ct,Las Vegas,NV,89149,260100,2,2.5,Antelope,1303,1742,2008,56,200,54,Sold,,,http://www.redfin.com/NV/Las-Vegas/9924-Kalahari-Ct-89149/home/29023128,GLVAR,2262540,N,Y,36.3039363,-115.3113769
PAST SALE,March-19-2021,Single Family Residential,7869 Territorial St,Las Vegas,NV,89149,307000,3,2.5,Antelope,1560,2178,2005,35,197,54,Sold,,,http://www.redfin.com/NV/Las-Vegas/7869-Territorial-St-89149/home/29023074,GLVAR,2265198,N,Y,36.3046715,-115.3095249
PAST SALE,February-26-2021,Single Family Residential,7321 Monticello Mist St,Las Vegas,NV,89166,345000,4,2.5,Cliffs Edge Pod 115 116 & 117,2136,3485,2013,56,162,40,Sold,,,http://www.redfin.com/NV/Las-Vegas/7321-Monticello-Mist-St-89166/home/52625325,GLVAR,2237558,N,Y,36.2941502,-115.3285532
PAST SALE,March-15-2021,Single Family Residential,7324 Durand Park St,Las Vegas,NV,89166,693000,4,3.25,Franklin Park At Providence Ii-Phase 2A,2416,6098,2015,39,287,60,Sold,,,http://www.redfin.com/NV/Las-Vegas/7324-Durand-Park-St-89166/home/109631735,GLVAR,2261336,N,Y,36.2938494,-115.3292708
PAST SALE,March-17-2021,Single Family Residential,6418 Scotts Crossing St,Las Vegas,NV,89166,410000,4,3.0,Providence Pod 307 Phase 2,2518,4792,2013,37,163,55,Sold,,,http://www.redfin.com/NV/Las-Vegas/6418-Scotts-Crossing-St-89166/home/49786967,GLVAR,2268916,N,Y,36.2778048,-115.3311226
PAST SALE,,Single Family Residential,10224 Marbury Peak Ave,Las Vegas,NV,89166,400000,3,2.0,,2112,5663,2010,,189,,,,,http://www.redfin.com/NV/Las-Vegas/10224-Marbury-Peak-Ave-89166/home/30479957,,,N,Y,36.2917617,-115.3177892
PAST SALE,March-15-2021,Single Family Residential,7109 Silver Ridge Peak St,Las Vegas,NV,89166,440000,4,2.0,Pod 121 At Providence,2112,7841,2010,39,208,43,Sold,,,http://www.redfin.com/NV/Las-Vegas/7109-Silver-Ridge-Peak-St-89166/home/35656689,GLVAR,2256352,N,Y,36.2904507,-115.3179743
PAST SALE,April-12-2021,Single Family Residential,7004 Twin Forks Peak St,Las Vegas,NV,89166,585000,5,3.0,Pod 121 At Providence,3411,6534,2007,11,172,43,Sold,,,http://www.redfin.com/NV/Las-Vegas/7004-Twin-Forks-Peak-St-89166/home/147395278,GLVAR,2271678,N,Y,36.2886267,-115.316215
PAST SALE,February-25-2021,Single Family Residential,9469 Grandview Spring Ave,Las Vegas,NV,89166,315000,4,2.5,Grand Canyon Terrace,2270,2178,2005,57,139,34,Sold,,,http://www.redfin.com/NV/Las-Vegas/9469-Grandview-Spring-Ave-89166/home/29014009,GLVAR,2249291,N,Y,36.3125307,-115.3036912
PAST SALE,February-25-2021,Single Family Residential,7148 Stanley Frederick St,Las Vegas,NV,89166,410000,3,2.0,Providence Pod 211 - Phase 1,1741,5663,2017,57,235,50,Sold,,,http://www.redfin.com/NV/Las-Vegas/7148-Stanley-Frederick-St-89166/home/113713084,GLVAR,2263169,N,Y,36.2918101,-115.3294328
PAST SALE,March-5-2021,Single Family Residential,9630 Wildflower Vista Ave,Las Vegas,NV,89166,560000,4,3.5,Skye Canyon Parcel 14,3235,5663,2017,49,173,55,Sold,,,http://www.redfin.com/NV/Las-Vegas/9630-Wildflower-Vista-Ave-89166/home/109871924,GLVAR,2262641,N,Y,36.3100902,-115.3068627
PAST SALE,February-11-2021,Single Family Residential,10561 Kennedy Peak Ln,Las Vegas,NV,89166,354000,4,2.5,Northern Terrace At Providence,1950,3049,2017,71,182,105,Sold,,,http://www.redfin.com/NV/Las-Vegas/10561-Kennedy-Peak-Ln-89166/home/143185843,GLVAR,2258295,N,Y,36.303489,-115.326646
PAST SALE,March-12-2021,Single Family Residential,10519 Laurel Mountain Ln,Las Vegas,NV,89166,415000,4,3.0,Northern Terrace At Providence,2516,4356,2017,42,165,105,Sold,,,http://www.redfin.com/NV/Las-Vegas/10519-Laurel-Mountain-Ln-89166/home/144624148,GLVAR,2263590,N,Y,36.302731,-115.324943
PAST SALE,March-19-2021,Single Family Residential,10509 Sparks Summit Ln,Las Vegas,NV,89166,525000,4,3.0,Northern Terrace At Providence,2515,4356,2017,35,209,105,Sold,,,http://www.redfin.com/NV/Las-Vegas/10509-Sparks-Summit-Ln-89166/home/143185863,GLVAR,2266360,N,Y,36.3023794,-115.3242476
PAST SALE,,Single Family Residential,10604 Capitol Peak Ave,Las Vegas,NV,89166,320600,3,2.5,,1607,3049,2013,,200,,,,,http://www.redfin.com/NV/Las-Vegas/10604-Capitol-Peak-Ave-89166/home/55520274,,,N,Y,36.3057048,-115.3272569
PAST SALE,March-31-2021,Single Family Residential,10608 Kennedy Peak Ln,Las Vegas,NV,89166,365000,4,2.75,Northern Terrace At Providence,1950,3049,2017,23,187,105,Sold,,,http://www.redfin.com/NV/Las-Vegas/10608-Kennedy-Peak-Ln-89166/home/143185833,GLVAR,2270159,N,Y,36.3036935,-115.326963
PAST SALE,,Single Family Residential,10745 Arusha Ave,Las Vegas,NV,89166,297500,3,2.5,,1675,3485,2009,,178,,,,,http://www.redfin.com/NV/Las-Vegas/10745-Arusha-Ave-89166/home/29760512,,,N,Y,36.2846146,-115.3304745
PAST SALE,March-9-2021,Single Family Residential,6843 Quindio St,Las Vegas,NV,89166,342000,4,2.5,Easton Place At Providence Phase 2,1865,3485,2008,45,183,115,Sold,,,http://www.redfin.com/NV/Las-Vegas/6843-Quindio-St-89166/home/29760627,GLVAR,2255977,N,Y,36.285161,-115.331655
PAST SALE,April-19-2021,Single Family Residential,10835 Cather Ave,Las Vegas,NV,89166,240000,3,2.5,Monticello At Providence,1887,2614,2015,4,127,,Sold,,,http://www.redfin.com/NV/Las-Vegas/10835-Cather-Ave-89166/home/109621160,GLVAR,2273287,N,Y,36.2836391,-115.3320716
PAST SALE,,Single Family Residential,7330 Southern Magnolia St,Las Vegas,NV,89149,585000,3,2.5,,2541,11326,2017,,230,,,,,http://www.redfin.com/NV/Las-Vegas/7330-Southern-Magnolia-St-89149/home/144626246,,,N,Y,36.2944181,-115.3128633
PAST SALE,March-31-2021,Single Family Residential,7310 Southern Magnolia St,Las Vegas,NV,89149,585000,3,2.5,Hualapai / Severence,2541,12632,2017,23,230,79,Sold,,,http://www.redfin.com/NV/Las-Vegas/7310-Southern-Magnolia-St-89149/home/127358980,GLVAR,2268169,N,Y,36.2939763,-115.3128756
