SALE TYPE,SOLD DATE,PROPERTY TYPE,ADDRESS,CITY,STATE OR PROVINCE,ZIP OR POSTAL CODE,PRICE,BEDS,BATHS,LOCATION,SQUARE FEET,LOT SIZE,YEAR BUILT,DAYS ON MARKET,$/SQUARE FEET,HOA/MONTH,STATUS,NEXT OPEN HOUSE START TIME,NEXT OPEN HOUSE END TIME,URL (SEE http://www.redfin.com/buy-a-home/comparative-market-analysis FOR INFO ON PRICING),SOURCE,MLS#,FAVORITE,INTERESTED,LATITUDE,LONGITUDE
PAST SALE,March-29-2021,Single Family Residential,7408 Shelduck St,North Las Vegas,NV,89084,282000,2,1.75,Sun City Aliante Phase 2,1157,3920,2007,34,244,67,Sold,,,http://www.redfin.com/NV/North-Las-Vegas/7408-Shelduck-St-89084/home/29266910,GLVAR,2272035,N,Y,36.2953792,-115.173052
PAST SALE,April-9-2021,Single Family Residential,3729 Pecos Park Ave,North Las Vegas,NV,89081,342000,3,2.5,Pecos Park By Avante Homes,1960,5227,2007,23,174,43,Sold,,,http://www.redfin.com/NV/North-Las-Vegas/3729-Pecos-Park-Ave-89081/home/29016145,GLVAR,2270963,N,Y,36.273215,-115.0923746
PAST SALE,March-17-2021,Single Family Residential,2221 Willow Wren Dr,North Las Vegas,NV,89084,385000,2,1.75,Sun City Aliante,1570,5227,2005,46,245,67,Sold,,,http://www.redfin.com/NV/North-Las-Vegas/2221-Willow-Wren-Dr-89084/home/29014499,GLVAR,2267734,N,Y,36.3049759,-115.1737931
PAST SALE,April-1-2021,Single Family Residential,3753 Avondale Breeze Ave,North Las Vegas,NV,89081,355000,2,1.75,Runvee Hobart,1460,5227,2010,31,243,210,Sold,,,http://www.redfin.com/NV/North-Las-Vegas/3753-Avondale-Breeze-Ave-89081/home/30166890,GLVAR,2276936,N,Y,36.264861,-115.0920759
PAST SALE,February-26-2021,Single Family Residential,2312 Carrier Dove Way,North Las Vegas,NV,89084,348000,3,1.75,Sun City Aliante Phase 1,1718,5663,2005,65,203,180,Sold,,,http://www.redfin.com/NV/North-Las-Vegas/2312-Carrier-Dove-Way-89084/home/29016715,GLVAR,2258560,N,Y,36.3039849,-115.1746732
PAST SALE,February-25-2021,Single Family Residential,4207 Callisto Ave,North Las Vegas,NV,89084,335000,3,1.75,Valley Vista East,1602,4792,2019,66,209,46,Sold,,,http://www.redfin.com/NV/North-Las-Vegas/4207-Callisto-Ave-89084/home/167602281,GLVAR,2261179,N,Y,36.293284,-115.196828
PAST SALE,February-22-2021,Single Family Residential,7460 Lintwhite St,North Las Vegas,NV,89084,340000,2,1.75,Sun City Aliante,1570,7841,2007,69,217,67,Sold,,,http://www.redfin.com/NV/North-Las-Vegas/7460-N-Lintwhite-St-89084/home/29475933,GLVAR,2259604,N,Y,36.2963738,-115.1856043
PAST SALE,March-12-2021,Single Family Residential,4461 Lantern Point Ave Lot 196,Las Vegas,NV,89084,308990,3,2.5,Valley Vista Parcel 3.5,1562,3920,2020,51,198,59,Sold,,,http://www.redfin.com/NV/North-Las-Vegas/4461-Lantern-Point-Ave-89084/unit-196/home/173710228,GLVAR,2248324,N,Y,36.2946796,-115.200968
PAST SALE,March-8-2021,Townhouse,4319 Stardust Moon Ave,North Las Vegas,NV,89084,265000,3,2.0,Valley Vista Parcel 33,1265,2614,2020,55,209,80,Sold,,,http://www.redfin.com/NV/North-Las-Vegas/4319-Stardust-Moon-Ave-89084/home/167600787,GLVAR,2263470,N,Y,36.2953658,-115.1991439
PAST SALE,March-25-2021,Single Family Residential,4335 Luster Ave Lot 38,North Las Vegas,NV,89084,283990,3,2.0,Valley Vista Parcel 35 Amd,1433,2178,2021,38,198,79,Sold,,,http://www.redfin.com/NV/North-Las-Vegas/4335-Luster-Ave-89084/unit-38/home/174111228,GLVAR,2258909,N,Y,36.2933053,-115.1996653
PAST SALE,March-26-2021,Single Family Residential,4454 Lantern Point Ave Lot 175,Las Vegas,NV,89084,311990,3,2.5,Valley Vista Parcel 3.5,1562,3920,2020,37,200,59,Sold,,,http://www.redfin.com/NV/North-Las-Vegas/4454-Lantern-Point-Ave-89084/unit-175/home/173875824,GLVAR,2253550,N,Y,36.2946793,-115.2007394
PAST SALE,April-8-2021,Single Family Residential,2705 Cuckoo Shrike Ave,North Las Vegas,NV,89084,346000,2,1.75,Sun City Aliantephase 1,1570,5663,2007,24,220,67,Sold,,,http://www.redfin.com/NV/North-Las-Vegas/2705-Cuckoo-Shrike-Ave-89084/home/29046971,GLVAR,2268141,N,Y,36.295415,-115.1783787
PAST SALE,April-15-2021,Single Family Residential,7411 Sunray Point St #049,North Las Vegas,NV,89084,272687,3,2.0,Valley Vista Parcel 35 Amd,1310,2178,2021,17,208,79,Sold,,,http://www.redfin.com/NV/North-Las-Vegas/7411-Sunray-Point-St-89084/unit-049/home/174156945,GLVAR,2260988,N,Y,36.2937355,-115.199117
PAST SALE,April-21-2021,Single Family Residential,7904 Lyrebird Dr,North Las Vegas,NV,89084,287000,2,1.75,C N L V 1905-Active Adult,1157,5663,2004,11,248,67,Sold,,,http://www.redfin.com/NV/North-Las-Vegas/7904-Lyrebird-Dr-89084/home/28972011,GLVAR,2278829,N,Y,36.3038968,-115.1872717
PAST SALE,April-22-2021,Single Family Residential,4432 Desert Home Ave,North Las Vegas,NV,89085,395000,3,1.75,Grand Teton Valley N W 80 Pud-45 #2,1589,5663,2008,10,249,64,Sold,,,http://www.redfin.com/NV/North-Las-Vegas/4432-Desert-Home-Ave-89085/home/29265755,GLVAR,2279007,N,Y,36.3123892,-115.2015834
PAST SALE,April-27-2021,Single Family Residential,3609 Fledgling Dr,North Las Vegas,NV,89084,460000,3,2.0,Club Aliante Phase 1,2196,9148,2005,5,209,200,Sold,,,http://www.redfin.com/NV/North-Las-Vegas/3609-Fledgling-Dr-89084/home/29016840,GLVAR,2279316,N,Y,36.2912425,-115.1882212
PAST SALE,April-12-2021,Single Family Residential,7569 Widewing Dr,North Las Vegas,NV,89084,350000,3,2.0,Sun City Aliante Phase 2,1718,5227,2007,20,204,67,Sold,,,http://www.redfin.com/NV/North-Las-Vegas/7569-Widewing-Dr-89084/home/29017531,GLVAR,2279289,N,Y,36.2983476,-115.1748585
PAST SALE,April-28-2021,Single Family Residential,3836 Bowers Hollow Ave,North Las Vegas,NV,89085,400000,3,3.0,Nelson Ranch,2378,5227,2007,4,168,108,Sold,,,http://www.redfin.com/NV/North-Las-Vegas/3836-Bowers-Hollow-Ave-89085/home/29266029,GLVAR,2274694,N,Y,36.3065226,-115.1919265
PAST SALE,April-30-2021,Single Family Residential,7204 Night Heron Way,North Las Vegas,NV,89084,470000,3,2.5,Club Aliante Phase 1,2610,11326,2005,2,180,200,Sold,,,http://www.redfin.com/NV/North-Las-Vegas/7204-Night-Heron-Way-89084/home/29017387,GLVAR,2266317,N,Y,36.2917561,-115.1918571
PAST SALE,April-23-2021,Townhouse,7473 Onyx Star St Lot 36,North Las Vegas,NV,89084,302990,3,2.25,RIGEL POINTE,2114,2508,2020,9,143,99,Sold,,,http://www.redfin.com/NV/North-Las-Vegas/7473-Onyx-Star-ST-89084/unit-36/home/174116281,GLVAR,2259355,N,Y,36.2896772,-115.1802914
PAST SALE,February-1-2021,Single Family Residential,5437 Desert Mirage St,North Las Vegas,NV,89081,330000,3,2.5,Ann & Lawrence - Village 7,1761,3920,2018,90,187,68,Sold,,,http://www.redfin.com/NV/North-Las-Vegas/5437-Desert-Mirage-Rd-89081/home/146418565,GLVAR,2221944,N,Y,36.259265,-115.123495
PAST SALE,March-25-2021,Townhouse,6724 Lavender Lilly Ln #1,North Las Vegas,NV,89084,207000,2,2.0,North Valley Court,1128,1307,2004,38,184,145,Sold,,,http://www.redfin.com/NV/North-Las-Vegas/6724-Lavender-Lilly-Ln-89084/unit-1/home/29001780,GLVAR,2268813,N,Y,36.283346,-115.184792
PAST SALE,February-17-2021,Condo/Co-op,6660 Flaminian Ln #202,North Las Vegas,NV,89084,209950,2,2.0,Terrasini At Aliante,1255,1255,2006,74,167,185,Sold,,,http://www.redfin.com/NV/North-Las-Vegas/6660-Flaminian-Ln-89084/unit-202/home/29047236,GLVAR,2253654,N,Y,36.2813485,-115.2029496
PAST SALE,March-25-2021,Single Family Residential,2408 Briggsdale Ave,Las Vegas,NV,89081,285000,3,2.5,Ann Losee Village 6,1726,2614,2012,38,165,90,Sold,,,http://www.redfin.com/NV/North-Las-Vegas/2408-Briggsdale-Ave-89081/home/40547738,GLVAR,2270184,N,Y,36.2590359,-115.117795
PAST SALE,February-23-2021,Single Family Residential,4116 Gliding Gulls Ave,North Las Vegas,NV,89084,308000,3,2.0,Aliante Parcel 15,1724,5227,2005,68,179,17,Sold,,,http://www.redfin.com/NV/North-Las-Vegas/4116-Gliding-Gulls-Ave-89084/home/29018107,GLVAR,2244631,N,Y,36.2826438,-115.1951455
PAST SALE,February-21-2021,Single Family Residential,4405 Valley Quail Way,Las Vegas,NV,89084,340000,3,3.0,Cove At Aliante,1914,5227,2005,70,178,39,Sold,,,http://www.redfin.com/NV/North-Las-Vegas/4405-Valley-Quail-Way-89084/home/29046787,GLVAR,2244345,N,Y,36.2822166,-115.200055
PAST SALE,March-4-2021,Townhouse,6717 Lookout Lodge Ln #2,North Las Vegas,NV,89084,230000,2,2.5,North Valley Court,1332,871,2004,59,173,145,Sold,,,http://www.redfin.com/NV/North-Las-Vegas/6717-Lookout-Lodge-Ln-89084/unit-2/home/29000646,GLVAR,2264907,N,Y,36.284002,-115.185736
PAST SALE,April-16-2021,Townhouse,3404 President Pride Pl #2,North Las Vegas,NV,89084,239900,2,2.5,North Valley Court,1332,871,2004,16,180,39,Sold,,,http://www.redfin.com/NV/North-Las-Vegas/3404-President-Pride-Pl-89084/unit-2/home/28981358,GLVAR,2279075,N,Y,36.2822975,-115.1862863
PAST SALE,April-21-2021,Single Family Residential,4204 Sprints Race Ave,North Las Vegas,NV,89084,345000,3,2.0,Aliante Parcel 15,1918,5663,2006,11,180,,Sold,,,http://www.redfin.com/NV/North-Las-Vegas/4204-Sprints-Race-Ave-89084/home/29018090,GLVAR,2270332,N,Y,36.2834017,-115.1967202
PAST SALE,April-23-2021,Townhouse,3613 Indigo Flower St #1,North Las Vegas,NV,89084,220000,2,2.0,North Valley Court,1128,1307,2004,9,195,145,Sold,,,http://www.redfin.com/NV/North-Las-Vegas/3613-Indigo-Flower-Ave-89084/unit-1/home/28981115,GLVAR,2279253,N,Y,36.2811328,-115.1886653
PAST SALE,April-13-2021,Townhouse,6676 Lavender Lilly Ln #3,North Las Vegas,NV,89084,259000,3,2.5,North Valley Court,1588,871,2004,19,163,145,Sold,,,http://www.redfin.com/NV/North-Las-Vegas/6676-Lavender-Lilly-Ln-89084/unit-3/home/28981069,GLVAR,2258480,N,Y,36.2825459,-115.1856833
PAST SALE,February-1-2021,Single Family Residential,3418 Singer Ln,North Las Vegas,NV,89084,415000,3,2.0,CLUB ALIANTE UNIT 3 PHASE 1,2196,7841,2006,90,189,180,Sold,,,http://www.redfin.com/NV/North-Las-Vegas/3418-Singer-Ln-89084/home/29016846,GLVAR,2259975,N,Y,36.2938561,-115.1868317
PAST SALE,March-12-2021,Townhouse,6665 Lookout Lodge Ln #2,North Las Vegas,NV,89084,237000,2,2.5,North Valley Court,1332,871,2004,51,178,145,Sold,,,http://www.redfin.com/NV/North-Las-Vegas/6665-Lookout-Lodge-Ln-89084/unit-2/home/28981083,GLVAR,2262500,N,Y,36.2828263,-115.1872391
PAST SALE,March-17-2021,Single Family Residential,7724 Fruit Dove St,North Las Vegas,NV,89084,360000,2,1.75,Sun City Aliante Phase 2,1570,5227,2004,46,229,67,Sold,,,http://www.redfin.com/NV/North-Las-Vegas/7724-Fruit-Dove-St-89084/home/28980890,GLVAR,2266056,N,Y,36.300945,-115.1829179
PAST SALE,,Single Family Residential,3456 Flinthead Dr,North Las Vegas,NV,89084,201000,3,2.0,,1246,4356,2004,,161,,,,,http://www.redfin.com/NV/North-Las-Vegas/3456-Flinthead-Dr-89084/home/29000487,,,N,Y,36.2988494,-115.1860675
PAST SALE,March-15-2021,Single Family Residential,2364 Mourning Warbler Ave,North Las Vegas,NV,89084,297000,3,1.75,Sun City Aliante Phase 2,1420,3920,2006,48,209,45,Sold,,,http://www.redfin.com/NV/North-Las-Vegas/2364-Mourning-Warbler-Ave-89084/home/29017678,GLVAR,2264841,N,Y,36.2996554,-115.1750438
PAST SALE,March-17-2021,Single Family Residential,6953 Diver Ave,North Las Vegas,NV,89084,310000,3,2.0,Aliante Parcel 26,1692,5227,2004,46,183,52,Sold,,,http://www.redfin.com/NV/North-Las-Vegas/6953-Diver-Ave-89084/home/28980567,GLVAR,2265560,N,Y,36.286594,-115.1823157
PAST SALE,February-12-2021,Condo/Co-op,6695 Caporetto Ln #201,North Las Vegas,NV,89084,220000,3,1.75,Terrasini At Aliante,1454,,2006,79,151,185,Sold,,,http://www.redfin.com/NV/North-Las-Vegas/6695-Caporetto-Ln-89084/unit-201/home/29047295,GLVAR,2258612,N,Y,36.2817887,-115.2045243
PAST SALE,February-5-2021,Single Family Residential,220 Heathrow Lake Ave,North Las Vegas,NV,89084,330000,3,3.0,Square At North Ranch Amd,2036,3485,2017,86,162,70,Sold,,,http://www.redfin.com/NV/North-Las-Vegas/220-Heathrow-Lake-Ave-89084/home/144624802,GLVAR,2247543,N,Y,36.2893432,-115.137584
PAST SALE,March-10-2021,Single Family Residential,1713 Dream Canyon Ave,North Las Vegas,NV,89084,510000,3,2.5,Vts Village 3 Parcel 306 At Tule Spgs,2582,6534,2019,53,198,56,Sold,,,http://www.redfin.com/NV/North-Las-Vegas/1713-Dream-Canyon-Ave-89084/home/166071431,GLVAR,2265467,N,Y,36.284444,-115.165625
PAST SALE,February-3-2021,Single Family Residential,3025 Kingbird Dr,North Las Vegas,NV,89084,295000,3,2.0,Sun City Aliante Amd,1420,3920,2005,88,208,39,Sold,,,http://www.redfin.com/NV/North-Las-Vegas/3025-Kingbird-Dr-89084/home/29016891,GLVAR,2262112,N,Y,36.3043946,-115.1822231
PAST SALE,April-12-2021,Single Family Residential,7412 Petrel St,North Las Vegas,NV,89084,375000,3,2.75,Sun City Aliante Phase 2,1850,5227,2007,20,203,67,Sold,,,http://www.redfin.com/NV/North-Las-Vegas/7412-Petrel-St-89084/home/29266964,GLVAR,2280268,N,Y,36.2956548,-115.1712919
PAST SALE,April-30-2021,Single Family Residential,7640 Chaffinch St,North Las Vegas,NV,89084,312500,3,1.75,Sun City Aliante Phase 1,1246,5663,2007,2,251,67,Sold,,,http://www.redfin.com/NV/North-Las-Vegas/7640-Chaffinch-St-89084/home/29266760,GLVAR,2278358,N,Y,36.3001058,-115.1726815
PAST SALE,April-29-2021,Single Family Residential,3732 Gallowtree Ave,North Las Vegas,NV,89081,325000,3,2.5,Sunrise Canyon,1543,3920,2004,3,211,61,Sold,,,http://www.redfin.com/NV/North-Las-Vegas/3732-Gallowtree-Ave-89081/home/29002266,GLVAR,2281144,N,Y,36.2705184,-115.093206
PAST SALE,April-27-2021,Single Family Residential,5944 Montina Vines St,North Las Vegas,NV,89081,309000,2,2.0,Runvee Hobart,1220,4356,2015,5,253,210,Sold,,,http://www.redfin.com/NV/North-Las-Vegas/5944-Montina-Vines-St-89081/home/109571990,GLVAR,2278908,N,Y,36.2683387,-115.0907324
PAST SALE,February-8-2021,Single Family Residential,2812 Dotted Wren Ave,North Las Vegas,NV,89084,290000,3,2.0,Aliante Parcel 26,1895,5663,2003,83,153,52,Sold,,,http://www.redfin.com/NV/North-Las-Vegas/2812-Dotted-Wren-Ave-89084/home/28971727,GLVAR,2247960,N,Y,36.284678,-115.1804167
PAST SALE,February-11-2021,Single Family Residential,3532 Flinthead Dr,North Las Vegas,NV,89084,305000,2,1.75,Sun City Aliante Phase 1,1570,5663,2004,80,194,60,Sold,,,http://www.redfin.com/NV/North-Las-Vegas/3532-Flinthead-Dr-89084/home/28997384,GLVAR,2233038,N,Y,36.2975739,-115.1866233
PAST SALE,April-30-2021,Single Family Residential,1124 Oceanwood Ave,North Las Vegas,NV,89086,299500,3,2.5,Springs at Centennial Ranch,1888,4356,2004,2,159,60,Sold,,,http://www.redfin.com/NV/North-Las-Vegas/1124-E-Oceanwood-Ave-89086/home/29018509,GLVAR,2268720,N,Y,36.2779496,-115.1273318
PAST SALE,March-5-2021,Single Family Residential,1720 Evening Bluff Pl,North Las Vegas,NV,89084,330000,3,2.0,Eldorado R1 60 #10-Tm #18 Phase 1,1837,6098,2003,58,180,13,Sold,,,http://www.redfin.com/NV/North-Las-Vegas/1720-Evening-Bluff-Pl-89084/home/29952110,GLVAR,2268600,N,Y,36.2798788,-115.1660578
PAST SALE,April-21-2021,Single Family Residential,7044 Denio Island St,North Las Vegas,NV,89084,360000,3,2.5,Villages At Tule Spgs Village 3 - Parcel 304,1893,4356,2019,11,190,35,Sold,,,http://www.redfin.com/NV/North-Las-Vegas/7044-Denio-Island-St-89084/home/166516824,GLVAR,2277506,N,Y,36.2885617,-115.1613087
PAST SALE,March-17-2021,Townhouse,7469 Onyx Star St Lot 37,North Las Vegas,NV,89084,298990,3,2.25,RIGEL POINTE,2114,2508,2020,46,141,99,Sold,,,http://www.redfin.com/NV/North-Las-Vegas/7469-Onyx-Star-ST-89084/unit-37/home/173655249,GLVAR,2247264,N,Y,36.2896772,-115.1802914
PAST SALE,March-31-2021,Townhouse,4655 Frasers Owl Ave #101,North Las Vegas,NV,89084,231990,2,1.75,VALLEY VISTA PARCEL 3.1 PHASE,1210,1307,2020,32,192,159,Sold,,,http://www.redfin.com/NV/North-Las-Vegas/Unknown-89084/unit-101/home/167600890,GLVAR,2256211,N,Y,36.296291,-115.20528
PAST SALE,March-11-2021,Single Family Residential,7729 Rock Wren Ct,North Las Vegas,NV,89084,440000,2,1.75,Sun City Aliante Phase 2,1908,6970,2006,52,231,67,Sold,,,http://www.redfin.com/NV/North-Las-Vegas/7729-Rock-Wren-Ct-89084/home/29017558,GLVAR,2268248,N,Y,36.3011912,-115.1772207
PAST SALE,March-19-2021,Single Family Residential,2408 Mourning Warbler Ave,North Las Vegas,NV,89084,285000,3,1.75,Sun City Aliante Phase 2,1420,3920,2006,44,201,67,Sold,,,http://www.redfin.com/NV/North-Las-Vegas/2408-Mourning-Warbler-Ave-89084/home/29017673,GLVAR,2257536,N,Y,36.299579,-115.1757385
PAST SALE,April-30-2021,Single Family Residential,2624 Desert Sparrow Ave,North Las Vegas,NV,89084,329900,3,1.75,SUN CITY ALIANTE UNIT 8 PHASE,1420,4792,2006,2,232,60,Sold,,,http://www.redfin.com/NV/North-Las-Vegas/2624-Desert-Sparrow-Ave-89084/home/29017588,GLVAR,2073614,N,Y,36.3004901,-115.1778692
PAST SALE,March-3-2021,Single Family Residential,8125 Meadow Falls St,North Las Vegas,NV,89085,364000,3,2.5,Grand Teton Valley NW 80 R1-60 #1,2108,6534,2006,60,173,64,Sold,,,http://www.redfin.com/NV/North-Las-Vegas/8125-Meadow-Falls-St-89085/home/29058668,GLVAR,2270549,N,Y,36.3087792,-115.2020233
PAST SALE,March-5-2021,Single Family Residential,312 San Antonio River St,North Las Vegas,NV,89084,360000,3,2.5,Tierra Santa Phase 1,2044,5663,2019,58,176,70,Sold,,,http://www.redfin.com/NV/North-Las-Vegas/312-San-Antonio-River-St-89084/home/166072106,GLVAR,2265103,N,Y,36.2884615,-115.1368271
PAST SALE,April-6-2021,Single Family Residential,7168 Ashcroft St,North Las Vegas,NV,89084,335000,3,3.0,Square At North Ranch Amd,2036,3485,2017,26,165,65,Sold,,,http://www.redfin.com/NV/North-Las-Vegas/7168-Ashcroft-St-89084/home/144624812,GLVAR,2221844,N,Y,36.2904617,-115.1373704
PAST SALE,March-3-2021,Single Family Residential,1706 Vibrant Barn Ave,North Las Vegas,NV,89086,359229,3,2.0,Reserves at Saddlebrook,1589,4792,2020,60,226,58,Sold,,,http://www.redfin.com/NV/NORTH-LAS-VEGAS/1706-VIBRANT-BARN-AVE-89086/home/170968671,GLVAR,2250768,N,Y,36.2802,-115.1243
PAST SALE,April-2-2021,Single Family Residential,7428 Chipping Sparrow St,North Las Vegas,NV,89084,355000,3,1.75,Sun City Aliantephase 1,1718,5227,2007,30,207,67,Sold,,,http://www.redfin.com/NV/North-Las-Vegas/7428-Chipping-Sparrow-St-89084/home/29046998,GLVAR,2271984,N,Y,36.2956691,-115.1777766
PAST SALE,February-26-2021,Single Family Residential,4466 Lantern Point Ave Lot 178,Las Vegas,NV,89084,310990,3,2.5,Valley Vista Parcel 3.5,1562,3920,2020,65,199,59,Sold,,,http://www.redfin.com/NV/North-Las-Vegas/4466-Lantern-Point-Ave-89084/unit-178/home/173524984,GLVAR,2242210,N,Y,36.2946799,-115.2011313
PAST SALE,March-19-2021,Single Family Residential,4337 Luster Ave #0037,North Las Vegas,NV,89084,265990,2,2.0,Valley Vista Parcel 35 Amd,1310,2178,2021,44,203,79,Sold,,,http://www.redfin.com/NV/North-Las-Vegas/4337-Luster-Ave-89084/unit-0037/home/174111231,GLVAR,2258901,N,Y,36.2933816,-115.1996664
PAST SALE,April-16-2021,Single Family Residential,2621 Lark Sparrow St,North Las Vegas,NV,89084,365000,3,2.0,Sun City Aliantephase 1,1718,6098,2007,16,212,67,Sold,,,http://www.redfin.com/NV/North-Las-Vegas/2621-Lark-Sparrow-St-89084/home/29266770,GLVAR,2281402,N,Y,36.2977169,-115.1783787
PAST SALE,March-16-2021,Single Family Residential,3305 Fernbird Ln,North Las Vegas,NV,89084,360000,3,2.0,Sun City Aliante Phase 1,1718,6098,2004,47,210,67,Sold,,,http://www.redfin.com/NV/North-Las-Vegas/3305-Fernbird-Ln-89084/home/29001129,GLVAR,2268332,N,Y,36.2999341,-115.1847706
PAST SALE,April-29-2021,Single Family Residential,1812 Luxor Lights Ave,Las Vegas,NV,89081,330000,3,2.5,Ann & Lawrence - Village 7,1761,3920,2019,3,187,71,Sold,,,http://www.redfin.com/NV/North-Las-Vegas/2852-E-Craig-Rd-89030/home/166574095,GLVAR,2280510,N,Y,36.2410152,-115.1101566
PAST SALE,,Single Family Residential,5865 Lakeland Village Dr,North Las Vegas,NV,89081,315000,3,2.5,,2065,11326,2005,,153,,,,,http://www.redfin.com/NV/North-Las-Vegas/5865-Lakeland-Village-Dr-89081/home/29048379,,,N,Y,36.2669287,-115.1103761
PAST SALE,February-19-2021,Single Family Residential,6383 Ashland Crest St,Las Vegas,NV,89115,426325,3,2.5,Centennial Novak Phase 4,2638,3800,2020,72,162,66,Sold,,,http://www.redfin.com/NV/Las-Vegas/6383-Ashland-Ave-89145/home/161754728,GLVAR,2256766,N,Y,36.276382,-115.07508
PAST SALE,March-8-2021,Single Family Residential,2621 Torch Ave,North Las Vegas,NV,89081,340000,3,2.0,SHADOW CREEK MANOR,1946,6534,2005,55,175,53,Sold,,,http://www.redfin.com/NV/North-Las-Vegas/2621-Torch-Ave-89081/home/29018874,GLVAR,2265888,N,Y,36.272936,-115.113768
PAST SALE,March-16-2021,Single Family Residential,3613 Carisbrook Dr,North Las Vegas,NV,89081,272500,3,3.0,Terracina,1487,4356,2005,47,183,62,Sold,,,http://www.redfin.com/NV/North-Las-Vegas/3613-E-Carisbrook-Dr-89081/home/29016361,GLVAR,2271759,N,Y,36.2715885,-115.0959214
PAST SALE,March-25-2021,Single Family Residential,6309 Sterling Cap St,North Las Vegas,NV,89081,325000,3,2.5,Pecos Park By Avante Homes,1960,4792,2005,38,166,43,Sold,,,http://www.redfin.com/NV/North-Las-Vegas/6309-Sterling-Cap-St-89081/home/29016655,GLVAR,2272221,N,Y,36.2750394,-115.0920296
PAST SALE,April-12-2021,Single Family Residential,6052 Puesta Del Sol St,North Las Vegas,NV,89081,315000,3,2.5,Terrasol,2159,5663,2005,20,146,62,Sold,,,http://www.redfin.com/NV/North-Las-Vegas/6052-Puesta-Del-Sol-St-89081/home/29016375,GLVAR,2277779,N,Y,36.2707074,-115.0945315
PAST SALE,March-23-2021,Single Family Residential,4333 Luster Ave,North Las Vegas,NV,89084,273092,3,2.0,Valley Vista Parcel 35 Amd,1310,2178,2021,40,208,79,Sold,,,http://www.redfin.com/NV/North-Las-Vegas/4333-Luster-Ave-89084/home/167601296,GLVAR,2260389,N,Y,36.293299,-115.199381
PAST SALE,March-31-2021,Single Family Residential,4445 Lantern Point Ave Lot 200,Las Vegas,NV,89084,310990,3,2.5,Valley Vista Parcel 3.5,1562,3920,2020,32,199,59,Sold,,,http://www.redfin.com/NV/North-Las-Vegas/4445-Lantern-Point-Ave-89084/unit-200/home/173972628,GLVAR,2256828,N,Y,36.2946788,-115.2004454
PAST SALE,February-19-2021,Single Family Residential,3640 Corte Bella Hills Ave,North Las Vegas,NV,89081,445998,2,2.5,Runvee Hobart,2249,5227,2015,72,198,210,Sold,,,http://www.redfin.com/NV/North-Las-Vegas/3640-Corte-Bella-Hills-Ave-89081/home/109572800,GLVAR,2262402,N,Y,36.2638169,-115.0944388
PAST SALE,March-8-2021,Single Family Residential,5820 Sagamore Canyon St,North Las Vegas,NV,89081,400000,3,2.0,Runvee Hobart,2154,6534,2006,55,186,210,Sold,,,http://www.redfin.com/NV/North-Las-Vegas/5820-Sagamore-Canyon-St-89081/home/29263828,GLVAR,2261812,N,Y,36.2659694,-115.0968943
PAST SALE,March-10-2021,Single Family Residential,3725 Garnet Heights Ave,North Las Vegas,NV,89081,305000,2,2.0,Runvee Hobart,1220,4356,2017,53,250,208,Sold,,,http://www.redfin.com/NV/North-Las-Vegas/3725-Garnet-Heights-Ave-89081/home/143141238,GLVAR,2255530,N,Y,36.2670339,-115.0933732
PAST SALE,March-18-2021,Single Family Residential,3737 Rocklin Peak Ave,North Las Vegas,NV,89081,324500,2,2.0,Runvee Hobart,1698,5663,2007,45,191,210,Sold,,,http://www.redfin.com/NV/North-Las-Vegas/3737-Rocklin-Peak-Ave-89081/home/29264477,GLVAR,2265607,N,Y,36.2677599,-115.0927014
PAST SALE,March-26-2021,Single Family Residential,5804 Keystone Crest St,North Las Vegas,NV,89081,427000,3,3.0,Runvee Hobart,2774,6098,2007,37,154,210,Sold,,,http://www.redfin.com/NV/North-Las-Vegas/5804-Keystone-Crest-St-89081/home/29263842,GLVAR,2265603,N,Y,36.265388,-115.0958519
PAST SALE,March-29-2021,Single Family Residential,3817 Citrus Heights Ave,North Las Vegas,NV,89081,310000,2,2.0,Runvee Hobart,1363,4792,2015,34,227,208,Sold,,,http://www.redfin.com/NV/North-Las-Vegas/3817-Citrus-Heights-Ave-89081/home/109571993,GLVAR,2268271,N,Y,36.2684425,-115.0913347
PAST SALE,February-24-2021,Single Family Residential,2612 Cliff Lodge Ave,North Las Vegas,NV,89081,480000,3,2.5,Shadows,3080,13068,2006,67,156,77,Sold,,,http://www.redfin.com/NV/North-Las-Vegas/2612-E-Cliff-Lodge-Ave-89081/home/29048396,GLVAR,2260933,N,Y,36.262814,-115.114036
PAST SALE,March-31-2021,Single Family Residential,7312 Redhead Dr,North Las Vegas,NV,89084,460000,3,2.0,Club Aliante Phase 2,2196,7841,2007,32,209,200,Sold,,,http://www.redfin.com/NV/North-Las-Vegas/7312-Redhead-Dr-89084/home/29017422,GLVAR,2271743,N,Y,36.2932042,-115.1904444
PAST SALE,March-8-2021,Single Family Residential,3713 Lower Saxon Ave,North Las Vegas,NV,89085,377500,3,2.5,Nelson Ranch,2821,6534,2006,55,134,108,Sold,,,http://www.redfin.com/NV/North-Las-Vegas/3713-Lower-Saxon-Ave-89085/home/29266006,GLVAR,2262849,N,Y,36.311825,-115.189926
PAST SALE,March-8-2021,Single Family Residential,5852 Country Lake Ln,North Las Vegas,NV,89081,325000,3,2.5,Runvee Hobart East Parcel 3A-2,1686,4356,2017,55,193,52,Sold,,,http://www.redfin.com/NV/North-Las-Vegas/5852-Country-Lake-Ln-89081/home/143185736,GLVAR,2261350,N,Y,36.267018,-115.081842
PAST SALE,March-31-2021,Single Family Residential,4132 Seclusion Bay Ave,North Las Vegas,NV,89081,335000,3,2.0,Runvee Hobart East Parcel 3A-2,1741,4792,2015,32,192,54,Sold,,,http://www.redfin.com/NV/North-Las-Vegas/4132-Seclusion-Bay-Ave-89081/home/109620979,GLVAR,2260688,N,Y,36.2675971,-115.0837363
PAST SALE,March-15-2021,Single Family Residential,5288 Pendergrass St,Las Vegas,NV,89081,243000,3,2.5,Ann Losee Village 6,1458,2614,2006,48,167,90,Sold,,,http://www.redfin.com/NV/North-Las-Vegas/5288-Pendergrass-St-89081/home/29312508,GLVAR,2255474,N,Y,36.2562002,-115.1173253
PAST SALE,March-1-2021,Single Family Residential,3121 Gannon Ridge Ave,North Las Vegas,NV,89081,287000,3,2.0,Shadow Spgs,1728,4792,2004,62,166,48,Sold,,,http://www.redfin.com/NV/North-Las-Vegas/3121-E-Gannon-Ridge-Ave-89081/home/28982099,GLVAR,2262828,N,Y,36.2720937,-115.1053031
PAST SALE,April-15-2021,Single Family Residential,6005 Calumet Point St,North Las Vegas,NV,89081,338000,3,2.0,Shadow Spgs,1888,9583,2005,17,179,56,Sold,,,http://www.redfin.com/NV/North-Las-Vegas/6005-Calumet-Point-St-89081/home/29010077,GLVAR,2272379,N,Y,36.2694404,-115.105002
PAST SALE,March-5-2021,Single Family Residential,3006 Risen Star St,North Las Vegas,NV,89081,411244,3,2.0,Palmer Ranch - The Heights,1885,5830,2020,58,218,72,Sold,,,http://www.redfin.com/NV/North-Las-Vegas/3006-Risen-Star-ST-89081/home/172762902,GLVAR,2222541,N,Y,36.266572,-115.0999753
PAST SALE,February-17-2021,Single Family Residential,6608 Roseton St,North Las Vegas,NV,89086,452449,2,2.25,BINION 80 - PHASE 1,2086,6098,2020,74,217,198,Sold,,,http://www.redfin.com/NV/North-Las-Vegas/Roseton-St-89086/home/170466213,GLVAR,2187361,N,Y,36.276683,-115.116889
PAST SALE,March-19-2021,Single Family Residential,6612 Roseton St,North Las Vegas,NV,89086,422180,3,1.75,BINION 80 - PHASE 1,1770,4792,2020,44,239,198,Sold,,,http://www.redfin.com/NV/North-Las-Vegas/Roseton-St-89086/home/170466214,GLVAR,2187140,N,Y,36.276683,-115.116889
PAST SALE,March-23-2021,Single Family Residential,8212 Mesa Bloom St,North Las Vegas,NV,89085,380000,3,2.5,Grand Teton Valley NW 80 Pud-45 #1,2275,4792,2005,40,167,64,Sold,,,http://www.redfin.com/NV/North-Las-Vegas/8212-Mesa-Bloom-St-89085/home/29058698,GLVAR,2265599,N,Y,36.3096928,-115.1985729
PAST SALE,February-17-2021,Single Family Residential,2109 Pelican Sky Beach Ave,North Las Vegas,NV,89081,305000,3,2.0,Tropical & Lawrence,1783,4356,2007,74,171,47,Sold,,,http://www.redfin.com/NV/North-Las-Vegas/2109-Pelican-Sky-Beach-Ave-89081/home/29477098,GLVAR,2261431,N,Y,36.2682658,-115.1203828
PAST SALE,March-2-2021,Single Family Residential,5633 Midnight Breeze St,North Las Vegas,NV,89081,295000,3,2.0,Ann & Lawrence West,1535,6098,2004,61,192,32,Sold,,,http://www.redfin.com/NV/North-Las-Vegas/5633-Midnight-Breeze-St-89081/home/28997009,GLVAR,2261433,N,Y,36.2628853,-115.1234867
PAST SALE,February-25-2021,Single Family Residential,3809 Bowers Hollow Ave,North Las Vegas,NV,89085,329000,3,2.0,Nelson Ranch,1768,5227,2007,66,186,98,Sold,,,http://www.redfin.com/NV/North-Las-Vegas/3809-Bowers-Hollow-Ave-89085/home/29266079,GLVAR,2255973,N,Y,36.3061226,-115.1907918
PAST SALE,March-16-2021,Single Family Residential,2221 Carrier Dove Way,North Las Vegas,NV,89084,360000,3,1.75,Sun City Aliante Phase 1,1718,4792,2005,47,210,67,Sold,,,http://www.redfin.com/NV/North-Las-Vegas/2221-Carrier-Dove-Way-89084/home/29016724,GLVAR,2263633,N,Y,36.3033971,-115.1739321
PAST SALE,March-28-2021,Single Family Residential,2117 N Geese Ave,North Las Vegas,NV,89084,320000,3,2.0,sun city aliante,1420,4792,2007,35,225,44,Sold,,,http://www.redfin.com/NV/North-Las-Vegas/2117-Geese-Ave-89084/home/29266838,GLVAR,2265126,N,Y,36.2989378,-115.1724036
PAST SALE,April-15-2021,Single Family Residential,2332 Carrier Dove Way,North Las Vegas,NV,89084,364000,2,1.75,Sun City Aliante Phase 1,1570,4792,2005,17,232,67,Sold,,,http://www.redfin.com/NV/North-Las-Vegas/2332-Carrier-Dove-Way-89084/home/29016720,GLVAR,2248602,N,Y,36.3039566,-115.1755069
PAST SALE,March-29-2021,Single Family Residential,7649 Lily Trotter St,North Las Vegas,NV,89084,271000,2,1.75,C N L V 1905-Active Adult,1157,4356,2003,34,234,67,Sold,,,http://www.redfin.com/NV/North-Las-Vegas/7649-Lily-Trotter-St-89084/home/29955000,GLVAR,2270648,N,Y,36.2994476,-115.1887075
PAST SALE,March-12-2021,Single Family Residential,7851 Lyrebird Dr,North Las Vegas,NV,89084,315000,2,2.0,C N L V 1905-Active Adult,1570,5663,2003,51,201,55,Sold,,,http://www.redfin.com/NV/North-Las-Vegas/7851-Lyrebird-Dr-89084/home/28977614,GLVAR,2268160,N,Y,36.303346,-115.1877812
PAST SALE,April-7-2021,Single Family Residential,7344 Shelduck St,North Las Vegas,NV,89084,295000,3,1.75,Sun City Aliante Phase 2,1246,3920,2007,25,237,67,Sold,,,http://www.redfin.com/NV/North-Las-Vegas/7344-Shelduck-St-89084/home/29267119,GLVAR,2278240,N,Y,36.2948028,-115.1731447
PAST SALE,March-11-2021,Single Family Residential,5609 Distant Drum St,North Las Vegas,NV,89081,326500,3,2.5,Rose Lake,1689,6098,2006,52,193,32,Sold,,,http://www.redfin.com/NV/North-Las-Vegas/5609-Distant-Drum-St-89081/home/29048842,GLVAR,2267792,N,Y,36.2622786,-115.1031025
PAST SALE,February-5-2021,Single Family Residential,5844 Armide St,North Las Vegas,NV,89081,370000,3,2.5,Rose Lake 20,2356,6534,2008,86,157,45,Sold,,,http://www.redfin.com/NV/North-Las-Vegas/5844-Armide-St-89081/home/29477079,GLVAR,2248631,N,Y,36.2670513,-115.1002301
PAST SALE,March-3-2021,Single Family Residential,3172 Calamus Pointe Ave,North Las Vegas,NV,89081,290000,3,2.0,Shadow Spgs,1888,6098,2004,60,154,52,Sold,,,http://www.redfin.com/NV/North-Las-Vegas/3172-Calamus-Pointe-Ave-89081/home/29007455,GLVAR,2266567,N,Y,36.2705194,-115.1031952
PAST SALE,March-2-2021,Single Family Residential,5933 Armide St,North Las Vegas,NV,89081,355000,3,3.0,Rose Lake 20,2258,6098,2008,61,157,45,Sold,,,http://www.redfin.com/NV/North-Las-Vegas/5933-Armide-St-89081/home/29477178,GLVAR,2263625,N,Y,36.2683069,-115.1008324
PAST SALE,March-23-2021,Single Family Residential,3040 Eaglesfield Ave Lot 17,North Las Vegas,NV,89081,346275,3,2.5,Cielo Vista,2276,3920,2020,40,152,65,Sold,,,http://www.redfin.com/NV/North-Las-Vegas/3040-Eaglesfield-AVE-89081/unit-17/home/173267712,GLVAR,2233820,N,Y,36.266572,-115.0999753
PAST SALE,February-4-2021,Condo/Co-op,4720 Apulia Dr #101,North Las Vegas,NV,89084,205000,2,2.0,Terrasini At Aliante,1196,,2006,87,171,185,Sold,,,http://www.redfin.com/NV/North-Las-Vegas/4720-Apulia-Dr-89084/unit-101/home/29047408,GLVAR,2263845,N,Y,36.2821364,-115.2054506
PAST SALE,April-27-2021,Single Family Residential,4425 Penguin Ave,North Las Vegas,NV,89084,360000,3,2.25,Aliante Parcel 12A Phase 1,2132,3920,2006,5,169,,Sold,,,http://www.redfin.com/NV/North-Las-Vegas/4425-Penguin-Ave-89084/home/29017328,GLVAR,2285207,N,Y,36.2852358,-115.2007497
PAST SALE,April-22-2021,Single Family Residential,6852 Whisper Canyon Pl,North Las Vegas,NV,89084,395000,3,3.5,Commerce & Revere,2011,6098,2020,10,196,35,Sold,,,http://www.redfin.com/NV/North-Las-Vegas/6852-Whisper-Canyon-Pl-89084/home/146418558,GLVAR,2282853,N,Y,36.285756,-115.151389
PAST SALE,April-23-2021,Single Family Residential,1117 Azure Ave,North Las Vegas,NV,89081,350000,3,2.0,Carmena,1851,6098,2004,9,189,25,Sold,,,http://www.redfin.com/NV/North-Las-Vegas/1117-E-Azure-Ave-89081/home/28998256,GLVAR,2279999,N,Y,36.272418,-115.1275634
PAST SALE,April-27-2021,Single Family Residential,6424 Amanda Michelle Ln,North Las Vegas,NV,89086,343000,3,2.5,Donna Deer Spgs,2262,6098,2006,5,152,23,Sold,,,http://www.redfin.com/NV/North-Las-Vegas/6424-Amanda-Michelle-Ln-89086/home/29476956,GLVAR,2262832,N,Y,36.2772889,-115.1226528
PAST SALE,April-29-2021,Single Family Residential,6310 Standing Elm St,North Las Vegas,NV,89081,292000,3,2.5,Centennial Bruce West 40,1595,2614,2005,3,183,86,Sold,,,http://www.redfin.com/NV/North-Las-Vegas/6310-Standing-Elm-St-89081/home/29005294,GLVAR,2284180,N,Y,36.2747834,-115.12622
PAST SALE,February-17-2021,Single Family Residential,1023 Edgestone Mark Ave,North Las Vegas,NV,89081,280000,3,2.0,Cobblestone Ridge North 80,1475,5227,2002,74,190,14,Sold,,,http://www.redfin.com/NV/North-Las-Vegas/1023-Edgestone-Mark-Ave-89081/home/29854430,GLVAR,2260244,N,Y,36.2490683,-115.1282583
PAST SALE,February-22-2021,Single Family Residential,1014 Edgestone Mark Ave,North Las Vegas,NV,89081,315000,3,2.5,Cobblestone Ridge North 80,1830,6970,2001,69,172,15,Sold,,,http://www.redfin.com/NV/North-Las-Vegas/1014-Edgestone-Mark-Ave-89081/unit-400/home/29854128,GLVAR,2261241,N,Y,36.2494706,-115.1286035
PAST SALE,March-5-2021,Single Family Residential,2821 Ground Robin Dr,North Las Vegas,NV,89084,275000,2,1.75,Sun City Aliante,1157,3920,2004,58,238,67,Sold,,,http://www.redfin.com/NV/North-Las-Vegas/2821-Ground-Robin-Dr-89084/home/28980763,GLVAR,2260529,N,Y,36.3051267,-115.1794903
PAST SALE,March-23-2021,Single Family Residential,2908 Ground Robin Dr,North Las Vegas,NV,89084,292000,2,1.75,Sun City Aliante,1157,3920,2004,40,252,67,Sold,,,http://www.redfin.com/NV/North-Las-Vegas/2908-Ground-Robin-Dr-89084/home/28980209,GLVAR,2270217,N,Y,36.3055283,-115.1799998
PAST SALE,February-16-2021,Single Family Residential,7648 Fruit Dove St,North Las Vegas,NV,89084,380000,3,2.75,Sun City Aliante Phase 1,1850,5227,2004,75,205,67,Sold,,,http://www.redfin.com/NV/North-Las-Vegas/7648-Fruit-Dove-St-89084/home/29005097,GLVAR,2260024,N,Y,36.2994569,-115.1838905
PAST SALE,March-12-2021,Single Family Residential,624 Founders Creek Ave,North Las Vegas,NV,89084,424998,3,2.5,Commerce & Revere,2415,3920,2018,51,176,37,Sold,,,http://www.redfin.com/NV/North-Las-Vegas/624-Founders-Creek-Ave-89084/home/147876769,GLVAR,2259158,N,Y,36.286298,-115.1516367
PAST SALE,February-2-2021,Single Family Residential,6473 Raven Hall St,North Las Vegas,NV,89084,260000,3,2.5,Rome 20,1479,2614,2004,89,176,83,Sold,,,http://www.redfin.com/NV/North-Las-Vegas/6473-Raven-Hall-St-89084/home/29007124,GLVAR,2258103,N,Y,36.278173,-115.1414145
PAST SALE,March-5-2021,Single Family Residential,6476 Raven Hall St,Las Vegas,NV,89084,264900,3,2.5,Rome 20,1656,2614,2004,58,160,83,Sold,,,http://www.redfin.com/NV/North-Las-Vegas/6476-Raven-Hall-St-89084/home/28995967,GLVAR,2239890,N,Y,36.278234,-115.1410092
PAST SALE,April-21-2021,Single Family Residential,725 Picasso Picture Ct,North Las Vegas,NV,89081,355000,3,2.0,Cobblestone Manor South,1750,6534,2004,11,203,20,Sold,,,http://www.redfin.com/NV/North-Las-Vegas/725-Picasso-Picture-Ct-89081/home/29004335,GLVAR,2271587,N,Y,36.2508411,-115.1314316
PAST SALE,March-15-2021,Single Family Residential,5601 Lowell Cliff St,North Las Vegas,NV,89081,393000,3,2.5,Sedona Ranch Parcel 41 & 42,2460,5663,2020,48,160,57,Sold,,,http://www.redfin.com/NV/North-Las-Vegas/Ayers-Cliff-St-89081/home/170369076,GLVAR,2265430,N,Y,36.2686,-115.1204
PAST SALE,April-5-2021,Single Family Residential,6241 Lawrence St,North Las Vegas,NV,89081,345000,3,2.5,Centennial Bruce East 40,2527,6098,2004,27,137,36,Sold,,,http://www.redfin.com/NV/North-Las-Vegas/6241-N-Lawrence-St-89081/home/28982385,GLVAR,2265117,N,Y,36.2743046,-115.1217031
PAST SALE,February-19-2021,Single Family Residential,7437 N Grassquit St,North Las Vegas,NV,89084,366500,3,2.0,Sun City Aliantephase 2,1850,5663,2007,72,198,67,Sold,,,http://www.redfin.com/NV/North-Las-Vegas/7437-N-Grassquit-St-89084/home/29059239,GLVAR,2253903,N,Y,36.2961195,-115.1754143
PAST SALE,April-16-2021,Single Family Residential,7429 Shelduck St,North Las Vegas,NV,89084,414900,2,1.5,Sun City Aliante Phase 2,1908,8276,2007,16,217,67,Sold,,,http://www.redfin.com/NV/North-Las-Vegas/7429-Shelduck-St-89084/home/29266936,GLVAR,2271632,N,Y,36.2962713,-115.1731447
PAST SALE,March-30-2021,Single Family Residential,3804 Garnet Heights Ave,North Las Vegas,NV,89081,282500,2,2.0,Runvee Hobart,1363,4356,2011,33,207,207,Sold,,,http://www.redfin.com/NV/North-Las-Vegas/3804-Garnet-Heights-Ave-89081/home/40232905,GLVAR,2265644,N,Y,36.2674895,-115.091731
PAST SALE,March-30-2021,Single Family Residential,3940 Fragrant Jasmine Ave,Las Vegas,NV,89081,280000,3,2.0,Laurel Canyon,1305,4792,2006,33,215,50,Sold,,,http://www.redfin.com/NV/North-Las-Vegas/3940-Fragrant-Jasmine-Ave-89081/home/29265659,GLVAR,2261158,N,Y,36.2604148,-115.087883
PAST SALE,March-19-2021,Single Family Residential,624 Brown Breeches Ave,North Las Vegas,NV,89081,290000,3,2.5,Fifth & Farm,1631,4792,2004,44,178,67,Sold,,,http://www.redfin.com/NV/North-Las-Vegas/624-E-Brown-Breeches-Ave-89081/home/28995877,GLVAR,2260465,N,Y,36.2658167,-115.1327518
PAST SALE,March-26-2021,Single Family Residential,5717 Saltrock Grove St,North Las Vegas,NV,89081,335000,3,2.0,Sedona Ranch Parcel 41 & 42,1649,4356,2020,37,203,57,Sold,,,http://www.redfin.com/NV/North-Las-Vegas/5717-Saltrock-Grove-St-89081/home/170368860,GLVAR,2273139,N,Y,36.2638504,-115.1290947
PAST SALE,April-27-2021,Single Family Residential,5337 Brazelton St,North Las Vegas,NV,89081,276000,3,2.5,Ann Losee Village 6,1458,2614,2010,5,189,90,Sold,,,http://www.redfin.com/NV/North-Las-Vegas/5337-Brazelton-St-89081/home/30192838,GLVAR,2281418,N,Y,36.2568998,-115.118993
PAST SALE,March-3-2021,Single Family Residential,1204 Nevada Blaze Ave,North Las Vegas,NV,89081,280500,3,2.0,Carmena,1851,6098,2005,60,152,29,Sold,,,http://www.redfin.com/NV/North-Las-Vegas/1204-Nevada-Blaze-Ave-89081/home/29019734,GLVAR,2262464,N,Y,36.2713614,-115.1269612
PAST SALE,April-27-2021,Single Family Residential,4337 San Gabriel Hill Ave,Las Vegas,NV,89115,310000,3,3.0,Lamb & Tropical,1995,5227,2006,5,155,47,Sold,,,http://www.redfin.com/NV/Las-Vegas/4337-San-Gabriel-Hill-Ave-89115/home/29046349,GLVAR,2274610,N,Y,36.269422,-115.0784081
PAST SALE,March-11-2021,Single Family Residential,514 Regal Robin Way,North Las Vegas,NV,89084,267500,3,2.0,Parks,1280,4356,2001,52,209,68,Sold,,,http://www.redfin.com/NV/North-Las-Vegas/514-Regal-Robin-Way-89084/home/29851669,GLVAR,2265272,N,Y,36.2807703,-115.1489652
PAST SALE,March-22-2021,Single Family Residential,516 Lava Beds Way,North Las Vegas,NV,89084,345000,3,2.5,Parks,1953,5227,2001,41,177,68,Sold,,,http://www.redfin.com/NV/North-Las-Vegas/516-Lava-Beds-Way-89084/home/29851691,GLVAR,2262082,N,Y,36.2814606,-115.1494284
PAST SALE,February-12-2021,Single Family Residential,7149 Piute Mesa St,Las Vegas,NV,89084,370000,3,2.5,Kb Village 3 At Tule Spgs,1845,4792,2018,79,201,63,Sold,,,http://www.redfin.com/NV/North-Las-Vegas/Piute-Mesa-St-89084/home/146418432,GLVAR,2262573,N,Y,36.291223,-115.161363
PAST SALE,,Single Family Residential,1639 Dire Wolf Ave,North Las Vegas,NV,89084,448719,3,2.5,,2166,7405,2020,,207,,,,,http://www.redfin.com/NV/North-Las-Vegas/1639-Dire-Wolf-Ave-89084/home/167606549,,,N,Y,36.290801,-115.166028
PAST SALE,March-10-2021,Single Family Residential,520 Riding Crop Ave,North Las Vegas,NV,89081,310000,3,2.5,Fifth & Farm,1969,5227,2004,53,157,65,Sold,,,http://www.redfin.com/NV/North-Las-Vegas/520-E-Riding-Crop-Ave-89081/home/28999027,GLVAR,2270005,N,Y,36.2685256,-115.1339563
PAST SALE,February-10-2021,Single Family Residential,6121 Rockrose Purple St,North Las Vegas,NV,89081,307000,3,2.0,Carmena,1851,6970,2004,81,166,29,Sold,,,http://www.redfin.com/NV/North-Las-Vegas/6121-Rockrose-Purple-St-89081/home/28996433,GLVAR,2263663,N,Y,36.2713274,-115.1300418
PAST SALE,March-25-2021,Single Family Residential,1004 Nevada Blaze Ave,North Las Vegas,NV,89081,277000,3,2.0,Carmena,1501,6098,2004,38,185,25,Sold,,,http://www.redfin.com/NV/North-Las-Vegas/1004-Nevada-Blaze-Ave-89081/home/28996647,GLVAR,2264457,N,Y,36.2713698,-115.1292311
PAST SALE,March-12-2021,Single Family Residential,2613 Desert Sparrow Ave,North Las Vegas,NV,89084,285000,2,2.0,Sun City Aliante Phase 2,1157,4792,2006,51,246,67,Sold,,,http://www.redfin.com/NV/North-Las-Vegas/2613-Desert-Sparrow-Ave-89084/home/29017651,GLVAR,2269985,N,Y,36.2999657,-115.1777302
PAST SALE,April-26-2021,Single Family Residential,3124 Madame Plantier Ave,North Las Vegas,NV,89081,380000,3,2.75,Rose Lake,2294,8276,2005,6,166,25,Sold,,,http://www.redfin.com/NV/North-Las-Vegas/3124-Madame-Plantier-Ave-89081/home/29049572,GLVAR,2282030,N,Y,36.2629067,-115.1044692
PAST SALE,February-1-2021,Single Family Residential,3753 Rocklin Peak Ave,North Las Vegas,NV,89081,360000,2,2.0,Runvee Hobart,1460,4356,2014,90,247,210,Sold,,,http://www.redfin.com/NV/North-Las-Vegas/3753-Rocklin-Peak-Ave-89081/home/65549953,GLVAR,2257317,N,Y,36.2677503,-115.0921223
PAST SALE,April-1-2021,Single Family Residential,3745 Jasmine Heights Ave,North Las Vegas,NV,89081,374900,2,2.0,RUNVEE HOBART UNIT 4F,1893,6098,2010,31,198,200,Sold,,,http://www.redfin.com/NV/North-Las-Vegas/3745-Jasmine-Heights-Ave-89081/unit-8908/home/30166893,GLVAR,2270138,N,Y,36.2641323,-115.0924929
PAST SALE,March-5-2021,Single Family Residential,3025 Celtic Ash Rd,North Las Vegas,NV,89081,460000,3,2.0,Palmer Ranch - The Estates,2111,6588,2020,58,218,72,Sold,,,http://www.redfin.com/NV/North-Las-Vegas/Unknown-89086/home/170969163,GLVAR,2222523,N,Y,36.2802,-115.1243
PAST SALE,March-25-2021,Single Family Residential,2928 Covatta Ct,North Las Vegas,NV,89086,278000,3,2.0,Portico East,1617,4792,2004,38,172,59,Sold,,,http://www.redfin.com/NV/North-Las-Vegas/2928-Covatta-Ct-89086/home/28999454,GLVAR,2273673,N,Y,36.2791776,-115.108523
PAST SALE,February-12-2021,Single Family Residential,3217 Green Ice Ave,North Las Vegas,NV,89081,340000,3,2.5,Rose Lake,2065,6098,2006,79,165,32,Sold,,,http://www.redfin.com/NV/North-Las-Vegas/3217-Green-Ice-Ave-89081/home/29048864,GLVAR,2264432,N,Y,36.2617967,-115.1025929
PAST SALE,April-12-2021,Single Family Residential,5616 Pacesetter St,North Las Vegas,NV,89081,396000,3,2.5,Rose Lake,2355,7841,2005,20,168,32,Sold,,,http://www.redfin.com/NV/North-Las-Vegas/5616-Pacesetter-St-89081/home/28964938,GLVAR,2273737,N,Y,36.2626414,-115.1036121
PAST SALE,February-22-2021,Single Family Residential,6340 Gulf Waters St,North Las Vegas,NV,89081,325000,3,2.25,Centennial & Lamb,1841,3485,2019,69,177,66,Sold,,,http://www.redfin.com/NV/North-Las-Vegas/6340-Gulf-Waters-St-89081/home/167594487,GLVAR,2262775,N,Y,36.2759194,-115.0812249
PAST SALE,March-5-2021,Single Family Residential,2095 Roundtop Ct,North Las Vegas,NV,89081,312999,3,2.5,Ann Losee Village 1,1913,4356,2016,58,164,60,Sold,,,http://www.redfin.com/NV/North-Las-Vegas/2095-Roundtop-Ct-89081/home/113139421,GLVAR,2257795,N,Y,36.2631184,-115.1208461
PAST SALE,February-10-2021,Single Family Residential,6245 Halstead Ct,North Las Vegas,NV,89081,332000,3,2.5,Shadow Spgs,2040,4356,2006,81,163,56,Sold,,,http://www.redfin.com/NV/North-Las-Vegas/6245-Halstead-Ct-89081/home/29049205,GLVAR,2260152,N,Y,36.274025,-115.10528
PAST SALE,,Condo/Co-op,6316 Desert Leaf St #2,North Las Vegas,NV,89081,192000,3,2.5,,1253,,2005,,153,,,,,http://www.redfin.com/NV/North-Las-Vegas/6316-Desert-Leaf-St-89081/unit-2/home/29016295,,,N,Y,36.2753873,-115.0886938
PAST SALE,February-19-2021,Single Family Residential,6312 Legend Falls St,North Las Vegas,NV,89081,275000,3,2.0,Pecos Park By Avante Homes,1467,4792,2005,72,187,43,Sold,,,http://www.redfin.com/NV/North-Las-Vegas/6312-Legend-Falls-St-89081/home/29008754,GLVAR,2260835,N,Y,36.2752366,-115.0932805
PAST SALE,April-30-2021,Single Family Residential,6833 Mandible St,North Las Vegas,NV,89084,330000,3,2.5,Aliante Parcel 12A Phase 2,1687,6098,2006,2,196,65,Sold,,,http://www.redfin.com/NV/North-Las-Vegas/6833-Mandible-St-89084/home/29046730,GLVAR,2282706,N,Y,36.2844355,-115.1984802
PAST SALE,February-12-2021,Condo/Co-op,4625 Centisimo Dr #103,North Las Vegas,NV,89084,154000,1,0.75,Terrasini At Aliante,862,,2006,79,179,185,Sold,,,http://www.redfin.com/NV/North-Las-Vegas/4625-Centisimo-Dr-89084/unit-103/home/29047286,GLVAR,2263285,N,Y,36.2803883,-115.2036907
PAST SALE,,Condo/Co-op,6785 Caporetto Ln #203,North Las Vegas,NV,89084,180000,3,2.0,,1255,,2006,,143,,,,,http://www.redfin.com/NV/North-Las-Vegas/6785-Caporetto-Ln-89084/unit-203/home/29267082,,,N,Y,36.283038,-115.204617
PAST SALE,April-29-2021,Condo/Co-op,6725 Abruzzi Dr #103,North Las Vegas,NV,89084,167000,1,1.0,Terrasini At Aliante,862,,2006,3,194,185,Sold,,,http://www.redfin.com/NV/North-Las-Vegas/6725-Abruzzi-Dr-89084/unit-103/home/28970159,GLVAR,2285436,N,Y,36.2821496,-115.206099
PAST SALE,April-28-2021,Single Family Residential,8039 Meadow Falls St,North Las Vegas,NV,89085,410000,3,3.0,Grand Teton Valley NW 80 R1-60 #1,2394,6534,2007,4,171,64,Sold,,,http://www.redfin.com/NV/North-Las-Vegas/8039-Meadow-Falls-St-89085/home/29058688,GLVAR,2280759,N,Y,36.306954,-115.2020233
PAST SALE,April-26-2021,Single Family Residential,1005 Bob Barney Ave,North Las Vegas,NV,89086,327500,3,3.0,Donna Deer Spgs,2361,6534,2005,6,139,23,Sold,,,http://www.redfin.com/NV/North-Las-Vegas/1005-E-Bob-Barney-Ct-89086/home/29018351,GLVAR,2273409,N,Y,36.2821349,-115.1293006
PAST SALE,March-11-2021,Single Family Residential,6546 Cinnabar Coast Ln,North Las Vegas,NV,89084,280000,3,2.0,The Parks,1280,4792,2001,52,219,,Sold,,,http://www.redfin.com/NV/North-Las-Vegas/6546-Cinnabar-Coast-Ln-89084/home/29851471,GLVAR,2258831,N,Y,36.2799069,-115.1448424
PAST SALE,April-15-2021,Single Family Residential,5637 Ingleside St,North Las Vegas,NV,89081,325000,3,2.5,Ann Losee Village 2,1875,3485,2012,17,173,65,Sold,,,http://www.redfin.com/NV/North-Las-Vegas/5637-Ingleside-St-89081/home/52051219,GLVAR,2278209,N,Y,36.2626486,-115.1190394
PAST SALE,March-31-2021,Single Family Residential,5521 Ayers Cliff St,North Las Vegas,NV,89081,278000,3,2.5,Ann Losee Village 4,1579,3920,2007,32,176,49,Sold,,,http://www.redfin.com/NV/North-Las-Vegas/5521-Ayers-Cliff-St-89081/home/29312868,GLVAR,2260406,N,Y,36.2605142,-115.118993
PAST SALE,March-30-2021,Single Family Residential,6730 Petrified Forest St,North Las Vegas,NV,89084,285000,3,2.5,Parks,1871,4356,2001,33,152,68,Sold,,,http://www.redfin.com/NV/North-Las-Vegas/6730-Petrified-Forest-St-89084/home/29851479,GLVAR,2277205,N,Y,36.2829215,-115.1523004
PAST SALE,February-18-2021,Single Family Residential,2112 Puffer Beach Ct,North Las Vegas,NV,89081,265000,3,2.0,Tropical & Lawrence,1352,4792,2007,73,196,47,Sold,,,http://www.redfin.com/NV/North-Las-Vegas/2112-Puffer-Beach-Ct-89081/home/29477108,GLVAR,2260375,N,Y,36.2672643,-115.1202439
PAST SALE,March-5-2021,Single Family Residential,5932 Bellows Beach St,North Las Vegas,NV,89081,286000,3,2.0,Tropical & Lawrence,1579,4356,2007,58,181,47,Sold,,,http://www.redfin.com/NV/North-Las-Vegas/5932-Bellows-Beach-St-89081/home/29476818,GLVAR,2264027,N,Y,36.2680948,-115.119549
PAST SALE,March-12-2021,Single Family Residential,1005 Edel Hest Ave,North Las Vegas,NV,89081,335000,3,2.0,Sedona Ranch Parcel 41 & 42,1649,4356,2020,51,203,57,Sold,,,http://www.redfin.com/NV/North-Las-Vegas/Edel-Hest-Ave-89081/home/170368891,GLVAR,2261053,N,Y,36.2686,-115.1204
PAST SALE,March-10-2021,Single Family Residential,6641 Rockhouse St,North Las Vegas,NV,89086,322379,3,2.5,Losee & Rome,1859,3485,2020,53,173,73,Sold,,,http://www.redfin.com/NV/North-Las-Vegas/Rockhouse-St-89086/home/169224895,GLVAR,2237136,N,Y,36.281489,-115.116249
PAST SALE,March-1-2021,Single Family Residential,1118 Blissful Plains Ave,North Las Vegas,NV,89086,345000,3,2.5,Kb Village 4 At Tule Spgs Parcel 403,1840,3049,2020,62,188,58,Sold,,,http://www.redfin.com/NV/North-Las-Vegas/1118-Blissful-Plains-Ave-89086/home/169224557,GLVAR,2264037,N,Y,36.287365,-115.111835
PAST SALE,March-24-2021,Single Family Residential,2411 Arrington Ave,North Las Vegas,NV,89086,416835,2,1.75,BINION 80 - PHASE 1,1727,4792,2020,39,241,198,Sold,,,http://www.redfin.com/NV/North-Las-Vegas/Arrington-Ave-89086/home/170466255,GLVAR,2187168,N,Y,36.276683,-115.116889
PAST SALE,February-1-2021,Single Family Residential,117 Hunters Paradise Ave,North Las Vegas,NV,89084,345000,3,3.0,North Ranch Estate,1984,6098,2008,90,174,30,Sold,,,http://www.redfin.com/NV/North-Las-Vegas/117-Hunters-Paradise-Ave-89084/home/29597093,GLVAR,2256832,N,Y,36.2899755,-115.1418082
PAST SALE,February-1-2021,Single Family Residential,1422 Wild Grain Ave,North Las Vegas,NV,89086,298994,2,2.0,Landings at Saddlebrook,1203,3485,2020,90,249,53,Sold,,,http://www.redfin.com/NV/North-Las-Vegas/1422-Wild-Grain-AVE-89086/home/173935980,GLVAR,2255184,N,Y,36.288672,-115.124628
PAST SALE,February-12-2021,Townhouse,3520 Glorious Iris #1,North Las Vegas,NV,89084,170000,2,2.0,North Valley Court Unit 1,1128,1307,2004,79,151,145,Sold,,,http://www.redfin.com/NV/North-Las-Vegas/3520-Glorious-Iris-Pl-89084/unit-1/home/28981032,GLVAR,2178769,N,Y,36.281839,-115.1878976
PAST SALE,March-26-2021,Townhouse,3413 President Pride Pl #3,North Las Vegas,NV,89084,251000,2,2.5,North Valley Court,1588,871,2004,37,158,145,Sold,,,http://www.redfin.com/NV/North-Las-Vegas/3413-President-Pride-Pl-89084/unit-3/home/28981350,GLVAR,2271734,N,Y,36.2824338,-115.1868202
PAST SALE,February-22-2021,Single Family Residential,3620 Herring Gull Ln,North Las Vegas,NV,89084,292000,2,1.75,Sun City Aliante,1157,5663,2004,69,252,67,Sold,,,http://www.redfin.com/NV/North-Las-Vegas/3620-Herring-Gull-Ln-89084/home/28976714,GLVAR,2256199,N,Y,36.3052743,-115.1883833
PAST SALE,March-22-2021,Single Family Residential,4332 Browns Creek Ave,Las Vegas,NV,89084,325000,3,1.75,Valley Vista Parcel 14,1353,4792,2019,41,240,35,Sold,,,http://www.redfin.com/NV/North-Las-Vegas/4332-Browns-Creek-Ave-89084/home/167599576,GLVAR,2269584,N,Y,36.30151,-115.19954
PAST SALE,February-25-2021,Single Family Residential,7159 Steubling Glen St,North Las Vegas,NV,89084,317500,3,2.5,Square At North Ranch Amd,2067,3485,2017,66,154,70,Sold,,,http://www.redfin.com/NV/North-Las-Vegas/7159-Steubling-Glen-St-89084/home/143188429,GLVAR,2207551,N,Y,36.2901757,-115.139052
PAST SALE,March-3-2021,Single Family Residential,321 Tyler Texas Pl,North Las Vegas,NV,89084,350000,3,2.5,Tierra Santa Phase 1,1849,3920,2017,60,189,70,Sold,,,http://www.redfin.com/NV/North-Las-Vegas/321-Tyler-Texas-Pl-89084/home/143189245,GLVAR,2265491,N,Y,36.2897829,-115.1365505
PAST SALE,March-8-2021,Single Family Residential,7113 Solana Ridge Dr,North Las Vegas,NV,89084,320000,3,2.0,Tierra Santa Phase 1,1502,3920,2015,55,213,70,Sold,,,http://www.redfin.com/NV/North-Las-Vegas/7113-Solana-Ridge-Dr-89084/home/109635405,GLVAR,2227082,N,Y,36.2895773,-115.1372917
PAST SALE,February-3-2021,Townhouse,4640 Fuchsia Nights Ave #101,North Las Vegas,NV,89084,227422,2,1.75,Valley Vista Parcel 31 Phase 1,1210,1307,2020,88,188,159,Sold,,,http://www.redfin.com/NV/North-Las-Vegas/Unknown-89084/unit-101/home/167600955,GLVAR,2234688,N,Y,36.295973,-115.204865
PAST SALE,March-24-2021,Single Family Residential,7415 Sunray Point St #051,North Las Vegas,NV,89084,271990,3,2.0,Valley Vista Parcel 35 Amd,1310,2178,2021,39,208,79,Sold,,,http://www.redfin.com/NV/North-Las-Vegas/7415-Sunray-Point-St-89084/unit-051/home/174268183,GLVAR,2263623,N,Y,36.2937355,-115.199117
PAST SALE,April-9-2021,Single Family Residential,4428 Carrier Dove Ave,North Las Vegas,NV,89084,325000,3,2.5,Aliante Parcel 12A Phase 1,2132,3920,2005,23,152,,Sold,,,http://www.redfin.com/NV/North-Las-Vegas/4428-W-Carrier-Dove-St-89084/home/29017318,GLVAR,2278577,N,Y,36.2849958,-115.2009349
PAST SALE,March-11-2021,Single Family Residential,1305 Hudson Creek Pl,North Las Vegas,NV,89084,433466,3,2.5,Village 3 Parcel 305 At Tule Spgs,2611,5000,2020,52,166,53,Sold,,,http://www.redfin.com/NV/North-Las-Vegas/1305-Hudson-Creek-Pl-89084/home/167607241,GLVAR,2236304,N,Y,36.286998,-115.159911
PAST SALE,March-10-2021,Single Family Residential,7617 Broadwing Dr,North Las Vegas,NV,89084,430000,2,1.75,Sun City Aliante Phase 1,2104,6098,2004,53,204,44,Sold,,,http://www.redfin.com/NV/North-Las-Vegas/7617-Broadwing-Dr-89084/home/28997838,GLVAR,2241914,N,Y,36.2984767,-115.1871096
PAST SALE,March-4-2021,Single Family Residential,6932 Forest Gate St,North Las Vegas,NV,89084,402000,3,2.5,Aliante Parcels 30A & 30B,2451,7405,2006,59,164,45,Sold,,,http://www.redfin.com/NV/North-Las-Vegas/6932-Forest-Gate-St-89084/home/29267667,GLVAR,2271234,N,Y,36.2874282,-115.1713382
PAST SALE,April-22-2021,Single Family Residential,7445 Chaffinch St,Las Vegas,NV,89084,370000,2,1.75,Sun City Aliante Phase 2,1570,6098,2007,10,236,67,Sold,,,http://www.redfin.com/NV/North-Las-Vegas/7445-Chaffinch-St-89084/home/29266933,GLVAR,2279676,N,Y,36.2966207,-115.1719404
PAST SALE,April-16-2021,Single Family Residential,6531 Giant Oak St,North Las Vegas,NV,89084,330000,3,2.0,Eldorado R1 60 #11-Tm #18,1977,6098,2004,16,167,23,Sold,,,http://www.redfin.com/NV/North-Las-Vegas/6531-Giant-Oak-St-89084/home/29004649,GLVAR,2262757,N,Y,36.2800993,-115.169856
PAST SALE,March-16-2021,Single Family Residential,4843 Cutting Diamond Ct,North Las Vegas,NV,89081,286000,3,2.0,Cobblestone Ridge North 80,1458,7405,2002,47,196,14,Sold,,,http://www.redfin.com/NV/North-Las-Vegas/4843-Cutting-Diamond-Ct-89081/home/29854424,GLVAR,2271485,N,Y,36.2484431,-115.128212
PAST SALE,March-25-2021,Single Family Residential,4921 White Jade St,North Las Vegas,NV,89081,275000,3,2.0,Galena Pointe,1503,7405,2003,38,183,25,Sold,,,http://www.redfin.com/NV/North-Las-Vegas/4921-White-Jade-St-89081/home/28982590,GLVAR,2260039,N,Y,36.2494552,-115.1315011
PAST SALE,April-15-2021,Single Family Residential,4852 Stormy Ridge St,North Las Vegas,NV,89081,270000,3,2.0,Cobblestone Ridge North 80,1476,5227,2002,17,183,14,Sold,,,http://www.redfin.com/NV/North-Las-Vegas/4852-Stormy-Ridge-St-89081/home/29854426,GLVAR,2265641,N,Y,36.2485588,-115.1285826
PAST SALE,March-31-2021,Single Family Residential,4909 Stormy Ridge St,North Las Vegas,NV,89081,302000,3,2.0,Cobblestone Ridge North 80,1750,5227,2002,32,173,12,Sold,,,http://www.redfin.com/NV/North-Las-Vegas/4909-Stormy-Ridge-St-89081/home/29854403,GLVAR,2268346,N,Y,36.249051,-115.1290458
PAST SALE,,Single Family Residential,5325 N Chino Heights St,North Las Vegas,NV,89081,310000,3,2.5,,1756,3920,2005,,177,,,,,http://www.redfin.com/NV/North-Las-Vegas/5325-N-Chino-Heights-St-89081/home/29020413,,,N,Y,36.2564595,-115.1332151
PAST SALE,February-3-2021,Single Family Residential,7048 Millers Run St,North Las Vegas,NV,89084,345000,3,3.0,Square At North Ranch Amd,2471,3485,2015,88,140,65,Sold,,,http://www.redfin.com/NV/North-Las-Vegas/7048-Millers-Run-St-89084/home/109633380,GLVAR,2248731,N,Y,36.2881629,-115.1385034
PAST SALE,March-30-2021,Townhouse,7024 Coyote Mesa St,North Las Vegas,NV,89086,296000,3,2.5,Kb Village 4 At Tule Spgs Parcel P401,1736,2178,2019,33,171,144,Sold,,,http://www.redfin.com/NV/North-Las-Vegas/N-Starling-Mesa-St-89086/home/169224247,GLVAR,2263297,N,Y,36.288223,-115.127045
PAST SALE,February-26-2021,Single Family Residential,1105 Bobby Pollard Ave,North Las Vegas,NV,89086,338000,3,1.75,Donna Deer Spgs,1947,8276,2005,65,174,23,Sold,,,http://www.redfin.com/NV/North-Las-Vegas/1105-Bobby-Pollard-Ave-89086/home/29008096,GLVAR,2267690,N,Y,36.2806237,-115.1279803
PAST SALE,March-22-2021,Single Family Residential,6536 Starling Mesa St,North Las Vegas,NV,89086,330000,3,2.5,Centennial Bruce North 40,1888,8276,2005,41,175,56,Sold,,,http://www.redfin.com/NV/North-Las-Vegas/6536-N-Starling-Mesa-St-89086/home/29012494,GLVAR,2257534,N,Y,36.2796071,-115.1263126
PAST SALE,March-9-2021,Townhouse,6749 Lookout Lodge Ln #1,North Las Vegas,NV,89084,208000,2,2.0,North Valley Court,1128,1307,2005,54,184,145,Sold,,,http://www.redfin.com/NV/North-Las-Vegas/6749-Lookout-Lodge-Ln-89084/unit-1/home/29010720,GLVAR,2267926,N,Y,36.285065,-115.184472
PAST SALE,February-9-2021,Single Family Residential,528 Brown Breeches Ave,North Las Vegas,NV,89081,283000,3,2.5,Fifth & Farm,1648,4792,2004,82,172,65,Sold,,,http://www.redfin.com/NV/North-Las-Vegas/528-E-Brown-Breeches-Ave-89081/home/28996578,GLVAR,2260801,N,Y,36.2657976,-115.1337247
PAST SALE,April-16-2021,Single Family Residential,7745 Fruit Dove St,North Las Vegas,NV,89084,310000,2,1.75,Sun City Aliante Phase 2,1570,5663,2004,16,197,67,Sold,,,http://www.redfin.com/NV/North-Las-Vegas/7745-Fruit-Dove-St-89084/home/28980998,GLVAR,2256991,N,Y,36.3018767,-115.1830105
PAST SALE,March-24-2021,Single Family Residential,1013 Sunny Acres Ave,North Las Vegas,NV,89081,270000,3,2.5,Centennial Bruce West 40,1595,2614,2007,39,169,86,Sold,,,http://www.redfin.com/NV/North-Las-Vegas/1013-Sunny-Acres-Ave-89081/home/29597135,GLVAR,2270117,N,Y,36.2736679,-115.1287215
PAST SALE,February-11-2021,Single Family Residential,6150 Darnley St,North Las Vegas,NV,89081,325000,3,2.5,Centennial Azure,2344,4792,2005,80,139,65,Sold,,,http://www.redfin.com/NV/North-Las-Vegas/6150-Darnley-St-89081/home/29044010,GLVAR,2249771,N,Y,36.2719827,-115.1081987
PAST SALE,April-15-2021,Single Family Residential,3153 Calamus Pointe Ave,North Las Vegas,NV,89081,303000,3,2.0,Shadow Spgs,1728,4356,2004,17,175,56,Sold,,,http://www.redfin.com/NV/North-Las-Vegas/3153-Calamus-Pointe-Ave-89081/home/29004009,GLVAR,2269121,N,Y,36.2701051,-115.1039827
PAST SALE,,Single Family Residential,3004 Bublin Bay Ave,North Las Vegas,NV,89081,301000,3,2.0,,1650,8276,2007,,182,,,,,http://www.redfin.com/NV/North-Las-Vegas/3004-Bublin-Bay-Ave-89081/home/29048898,,,N,Y,36.2686827,-115.1075037
PAST SALE,March-26-2021,Townhouse,7020 Coyote Mesa St,North Las Vegas,NV,89086,286153,3,2.5,Kb Village 4 At Tule Spgs Parcel P401,1453,1742,2019,37,197,144,Sold,,,http://www.redfin.com/NV/North-Las-Vegas/N-Starling-Mesa-St-89086/home/169224246,GLVAR,2263315,N,Y,36.288223,-115.127045
PAST SALE,March-31-2021,Townhouse,7016 Coyote Mesa St,North Las Vegas,NV,89086,269967,2,2.5,Kb Village 4 At Tule Spgs Parcel P401,1357,1742,2019,32,199,144,Sold,,,http://www.redfin.com/NV/North-Las-Vegas/N-Starling-Mesa-St-89086/home/169224245,GLVAR,2263338,N,Y,36.288746,-115.127069
PAST SALE,April-15-2021,Single Family Residential,1142 Dorrell Ln,North Las Vegas,NV,89086,317039,3,2.5,Kb Village 4 At Tule Spgs Parcel P401,1812,2614,2019,17,175,53,Sold,,,http://www.redfin.com/NV/North-Las-Vegas/1142-E-Dorrell-Ln-89086/home/169224241,GLVAR,2264827,N,Y,36.2875009,-115.1269416
PAST SALE,April-9-2021,Single Family Residential,1517 Beams Ave,North Las Vegas,NV,89081,310000,3,2.5,Lone Mountain & Bruce,1752,3485,2009,23,177,80,Sold,,,http://www.redfin.com/NV/North-Las-Vegas/1517-Beams-Ave-89081/home/30468323,GLVAR,2274281,N,Y,36.2475379,-115.124089
PAST SALE,March-26-2021,Single Family Residential,7044 Whispering Falls Dr,North Las Vegas,NV,89084,350000,3,2.25,Tierra Santa Phase 1,1849,5663,2018,37,189,65,Sold,,,http://www.redfin.com/NV/North-Las-Vegas/7044-Whispering-Falls-Dr-89084/home/145871096,GLVAR,2272524,N,Y,36.2888405,-115.1358078
PAST SALE,March-4-2021,Single Family Residential,2637 Torch Ave,North Las Vegas,NV,89081,325000,3,2.0,Shadow Creek Manor,1946,6534,2005,59,167,53,Sold,,,http://www.redfin.com/NV/North-Las-Vegas/2637-Torch-Ave-89081/home/29018805,GLVAR,2263737,N,Y,36.2729578,-115.1128083
PAST SALE,February-1-2021,Single Family Residential,1008 Shades End Ave,North Las Vegas,NV,89081,290000,3,2.5,Centennial Bruce West 40,1788,2178,2006,90,162,78,Sold,,,http://www.redfin.com/NV/North-Las-Vegas/1008-Shades-End-Ave-89081/home/29019602,GLVAR,2250960,N,Y,36.275194,-115.1289995
PAST SALE,,Single Family Residential,6207 Blushing Willow St,North Las Vegas,NV,89081,260000,3,2.5,,1505,2614,2008,,173,,,,,http://www.redfin.com/NV/North-Las-Vegas/6207-Blushing-Willow-St-89081/home/29597170,,,N,Y,36.2727924,-115.1299723
PAST SALE,April-15-2021,Single Family Residential,447 Lava Beds Way,North Las Vegas,NV,89084,291500,3,2.0,Parks,1374,4356,2002,17,212,68,Sold,,,http://www.redfin.com/NV/North-Las-Vegas/447-Lava-Beds-Way-89084/home/29851796,GLVAR,2277600,N,Y,36.2816008,-115.1482703
PAST SALE,March-30-2021,Single Family Residential,620 Claxton Ave,North Las Vegas,NV,89084,279900,3,2.0,Centennial & Revere,1280,4356,2003,33,219,40,Sold,,,http://www.redfin.com/NV/North-Las-Vegas/620-W-Claxton-Ave-89084/home/28974450,GLVAR,2265774,N,Y,36.2801171,-115.1508181
PAST SALE,April-16-2021,Single Family Residential,534 Regal Robin Way,North Las Vegas,NV,89084,290000,3,2.0,Parks,1280,4356,2001,16,227,68,Sold,,,http://www.redfin.com/NV/North-Las-Vegas/534-Regal-Robin-Way-89084/home/29851692,GLVAR,2277735,N,Y,36.2807924,-115.1497527
PAST SALE,April-20-2021,Single Family Residential,425 Pacific Moon Ave,North Las Vegas,NV,89084,336000,3,2.5,Desert Moon,2315,4792,2010,12,145,83,Sold,,,http://www.redfin.com/NV/North-Las-Vegas/425-Pacific-Moon-Ave-89084/home/30287525,GLVAR,2268292,N,Y,36.2769059,-115.1472512
PAST SALE,April-5-2021,Single Family Residential,536 Blackbird Knoll Ct,North Las Vegas,NV,89084,273000,3,2.0,Centennial & Revere,1280,4792,2003,27,213,36,Sold,,,http://www.redfin.com/NV/North-Las-Vegas/536-W-Blackbird-Knoll-Ct-89084/home/28972721,GLVAR,2264165,N,Y,36.2786639,-115.1502159
PAST SALE,April-16-2021,Single Family Residential,6624 Ruddock Dr,North Las Vegas,NV,89084,363900,3,2.0,Aliante Parcel 21,1970,8276,2003,16,185,37,Sold,,,http://www.redfin.com/NV/North-Las-Vegas/6624-N-Ruddock-Dr-89084/home/28972636,GLVAR,2272345,N,Y,36.2805323,-115.1900507
PAST SALE,March-31-2021,Single Family Residential,5833 Clear Haven Ln,North Las Vegas,NV,89081,350000,3,1.75,Runvee Hobart East Parcel 3A-2,1741,4792,2016,32,201,52,Sold,,,http://www.redfin.com/NV/North-Las-Vegas/5833-Clear-Haven-Ln-89081/home/104009179,GLVAR,2275955,N,Y,36.2663379,-115.0835046
PAST SALE,April-8-2021,Single Family Residential,3428 Palatine Hills Ave,North Las Vegas,NV,89081,305000,3,2.0,Shadow Spgs,1888,4792,2005,24,162,56,Sold,,,http://www.redfin.com/NV/North-Las-Vegas/3428-E-Palatine-Hills-Ave-89081/home/29019194,GLVAR,2277320,N,Y,36.2706086,-115.0999521
PAST SALE,March-10-2021,Single Family Residential,7149 Weavers Pl,North Las Vegas,NV,89084,420000,3,2.5,Astoria At Aliante-Parcel 20,2621,6098,2012,53,160,45,Sold,,,http://www.redfin.com/NV/North-Las-Vegas/7149-Weavers-Pl-89084/home/40534205,GLVAR,2268457,N,Y,36.2899323,-115.1897265
PAST SALE,April-30-2021,Single Family Residential,3532 Rubio Sun Ave,North Las Vegas,NV,89081,346000,3,2.5,Terrasol,2195,6098,2005,2,158,62,Sold,,,http://www.redfin.com/NV/North-Las-Vegas/3532-Rubio-Sun-Ave-89081/home/29014418,GLVAR,2282371,N,Y,36.2706529,-115.097265
PAST SALE,March-8-2021,Single Family Residential,6223 Fort Worth St,North Las Vegas,NV,89081,290000,3,2.5,Pecos Park By Avante Homes,1644,4792,2006,55,176,43,Sold,,,http://www.redfin.com/NV/North-Las-Vegas/6223-Fort-Worth-St-89081/home/29016131,GLVAR,2265173,N,Y,36.273909,-115.091199
PAST SALE,February-18-2021,Single Family Residential,3833 Carisbrook Dr,North Las Vegas,NV,89081,317000,3,2.5,Sunrise Canyon,2001,3485,2005,73,158,63,Sold,,,http://www.redfin.com/NV/North-Las-Vegas/3833-E-Carisbrook-Dr-89081/home/29015546,GLVAR,2261347,N,Y,36.2714951,-115.0908422
PAST SALE,February-17-2021,Condo/Co-op,6316 Desert Leaf St #101,North Las Vegas,NV,89081,192000,3,2.5,Centennial Highlands,1253,,2005,74,153,180,Sold,,,http://www.redfin.com/NV/North-Las-Vegas/6316-Desert-Leaf-St-89081/unit-101/home/94336693,GLVAR,2257777,N,Y,36.2753873,-115.0886938
PAST SALE,February-5-2021,Single Family Residential,3521 Discovery Downs Ct,North Las Vegas,NV,89081,265000,3,2.0,Runvee Hobart,1274,3920,2008,86,208,99,Sold,,,http://www.redfin.com/NV/North-Las-Vegas/3521-Discovery-Downs-Ct-89081/home/29263790,GLVAR,2256817,N,Y,36.2599958,-115.0974966
PAST SALE,February-19-2021,Single Family Residential,4017 Yellow Mandarin Ave,North Las Vegas,NV,89081,287250,3,2.0,LAUREL CANYON UNIT 3A,1615,4792,2008,72,178,38,Sold,,,http://www.redfin.com/NV/North-Las-Vegas/4017-Yellow-Mandarin-Ave-89081/home/29265671,GLVAR,2158386,N,Y,36.2607088,-115.0866552
PAST SALE,March-23-2021,Condo/Co-op,6321 Sandy Ridge St #2,Las Vegas,NV,89081,192500,3,2.5,Centennial Highlands,1253,,2005,40,154,180,Sold,,,http://www.redfin.com/NV/North-Las-Vegas/6321-Sandy-Ridge-St-89081/unit-2/home/29016990,GLVAR,2263458,N,Y,36.2755875,-115.0857517
PAST SALE,April-28-2021,Condo/Co-op,6328 Beige Bluff St #102,North Las Vegas,NV,89081,212000,3,2.5,CENTENNIAL HIGHLANDS UNIT 1,1367,2433,2005,4,155,215,Sold,,,http://www.redfin.com/NV/North-Las-Vegas/6328-Beige-Bluff-St-89081/unit-102/home/77435607,GLVAR,2272122,N,Y,36.275968,-115.087605
PAST SALE,March-18-2021,Single Family Residential,7267 Pinfeather Way,North Las Vegas,NV,89084,520000,3,2.5,Club Aliante Phase 2,2611,8712,2007,45,199,200,Sold,,,http://www.redfin.com/NV/North-Las-Vegas/7267-Pinfeather-Way-89084/home/29016772,GLVAR,2270809,N,Y,36.2924123,-115.1883138
PAST SALE,,Single Family Residential,3712 Greenbriar Bluff Ave,North Las Vegas,NV,89081,410000,4,3.0,,2775,9583,2008,,148,,,,,http://www.redfin.com/NV/North-Las-Vegas/3712-Greenbriar-Bluff-Ave-89081/home/29263696,,,N,Y,36.2630455,-115.0935354
PAST SALE,February-10-2021,Townhouse,6660 Lavender Lilly Ln #1,North Las Vegas,NV,89084,210000,2,2.0,North Valley Court,1128,1307,2004,81,186,145,Sold,,,http://www.redfin.com/NV/North-Las-Vegas/6660-Lavender-Lilly-Ln-89084/unit-1/home/28981061,GLVAR,2262383,N,Y,36.2818485,-115.1862787
PAST SALE,February-23-2021,Condo/Co-op,4660 Basilicata Ln #104,North Las Vegas,NV,89084,198000,2,1.75,Terrasini At Aliante,1196,,2006,68,166,185,Sold,,,http://www.redfin.com/NV/North-Las-Vegas/4660-Basilicata-Ln-89084/unit-104/home/29267061,GLVAR,2262153,N,Y,36.2835312,-115.2048949
PAST SALE,March-22-2021,Condo/Co-op,4610 Puglia Ln #104,North Las Vegas,NV,89084,200000,2,2.0,Terrasini At Aliante,1196,2900,2006,41,167,185,Sold,,,http://www.redfin.com/NV/North-Las-Vegas/4610-Puglia-Ln-89084/unit-104/home/29047347,GLVAR,2269170,N,Y,36.2818379,-115.203598
PAST SALE,April-6-2021,Single Family Residential,6320 Tierra Cove St,North Las Vegas,NV,89081,288000,3,2.5,Pecos Park By Avante Homes,1960,4792,2005,26,147,,Sold,,,http://www.redfin.com/NV/North-Las-Vegas/6320-Tierra-Cove-St-89081/home/29016634,GLVAR,2252270,N,Y,36.2754229,-115.0924466
PAST SALE,April-26-2021,Single Family Residential,2608 Courlan Dr,North Las Vegas,NV,89084,315000,3,2.5,Aliante Parcel 27,1668,4356,2005,6,189,,Sold,,,http://www.redfin.com/NV/North-Las-Vegas/2608-Courlan-Dr-89084/home/28981971,GLVAR,2283737,N,Y,36.2795823,-115.1769428
PAST SALE,February-2-2021,Single Family Residential,5629 Easter Island Pl,North Las Vegas,NV,89081,317000,3,2.0,Runvee Hobart East Parcel 3B,1588,6098,2016,89,200,56,Sold,,,http://www.redfin.com/NV/North-Las-Vegas/5629-Easter-Island-Pl-89081/home/143173600,GLVAR,2253938,N,Y,36.262695,-115.0866552
PAST SALE,March-22-2021,Single Family Residential,7104 Blissful Peak St,North Las Vegas,NV,89084,344000,3,2.5,Kb Village 3 At Tule Spgs,1657,3485,2018,41,208,63,Sold,,,http://www.redfin.com/NV/North-Las-Vegas/7104-Blissful-Peak-St-89084/home/146418414,GLVAR,2254450,N,Y,36.28943,-115.157005
PAST SALE,April-14-2021,Single Family Residential,1232 Carved Terrace Ave,North Las Vegas,NV,89084,335000,3,2.5,Kb Village 3 At Tule Spgs,1657,3485,2018,18,202,40,Sold,,,http://www.redfin.com/NV/North-Las-Vegas/1232-Carved-Terrace-Ave-89084/home/146418423,GLVAR,2276950,N,Y,36.28943,-115.157004
PAST SALE,February-3-2021,Single Family Residential,523 Braided River Ave,North Las Vegas,NV,89084,265000,3,2.0,Centennial & Revere,1371,4356,2003,88,193,40,Sold,,,http://www.redfin.com/NV/North-Las-Vegas/523-W-Braided-River-Ave-89084/home/28981803,GLVAR,2258025,N,Y,36.2769223,-115.14966
PAST SALE,February-19-2021,Single Family Residential,6733 Yellowhammer Pl,North Las Vegas,NV,89084,392000,3,2.5,Parcel 16 At Aliante,2311,4356,2007,72,170,,Sold,,,http://www.redfin.com/NV/North-Las-Vegas/6733-Yellowhammer-Pl-89084/home/29047924,GLVAR,2254980,N,Y,36.2821986,-115.1930613
PAST SALE,April-13-2021,Single Family Residential,4137 Gliding Gulls Ave,North Las Vegas,NV,89084,360000,3,2.0,Aliante Parcel 15,1918,5227,2005,19,188,,Sold,,,http://www.redfin.com/NV/North-Las-Vegas/4137-Gliding-Gulls-Ave-89084/home/29017930,GLVAR,2276928,N,Y,36.2816666,-115.1956087
PAST SALE,February-18-2021,Single Family Residential,7728 Fieldfare Dr,North Las Vegas,NV,89084,370000,3,2.75,Sun City Aliante Phase 2,1850,5227,2005,73,200,67,Sold,,,http://www.redfin.com/NV/North-Las-Vegas/7728-Fieldfare-Dr-89084/home/28980691,GLVAR,2237548,N,Y,36.301079,-115.1794903
PAST SALE,,Single Family Residential,603 Regal Robin Way,North Las Vegas,NV,89084,278000,3,2.0,,1374,4356,2001,,202,,,,,http://www.redfin.com/NV/North-Las-Vegas/603-Regal-Robin-Way-89084/home/29851733,,,N,Y,36.2803711,-115.1502159
PAST SALE,March-24-2021,Single Family Residential,6702 Cinnabar Coast Ln,North Las Vegas,NV,89084,298000,3,2.5,Parks,1871,4356,2002,39,159,68,Sold,,,http://www.redfin.com/NV/North-Las-Vegas/6702-Cinnabar-Coast-Ln-89084/home/29851800,GLVAR,2243894,N,Y,36.2820222,-115.1478071
PAST SALE,March-22-2021,Single Family Residential,6629 Mammoth Canyon Pl,Las Vegas,NV,89084,280000,3,2.0,Parks,1374,4356,2002,41,204,,Sold,,,http://www.redfin.com/NV/North-Las-Vegas/6629-Mammoth-Canyon-Pl-89084/home/29851512,GLVAR,2248262,N,Y,36.2813905,-115.1474365
PAST SALE,March-26-2021,Single Family Residential,627 Regal Robin Way,North Las Vegas,NV,89084,309750,3,2.0,Parks,1374,5227,2001,37,225,68,Sold,,,http://www.redfin.com/NV/North-Las-Vegas/627-Regal-Robin-Way-89084/home/29851780,GLVAR,2261610,N,Y,36.2804415,-115.1511423
PAST SALE,April-15-2021,Single Family Residential,502 Regal Robin Way,North Las Vegas,NV,89084,297000,3,2.0,Parks,1521,4792,2001,17,195,68,Sold,,,http://www.redfin.com/NV/North-Las-Vegas/502-Regal-Robin-Way-89084/home/29851678,GLVAR,2228522,N,Y,36.2807946,-115.1485019
PAST SALE,April-19-2021,Single Family Residential,423 Regal Robin Way,Las Vegas,NV,89084,322000,3,2.0,Parks,1374,5227,2001,13,234,68,Sold,,,http://www.redfin.com/NV/North-Las-Vegas/423-Regal-Robin-Way-89084/home/29850872,GLVAR,2282298,N,Y,36.2800822,-115.1472512
PAST SALE,April-21-2021,Single Family Residential,439 River Glider Ave,North Las Vegas,NV,89084,295000,3,2.0,Parks,1280,4356,2001,11,230,68,Sold,,,http://www.redfin.com/NV/North-Las-Vegas/439-River-Glider-Ave-89084/home/29851501,GLVAR,2276866,N,Y,36.2793915,-115.1478534
PAST SALE,February-19-2021,Single Family Residential,4221 Galapagos Ave,North Las Vegas,NV,89084,325000,3,2.5,Aliante Parcel 12A Phase 2,2131,3920,2007,72,153,,Sold,,,http://www.redfin.com/NV/North-Las-Vegas/4221-W-Galapagos-Ave-89084/home/29048212,GLVAR,2261917,N,Y,36.2840452,-115.1968592
PAST SALE,February-26-2021,Single Family Residential,7664 Fieldfare Dr,North Las Vegas,NV,89084,365000,3,1.75,Sun City Aliante Phase 1,1718,5227,2005,65,212,67,Sold,,,http://www.redfin.com/NV/North-Las-Vegas/7664-Fieldfare-Dr-89084/home/29010722,GLVAR,2263608,N,Y,36.2997704,-115.1803704
PAST SALE,February-10-2021,Townhouse,4812 Palm Tree Ct,Las Vegas,NV,89131,251500,3,2.0,Dorrell Square,1235,3485,2005,81,204,70,Sold,,,http://www.redfin.com/NV/Las-Vegas/4812-Palm-Tree-Ct-89131/home/29024693,GLVAR,2258666,N,Y,36.2865747,-115.2071582
PAST SALE,April-28-2021,Single Family Residential,6416 Bright Morning St,North Las Vegas,NV,89084,450000,3,2.0,Eldorado #15-Model Complex,1977,9583,2001,4,228,23,Sold,,,http://www.redfin.com/NV/North-Las-Vegas/6416-Bright-Morning-St-89084/home/29850885,GLVAR,2280509,N,Y,36.277448,-115.1669842
PAST SALE,April-29-2021,Single Family Residential,2121 Silvereye Dr,North Las Vegas,NV,89084,320000,2,2.0,Aliante Parcel 29,1746,5663,2004,3,183,,Sold,,,http://www.redfin.com/NV/North-Las-Vegas/2121-Silvereye-Dr-89084/home/28977564,GLVAR,2284040,N,Y,36.2813023,-115.1726352
PAST SALE,March-4-2021,Single Family Residential,6433 Butterfly Sky St,North Las Vegas,NV,89084,258000,3,2.5,Rome 20,1479,2614,2005,59,174,77,Sold,,,http://www.redfin.com/NV/North-Las-Vegas/6433-N-Butterfly-Sky-St-89084/home/29008101,GLVAR,2261292,N,Y,36.2773359,-115.1407196
PAST SALE,April-7-2021,Single Family Residential,4824 Sevier Desert St,North Las Vegas,NV,89081,325000,3,2.0,La Madre & Lawrence,1754,6970,2010,25,185,35,Sold,,,http://www.redfin.com/NV/North-Las-Vegas/4824-N-Sevier-Desert-St-89081/home/35656293,GLVAR,2265640,N,Y,36.2479506,-115.1224212
PAST SALE,February-16-2021,Single Family Residential,2421 Great Auk Ave,North Las Vegas,NV,89084,290000,3,1.75,Sun City Aliantephase 2,1420,3920,2008,75,204,60,Sold,,,http://www.redfin.com/NV/North-Las-Vegas/2421-Great-Auk-Ave-89084/home/29059206,GLVAR,2261302,N,Y,36.2943242,-115.1763407
PAST SALE,April-13-2021,Single Family Residential,2657 Cheer Pheasant Ave,North Las Vegas,NV,89084,282000,2,1.75,Sun City Aliantephase 1,1157,3920,2007,19,244,67,Sold,,,http://www.redfin.com/NV/North-Las-Vegas/2657-Cheer-Pheasant-Ave-89084/home/29046953,GLVAR,2273366,N,Y,36.2962173,-115.1785177
PAST SALE,February-25-2021,Single Family Residential,522 Barite Canyon Dr,North Las Vegas,NV,89081,270000,3,2.0,Galena Pointe,1503,6098,2004,66,180,23,Sold,,,http://www.redfin.com/NV/North-Las-Vegas/522-Barite-Canyon-Dr-89081/home/28982656,GLVAR,2261072,N,Y,36.2500639,-115.1338405
PAST SALE,March-12-2021,Single Family Residential,4333 Galapagos Ave,North Las Vegas,NV,89084,265000,3,2.5,Aliante Parcel 12A Phase 1,1687,3920,2005,51,157,57,Sold,,,http://www.redfin.com/NV/North-Las-Vegas/4333-W-Galapagos-Ave-89084/home/29017250,GLVAR,2207395,N,Y,36.2841057,-115.1987118
PAST SALE,April-9-2021,Single Family Residential,4428 Valley Quail Way,North Las Vegas,NV,89084,330000,3,2.0,Cove At Aliante,1598,5663,2005,23,207,35,Sold,,,http://www.redfin.com/NV/North-Las-Vegas/4428-Valley-Quail-Way-89084/home/29047512,GLVAR,2269438,N,Y,36.282742,-115.2010739
PAST SALE,April-12-2021,Condo/Co-op,4655 Centisimo Dr #102,North Las Vegas,NV,89084,162500,1,0.75,Terrasini At Aliante,862,,2006,20,189,185,Sold,,,http://www.redfin.com/NV/North-Las-Vegas/4655-Centisimo-Dr-89084/unit-102/home/28963817,GLVAR,2272532,N,Y,36.2804015,-115.2043391
PAST SALE,March-17-2021,Single Family Residential,4109 Galapagos Ave,North Las Vegas,NV,89084,325000,3,2.5,Aliante Parcel 12A Phase 2,2132,4792,2007,46,152,,Sold,,,http://www.redfin.com/NV/North-Las-Vegas/4109-W-Galapagos-Ave-89084/home/29048188,GLVAR,2265998,N,Y,36.2841416,-115.1951918
PAST SALE,April-2-2021,Single Family Residential,4108 Galapagos Ave,North Las Vegas,NV,89084,328000,3,2.5,Aliante Parcel 12A Phase 2,1632,7841,2007,30,201,57,Sold,,,http://www.redfin.com/NV/North-Las-Vegas/4108-W-Galapagos-Ave-89084/home/29048186,GLVAR,2272204,N,Y,36.2845243,-115.1956087
PAST SALE,March-12-2021,Single Family Residential,1005 Rustridge Ave,North Las Vegas,NV,89081,370000,3,3.0,Geyser Peak 1,3009,6098,2008,51,123,75,Sold,,,http://www.redfin.com/NV/North-Las-Vegas/1005-Rustridge-Ave-89081/home/29049471,GLVAR,2261556,N,Y,36.2692107,-115.129208
PAST SALE,March-5-2021,Single Family Residential,5433 Desert Mirage St,North Las Vegas,NV,89081,337000,3,2.5,Ann & Lawrence - Village 7,1926,3920,2018,58,175,68,Sold,,,http://www.redfin.com/NV/North-Las-Vegas/5433-Desert-Mirage-Rd-89081/home/146418564,GLVAR,2222040,N,Y,36.259136,-115.123495
PAST SALE,March-1-2021,Single Family Residential,5320 Regena Rose St,North Las Vegas,NV,89081,310000,3,2.0,Cobblestone Cove North,1593,6534,2003,62,195,12,Sold,,,http://www.redfin.com/NV/North-Las-Vegas/5320-N-Regena-Rose-St-89081/home/29955070,GLVAR,2262718,N,Y,36.2567653,-115.1238573
PAST SALE,March-22-2021,Single Family Residential,5325 Coral Hills St,North Las Vegas,NV,89081,291000,3,2.0,Washburn-Bruce Phase 2,1616,6098,2004,41,180,33,Sold,,,http://www.redfin.com/NV/North-Las-Vegas/5325-Coral-Hills-St-89081/home/28977827,GLVAR,2269487,N,Y,36.2569553,-115.1290458
PAST SALE,,Single Family Residential,1540 Deep Valley Ave,North Las Vegas,NV,89084,310000,3,2.0,,1845,4792,2019,,168,,,,,http://www.redfin.com/NV/North-Las-Vegas/1540-Deep-Valley-Ave-89084/home/147876600,,,N,Y,36.291775,-115.16337
PAST SALE,February-5-2021,Single Family Residential,5224 Pendergrass St,North Las Vegas,NV,89081,270000,3,2.5,Ann Losee Village 6,1726,3049,2007,86,156,86,Sold,,,http://www.redfin.com/NV/North-Las-Vegas/5224-Pendergrass-St-89081/home/29312477,GLVAR,2239395,N,Y,36.2549879,-115.1174179
PAST SALE,,Single Family Residential,5509 Desert Mirage Rd,North Las Vegas,NV,89081,299483,3,2.5,,1761,3920,2020,,170,,,,,http://www.redfin.com/NV/North-Las-Vegas/5509-Desert-Mirage-Rd-89081/home/167613903,,,N,Y,36.260251,-115.123497
PAST SALE,February-12-2021,Single Family Residential,37 Buffalo Gap Ct,North Las Vegas,NV,89084,325950,3,2.0,Twilight At North Ranch,1916,4792,2010,79,170,86,Sold,,,http://www.redfin.com/NV/North-Las-Vegas/37-Buffalo-Gap-Ct-89084/home/30478909,GLVAR,2253618,N,Y,36.2847593,-115.138774
PAST SALE,April-28-2021,Single Family Residential,33 Logan Pond Way,North Las Vegas,NV,89084,325000,3,2.0,Twilight At North Ranch,1747,4356,2010,4,186,118,Sold,,,http://www.redfin.com/NV/North-Las-Vegas/33-Logan-Pond-Way-89084/home/40234088,GLVAR,2281145,N,Y,36.28617,-115.138967
PAST SALE,April-28-2021,Single Family Residential,7812 Songster St,North Las Vegas,NV,89084,430000,2,1.75,Sun City Aliante Phase 2,2104,6970,2006,4,204,60,Sold,,,http://www.redfin.com/NV/North-Las-Vegas/7812-Songster-St-89084/home/29017135,GLVAR,2266479,N,Y,36.302513,-115.1769891
PAST SALE,April-16-2021,Single Family Residential,3512 Kittiwake Rd,North Las Vegas,NV,89084,276000,2,1.75,C N L V 1905-Active Adult,1157,4356,2003,16,239,67,Sold,,,http://www.redfin.com/NV/North-Las-Vegas/3512-Kittiwake-Rd-89084/home/28972556,GLVAR,2278941,N,Y,36.3046715,-115.1871791
PAST SALE,April-22-2021,Single Family Residential,3321 Kingbird Dr,North Las Vegas,NV,89084,356000,3,1.75,Sun City Aliante,1718,5227,2004,10,207,67,Sold,,,http://www.redfin.com/NV/North-Las-Vegas/3321-Kingbird-Dr-89084/home/28977619,GLVAR,2273496,N,Y,36.3040659,-115.1852801
PAST SALE,,Single Family Residential,2708 Willow Wren Dr,North Las Vegas,NV,89084,269500,3,2.0,,1420,5663,2004,,190,,,,,http://www.redfin.com/NV/North-Las-Vegas/2708-Willow-Wren-Dr-89084/home/28980704,,,N,Y,36.3047534,-115.1781471
PAST SALE,March-9-2021,Single Family Residential,7937 Song Thrush St,North Las Vegas,NV,89084,275000,2,2.0,Sun City Aliante,1157,4792,2004,54,238,67,Sold,,,http://www.redfin.com/NV/North-Las-Vegas/7937-Song-Thrush-St-89084/home/28980722,GLVAR,2260487,N,Y,36.3049093,-115.1774523
PAST SALE,February-16-2021,Single Family Residential,7211 Quiet Spring St,North Las Vegas,NV,89084,317000,3,2.5,Kb Village 3 At Tule Spgs,1678,3920,2019,75,189,,Sold,,,http://www.redfin.com/NV/North-Las-Vegas/7211-Quiet-Spring-St-89084/home/167597394,GLVAR,2234331,N,Y,36.2917123,-115.1603534
PAST SALE,April-26-2021,Single Family Residential,3021 Kingbird Dr,North Las Vegas,NV,89084,307000,2,2.0,Sun City Aliante Amd,1157,4792,2005,6,265,39,Sold,,,http://www.redfin.com/NV/North-Las-Vegas/3021-Kingbird-Dr-89084/home/29016886,GLVAR,2276057,N,Y,36.3044154,-115.1821305
PAST SALE,March-15-2021,Single Family Residential,6925 Horizon Gln,North Las Vegas,NV,89084,406299,3,2.0,VILLAGE 3 PARCEL 3.05 AT TULE,1954,5017,2019,48,208,29,Sold,,,http://www.redfin.com/NV/North-Las-Vegas/6925-Horizon-Glen-Ct-89084/home/167607222,GLVAR,2212888,N,Y,36.286928,-115.160784
PAST SALE,April-30-2021,Single Family Residential,1510 Dire Wolf Ave,North Las Vegas,NV,89084,475000,3,2.5,Villages At Tule Spgs Village 3 - Parcel 304,2166,6534,2019,2,219,51,Sold,,,http://www.redfin.com/NV/North-Las-Vegas/1510-Dire-Wolf-Ave-89084/home/165735833,GLVAR,2284519,N,Y,36.290217,-115.162561
PAST SALE,February-23-2021,Single Family Residential,4340 Proposal Rock Ave,North Las Vegas,NV,89084,340000,3,2.5,Valley Vista Parcel 14,1781,4792,2019,68,191,35,Sold,,,http://www.redfin.com/NV/North-Las-Vegas/4340-Proposal-Rock-Ave-89084/home/167599596,GLVAR,2261626,N,Y,36.300813,-115.199911
