SALE TYPE,SOLD DATE,PROPERTY TYPE,ADDRESS,CITY,STATE OR PROVINCE,ZIP OR POSTAL CODE,PRICE,BEDS,BATHS,LOCATION,SQUARE FEET,LOT SIZE,YEAR BUILT,DAYS ON MARKET,$/SQUARE FEET,HOA/MONTH,STATUS,NEXT OPEN HOUSE START TIME,NEXT OPEN HOUSE END TIME,URL (SEE http://www.redfin.com/buy-a-home/comparative-market-analysis FOR INFO ON PRICING),SOURCE,MLS#,FAVORITE,INTERESTED,LATITUDE,LONGITUDE
PAST SALE,February-26-2021,Townhouse,1306 Crystal Hill Ln #2,Henderson,NV,89012,300000,3,2.5,Trilogy At Stephanie,1705,3031,2005,56,176,188,Sold,,,http://www.redfin.com/NV/Henderson/1306-Crystal-Hill-Ln-89012/unit-2/home/29041150,GLVAR,2266138,N,Y,36.0291726,-115.0435872
PAST SALE,February-17-2021,Townhouse,1342 Quiet Fox Way,Henderson,NV,89012,320000,3,3.5,Lamplight Village At Stephanie,2085,1307,2016,65,153,235,Sold,,,http://www.redfin.com/NV/Henderson/1342-Quiet-Fox-Way-89012/home/98249808,GLVAR,2259169,N,Y,36.0268176,-115.0443693
PAST SALE,January-25-2021,Condo/Co-op,251 S Green Valley Pkwy #421,Henderson,NV,89012,195000,1,1.0,Bella Vista,721,,1997,88,270,292,Sold,,,http://www.redfin.com/NV/Henderson/251-S-Green-Valley-Pkwy-89012/unit-421/home/29450197,GLVAR,2240501,N,Y,36.018114,-115.083366
PAST SALE,,Single Family Residential,2132 Mooreview St,Henderson,NV,89012,645000,5,3.0,,3648,7405,1999,,177,,,,,http://www.redfin.com/NV/Henderson/2132-Mooreview-St-89012/home/29683218,,,N,Y,36.0170008,-115.0782459
PAST SALE,February-8-2021,Single Family Residential,1721 Franklin Chase Ter,Henderson,NV,89012,305000,3,2.0,Green Valley Ranch Parcel 1,1418,2178,1999,74,215,250,Sold,,,http://www.redfin.com/NV/Henderson/1721-Franklin-Chase-Ter-89012/home/29686140,GLVAR,2233559,N,Y,36.0267608,-115.0573028
PAST SALE,February-5-2021,Single Family Residential,2108 Poppywood Ave,Henderson,NV,89012,369000,2,2.0,DEL WEBB COMMUNITIES,1418,5227,1997,77,260,61,Sold,,,http://www.redfin.com/NV/Henderson/2108-Poppywood-Ave-89012/home/29693931,GLVAR,2260970,N,Y,36.0093772,-115.0739138
PAST SALE,February-10-2021,Single Family Residential,492 Eagle Vista Dr,Henderson,NV,89012,310000,2,2.0,Del Webb Communities,1404,5227,1997,72,221,60,Sold,,,http://www.redfin.com/NV/Henderson/492-Eagle-Vista-Dr-89012/home/29694140,GLVAR,2258230,N,Y,36.0070358,-115.0732419
PAST SALE,February-11-2021,Single Family Residential,1452 Macdonald Ranch Dr,Henderson,NV,89012,3500000,7,7.0,FOOTHILLS MACDONALD RANCH LOT,9060,18295,2015,71,386,330,Sold,,,http://www.redfin.com/NV/Henderson/1452-MacDonald-Ranch-Dr-89012/home/33564400,GLVAR,2254931,N,Y,36.008692,-115.050346
PAST SALE,,Single Family Residential,1500 MacDonald Ranch Dr,Henderson,NV,89012,2500000,5,6.0,,8850,21344,2007,,282,,,,,http://www.redfin.com/NV/Henderson/1500-MacDonald-Ranch-Dr-89012/home/29691792,,,N,Y,36.010978,-115.0548007
PAST SALE,February-12-2021,Single Family Residential,1814 High Mesa Dr,Henderson,NV,89012,347500,2,2.0,Sun City Macdonald Ranch,1548,9148,2000,70,224,60,Sold,,,http://www.redfin.com/NV/Henderson/1814-High-Mesa-Dr-89012/home/29699242,GLVAR,2248522,N,Y,35.9975706,-115.0657127
PAST SALE,February-26-2021,Single Family Residential,2103 Donlon Ct,Henderson,NV,89012,696500,4,2.5,Green Valley Ranch Parcel 36B-Phase 2,3560,10454,1997,56,196,63,Sold,,,http://www.redfin.com/NV/Henderson/2103-Donlon-Ct-89012/home/29683687,GLVAR,2216431,N,Y,36.0133057,-115.0794506
PAST SALE,March-3-2021,Single Family Residential,382 Otsego Ct,Henderson,NV,89012,613000,5,4.0,Stephaseanie Amador,3715,6970,2001,51,165,17,Sold,,,http://www.redfin.com/NV/Henderson/382-Otsego-Ct-89012/home/29880855,GLVAR,2265082,N,Y,36.0135472,-115.0515803
PAST SALE,March-30-2021,Single Family Residential,194 Verde Ridge Ct,Henderson,NV,89012,500000,4,2.5,Rancho Arroyo Grande,2439,5227,1999,24,205,35,Sold,,,http://www.redfin.com/NV/Henderson/194-Verde-Ridge-Ct-89012/home/29688187,GLVAR,2274696,N,Y,36.0204481,-115.05209
PAST SALE,March-2-2021,Townhouse,1731 Franklin Chase Ter,Henderson,NV,89012,275000,2,1.75,Green Valley Ranch,1282,3049,1997,52,215,250,Sold,,,http://www.redfin.com/NV/Henderson/1731-Franklin-Chase-Ter-89012/home/29686145,GLVAR,2259403,N,Y,36.026469,-115.05777
PAST SALE,March-5-2021,Single Family Residential,1734 Summerwood Cir,Henderson,NV,89012,359900,3,2.0,MOUNTAIN POINTE,1976,6098,1996,49,182,55,Sold,,,http://www.redfin.com/NV/Henderson/1734-Summerwood-Cir-89012/home/29685748,GLVAR,2027754,N,Y,36.0246589,-115.0593184
PAST SALE,March-30-2021,Townhouse,1768 Franklin Chase Ter,Henderson,NV,89012,317000,3,3.0,Green Valley Ranch Parcel 1,1598,2178,1997,24,198,250,Sold,,,http://www.redfin.com/NV/Henderson/1768-Franklin-Chase-Ter-89012/home/29686231,GLVAR,2263558,N,Y,36.0267232,-115.0593793
PAST SALE,March-23-2021,Townhouse,2053 Joy View Ln,Henderson,NV,89012,319000,2,2.0,Del Webb Communities,1312,2614,1998,31,243,182,Sold,,,http://www.redfin.com/NV/Henderson/2053-Joy-View-Ln-89012/home/29694067,GLVAR,2269733,N,Y,36.0078993,-115.0676587
PAST SALE,March-12-2021,Single Family Residential,398 Washtenaw St,Henderson,NV,89012,550000,4,2.75,Stephaseanie Amador,3198,7841,2000,42,172,17,Sold,,,http://www.redfin.com/NV/Henderson/398-Washtenaw-St-89012/home/29688443,GLVAR,2269664,N,Y,36.012909,-115.0488928
PAST SALE,April-16-2021,Single Family Residential,805 Plockton Ave,Henderson,NV,89012,600000,5,2.75,Horizon Gibson North,2990,6098,2013,7,201,40,Sold,,,http://www.redfin.com/NV/Henderson/805-Plockton-Ave-89012/home/65557216,GLVAR,2278332,N,Y,36.0241091,-115.0215297
PAST SALE,April-1-2021,Single Family Residential,280 Crimson Edge St,Henderson,NV,89012,690000,3,4.0,Aurora & Buckhorn Phase 1,2978,6098,2017,22,232,105,Sold,,,http://www.redfin.com/NV/Henderson/280-Crimson-Edge-St-89012/home/144164602,GLVAR,2217855,N,Y,36.0187818,-115.0245086
PAST SALE,April-16-2021,Townhouse,471 Baby Eagle St,Henderson,NV,89012,236000,2,2.5,Eaglecrest Twnhms,1267,871,2005,7,186,192,Sold,,,http://www.redfin.com/NV/Henderson/471-Baby-Eagle-St-89012/home/29041688,GLVAR,2277469,N,Y,36.025007,-115.01033
PAST SALE,February-25-2021,Single Family Residential,491 Lace Haven Ct,Henderson,NV,89012,338000,2,2.0,Del Webb Communities,1404,7841,1996,57,241,61,Sold,,,http://www.redfin.com/NV/Henderson/491-Lace-Haven-Ct-89012/home/29692482,GLVAR,2261304,N,Y,36.0074076,-115.0827633
PAST SALE,January-27-2021,Single Family Residential,1870 Cypress Mesa Dr,Henderson,NV,89012,564000,3,3.0,Sun City Macdonald Ranch,2165,7405,2000,86,261,61,Sold,,,http://www.redfin.com/NV/Henderson/1870-Cypress-Mesa-Dr-89012/home/29699128,GLVAR,2254501,N,Y,35.9942291,-115.0695352
PAST SALE,April-15-2021,Single Family Residential,49 Arista Port St,Henderson,NV,89012,465000,4,2.5,Arista At Paseo Verde & Gibson Phase 1,2321,4356,2015,8,200,67,Sold,,,http://www.redfin.com/NV/Henderson/49-Arista-Port-St-89012/home/109632605,GLVAR,2278095,N,Y,36.0259079,-115.0271601
PAST SALE,March-5-2021,Single Family Residential,113 Montesol Dr,Henderson,NV,89012,410000,4,3.0,Montesol At La Entrada,2085,4792,1999,49,197,34,Sold,,,http://www.redfin.com/NV/Henderson/113-Montesol-Dr-89012/home/29671244,GLVAR,2261277,N,Y,36.0289306,-115.0188419
PAST SALE,April-6-2021,Single Family Residential,108 Milicity Rd,Henderson,NV,89012,421000,4,2.75,Montana At La Entrada,2303,6970,2001,17,183,,Sold,,,http://www.redfin.com/NV/Henderson/108-Milicity-Rd-89012/home/29881043,GLVAR,2264468,N,Y,36.0276011,-115.0208809
PAST SALE,March-8-2021,Townhouse,212 Positive Point St,Henderson,NV,89012,320000,3,2.5,Black Mountain Vistas Parcel C,1632,2614,2002,46,196,92,Sold,,,http://www.redfin.com/NV/Henderson/212-Positive-Point-St-89012/home/29689459,GLVAR,2268670,N,Y,36.0221088,-115.0175854
PAST SALE,February-26-2021,Single Family Residential,181 Carlsbad Caverns St,Henderson,NV,89012,367500,3,2.5,Black Mountain Vistas Parcel A,2021,4792,2002,56,182,,Sold,,,http://www.redfin.com/NV/Henderson/181-Carlsbad-Caverns-St-89012/home/29688625,GLVAR,2264326,N,Y,36.0257647,-115.0134432
PAST SALE,February-11-2021,Single Family Residential,824 Loch Katrine Ave,Henderson,NV,89012,685000,3,4.0,Horizon/Gibson South,2972,4356,2015,71,230,72,Sold,,,http://www.redfin.com/NV/Henderson/824-Loch-Katrine-Ave-89012/home/109625308,GLVAR,2251701,N,Y,36.0219459,-115.022387
PAST SALE,March-12-2021,Single Family Residential,111 Camino Francisco,Henderson,NV,89012,376900,3,2.0,Montesol At La Entrada,1900,6098,2000,42,198,32,Sold,,,http://www.redfin.com/NV/Henderson/111-Cam-Francisco-89012/home/29837580,GLVAR,2255075,N,Y,36.0289301,-115.0139066
PAST SALE,March-25-2021,Single Family Residential,759 Camino Del Ray,Henderson,NV,89012,360000,3,2.0,Montesol At La Entrada,1628,4792,2001,29,221,40,Sold,,,http://www.redfin.com/NV/Henderson/759-Cam-Del-Ray-89012/home/29881057,GLVAR,2273274,N,Y,36.027602,-115.0143236
PAST SALE,February-5-2021,Single Family Residential,99 Parker Ranch Dr,Henderson,NV,89012,460000,4,2.5,Montana At La Entrada,2838,6098,2001,77,162,,Sold,,,http://www.redfin.com/NV/Henderson/99-Parker-Ranch-Dr-89012/home/29879855,GLVAR,2244948,N,Y,36.0282946,-115.0221553
PAST SALE,January-28-2021,Single Family Residential,661 Ridgestone Rim Ct,Henderson,NV,89012,3800000,5,4.0,Macdonald Highlands Planning Areas 20 & 18 Phase 1,7306,12197,2019,85,520,330,Sold,,,http://www.redfin.com/NV/Henderson/661-Ridgestone-Rim-Ct-89012/home/108432791,GLVAR,2220614,N,Y,36.0020241,-115.0374793
PAST SALE,March-1-2021,Single Family Residential,948 Miller Canyon Ave,Henderson,NV,89012,450000,3,2.5,Arista At Paseo Verde & Gibson Phase 1,2321,4792,2016,53,194,67,Sold,,,http://www.redfin.com/NV/Henderson/948-Miller-Canyon-Ave-89012/home/108522736,GLVAR,2256136,N,Y,36.0272526,-115.0272064
PAST SALE,February-26-2021,Single Family Residential,925 Pomander Point Pl,Henderson,NV,89012,539888,3,3.25,Horizon Ridge Gibson 2nd Amd,2683,6098,2016,56,201,75,Sold,,,http://www.redfin.com/NV/Henderson/925-Pomander-Point-Pl-89012/home/112478807,GLVAR,2250582,N,Y,36.0162021,-115.0272527
PAST SALE,,Other,9 Stoneshead Ct,Henderson,NV,89012,1750000,,,,,26572,,,,,,,,http://www.redfin.com/NV/Henderson/9-Stoneshead-Ct-89012/home/166426832,,,N,Y,35.9911519,-115.0557602
PAST SALE,February-2-2021,Single Family Residential,191 White Butte St,Henderson,NV,89012,375000,3,2.5,Black Mountain Vistas Parcel A,2320,5227,2001,80,162,40,Sold,,,http://www.redfin.com/NV/Henderson/191-White-Butte-St-89012/home/29688668,GLVAR,2251514,N,Y,36.0250479,-115.0126322
PAST SALE,January-27-2021,Single Family Residential,778 Horizon Canyon Dr,Henderson,NV,89052,827500,4,3.25,The Canyons Parcel B Phase 1,3156,5663,2017,86,262,85,Sold,,,http://www.redfin.com/NV/Henderson/778-Horizon-Canyon-Dr-89052/home/144164247,GLVAR,2251590,N,Y,36.0001969,-115.0811066
PAST SALE,March-5-2021,Single Family Residential,2152 Tiger Links Dr,Henderson,NV,89012,345000,2,2.0,Sun City Macdonald Ranch,1386,5227,1999,49,249,61,Sold,,,http://www.redfin.com/NV/Henderson/2152-Tiger-Links-Dr-89012/home/29693588,GLVAR,2246551,N,Y,36.0043473,-115.0750258
PAST SALE,April-21-2021,Single Family Residential,1508 View Field Ct,Henderson,NV,89012,4400000,4,6.0,Palisades,7603,43996,2001,2,579,330,Sold,,,http://www.redfin.com/NV/Henderson/1508-View-Field-Ct-89012/home/29838873,GLVAR,2255554,N,Y,36.0101754,-115.0555421
PAST SALE,February-24-2021,Single Family Residential,650 St Croix St,Henderson,NV,89012,2505000,5,6.0,FOOTHILLS AT MACDONALD RANCH (,8631,22651,2007,58,290,330,Sold,,,http://www.redfin.com/NV/Henderson/650-St-Croix-St-89012/home/29943655,GLVAR,2201336,N,Y,36.0035187,-115.0417337
PAST SALE,March-5-2021,Single Family Residential,531 Serenity Point Dr,Henderson,NV,89012,2516353,3,3.0,MACDONALD FOOTHILLS PLANNING A,3609,14375,2020,49,697,,Sold,,,http://www.redfin.com/NV/Henderson/531-Serenity-Point-Dr-89012/home/166030336,GLVAR,2142399,N,Y,36.0081475,-115.037446
PAST SALE,March-3-2021,Single Family Residential,618 Saint Croix St,Henderson,NV,89012,4325000,5,3.75,Foothills At Macdonald Ranch Plan Areas 15 & 16,6782,23087,2014,51,638,330,Sold,,,http://www.redfin.com/NV/Henderson/618-St-Croix-St-89012/home/40426740,GLVAR,2263230,N,Y,36.0070471,-115.041641
PAST SALE,April-19-2021,Single Family Residential,106 Samantha Rose St,Henderson,NV,89012,340000,3,2.5,Stephaseanie Carriage Homes,1621,2614,2000,4,210,135,Sold,,,http://www.redfin.com/NV/Henderson/106-Samantha-Rose-St-89012/home/29837568,GLVAR,2278053,N,Y,36.025218,-115.04758
PAST SALE,January-29-2021,Townhouse,503 Hidden Garden Pl,Henderson,NV,89012,295000,2,2.0,Del Webb Communities,1312,2614,1998,84,225,125,Sold,,,http://www.redfin.com/NV/Henderson/503-Hidden-Garden-Pl-89012/home/29694284,GLVAR,2254846,N,Y,36.009589,-115.066871
PAST SALE,,Townhouse,2043 Joy View Ln,Henderson,NV,89012,319000,2,2.0,,1312,2614,1998,,243,,,,,http://www.redfin.com/NV/Henderson/2043-Joy-View-Ln-89012/home/29694064,,,N,Y,36.0082724,-115.0670564
PAST SALE,April-12-2021,Single Family Residential,224 Lynbrook St,Henderson,NV,89012,560000,4,2.75,Stephaseanie Arroyo Grande Phase 5 By Kaufman & Br,3014,6534,2002,11,186,12,Sold,,,http://www.redfin.com/NV/Henderson/224-Lynbrook-St-89012/home/29903257,GLVAR,2268295,N,Y,36.0177157,-115.0434945
PAST SALE,April-19-2021,Single Family Residential,1312 Hopewell Ave,Henderson,NV,89012,440000,4,2.5,Stephaseanie Arroyo Grande Phase 4- By Kaufman & B,2509,6098,2001,4,175,12,Sold,,,http://www.redfin.com/NV/Henderson/1312-Hopewell-Ave-89012/home/29880929,GLVAR,2269554,N,Y,36.0206515,-115.043286
PAST SALE,April-14-2021,Single Family Residential,2162 Hidden Ranch Ter,Henderson,NV,89052,340000,3,2.0,Green Valley Ranch Parcel 39A,1188,4356,1998,9,286,48,Sold,,,http://www.redfin.com/NV/Henderson/2162-Hidden-Ranch-Ter-89052/home/29682322,GLVAR,2278932,N,Y,36.0168159,-115.0900837
PAST SALE,March-10-2021,Condo/Co-op,251 Green Valley Pkwy #3812,Henderson,NV,89012,285500,2,2.5,Bella Vista,1163,6235,1997,44,245,302,Sold,,,http://www.redfin.com/NV/Henderson/251-S-Green-Valley-Pkwy-89012/unit-3812/home/29497246,GLVAR,2260118,N,Y,36.017868,-115.084857
PAST SALE,March-15-2021,Condo/Co-op,251 Green Valley Pkwy #5821,Henderson,NV,89012,232000,1,1.0,Bella Vista,824,,1997,39,282,302,Sold,,,http://www.redfin.com/NV/Henderson/251-S-Green-Valley-Pkwy-89012/unit-5821/home/29450241,GLVAR,2261599,N,Y,36.018785,-115.085835
PAST SALE,March-23-2021,Condo/Co-op,251 Green Valley Pkwy #714,Henderson,NV,89012,252000,2,2.5,Bella Vista,1102,,1997,31,229,303,Sold,,,http://www.redfin.com/NV/Henderson/251-S-Green-Valley-Pkwy-89012/unit-714/home/29497183,GLVAR,2261252,N,Y,36.017709,-115.08388
PAST SALE,April-13-2021,Condo/Co-op,251 Green Valley Pkwy #5511,Henderson,NV,89012,283500,2,3.0,Bella Vista,1102,,1997,10,257,265,Sold,,,http://www.redfin.com/NV/Henderson/251-S-Green-Valley-Pkwy-89012/unit-5511/home/29497330,GLVAR,2269869,N,Y,36.01854,-115.085433
PAST SALE,February-26-2021,Single Family Residential,420 Oakey Crest Ridge St #60,Henderson,NV,89012,631709,3,2.5,SPRINGS AT AURORAS EDGE,2530,10454,2021,56,250,105,Sold,,,http://www.redfin.com/NV/Henderson/420-Grant-Ridge-Dr-89012/unit-60/home/173259965,GLVAR,2233550,N,Y,36.0133355,-115.0610481
PAST SALE,March-5-2021,Single Family Residential,1787 Antelope Valley Ave,Henderson,NV,89012,465000,3,2.0,Inco Parcel,2096,6534,1997,49,222,35,Sold,,,http://www.redfin.com/NV/Henderson/1787-Antelope-Valley-Ave-89012/home/29687029,GLVAR,2276129,N,Y,36.0156288,-115.0639056
PAST SALE,March-10-2021,Single Family Residential,1781 Lakewood Dr,Henderson,NV,89012,539750,3,2.0,Inco Parcel,2096,7405,1997,44,258,35,Sold,,,http://www.redfin.com/NV/Henderson/1781-Lakewood-Dr-89012/home/29687176,GLVAR,2263408,N,Y,36.0164086,-115.0621912
PAST SALE,March-25-2021,Single Family Residential,60 El Rio Ct,Henderson,NV,89012,424999,4,2.0,La Entrada,2162,6970,2000,29,197,,Sold,,,http://www.redfin.com/NV/Henderson/60-El-Rio-Ct-89012/home/29671460,GLVAR,2261673,N,Y,36.0308604,-115.0242406
PAST SALE,April-9-2021,Single Family Residential,102 Gamboge St,Henderson,NV,89012,350000,2,2.0,Montenegro Estate,1368,8276,2000,14,256,12,Sold,,,http://www.redfin.com/NV/Henderson/102-Gamboge-St-89012/home/29838933,GLVAR,2279459,N,Y,36.0236906,-115.0093187
PAST SALE,April-5-2021,Single Family Residential,102 Whistler St,Henderson,NV,89012,365000,3,2.0,Montenegro Estate,1369,8276,2002,18,267,12,Sold,,,http://www.redfin.com/NV/Henderson/102-Whistler-St-89012/home/29921158,GLVAR,2267745,N,Y,36.0235265,-115.0110913
PAST SALE,February-24-2021,Single Family Residential,968 Everest Peak Ave,Henderson,NV,89012,660000,5,3.75,Nec Gibson Road & Horizon Ridge,3694,6098,2013,58,179,45,Sold,,,http://www.redfin.com/NV/Henderson/968-Everest-Peak-Ave-89012/home/65559138,GLVAR,2255309,N,Y,36.022743,-115.0287588
PAST SALE,February-25-2021,Single Family Residential,932 Everest Peak Ave,Henderson,NV,89012,519000,3,3.25,Nec Gibson Road & Horizon Ridge,2549,6098,2014,57,204,45,Sold,,,http://www.redfin.com/NV/Henderson/932-Everest-Peak-Ave-89012/home/65559093,GLVAR,2262272,N,Y,36.0227947,-115.0270906
PAST SALE,February-12-2021,Townhouse,1746 Lily Pond Cir,Henderson,NV,89012,299000,2,1.75,Green Valley Ranch Parcel 3,1489,3485,1996,70,201,177,Sold,,,http://www.redfin.com/NV/Henderson/1746-Lily-Pond-Cir-89012/home/29686104,GLVAR,2260721,N,Y,36.0246256,-115.0605449
PAST SALE,March-31-2021,Townhouse,36 Blue Bench Ln,Henderson,NV,89012,338000,3,2.5,Green Valley Ranch Parcel 3,1962,3485,1996,23,172,177,Sold,,,http://www.redfin.com/NV/Henderson/36-Blue-Bench-Ln-89012/home/29685977,GLVAR,2268731,N,Y,36.0252896,-115.0606169
PAST SALE,April-19-2021,Single Family Residential,1761 Clearwater Canyon Dr,Henderson,NV,89012,477000,5,2.75,Clearwater Canyon,2895,6534,1997,4,165,20,Sold,,,http://www.redfin.com/NV/Henderson/1761-Clearwater-Canyon-Dr-89012/home/29686454,GLVAR,2270732,N,Y,36.0225287,-115.0584149
PAST SALE,March-11-2021,Single Family Residential,1768 Amarone Way,Henderson,NV,89012,1625000,6,5.5,Roma Hills,6357,13068,2008,43,256,245,Sold,,,http://www.redfin.com/NV/Henderson/1768-Amarone-Way-89012/home/29691872,GLVAR,2258474,N,Y,36.0030635,-115.060639
PAST SALE,January-27-2021,Single Family Residential,505 Carmel Mesa Dr,Henderson,NV,89012,311000,2,1.75,Del Webb Communities,1230,4792,1997,86,253,61,Sold,,,http://www.redfin.com/NV/Henderson/505-Carmel-Mesa-Dr-89012/home/29694127,GLVAR,2247556,N,Y,36.0064095,-115.0723848
PAST SALE,January-25-2021,Townhouse,2099 Joy View Ln,Henderson,NV,89012,320000,2,2.0,Del Webb Communities,1137,2614,1997,88,281,86,Sold,,,http://www.redfin.com/NV/Henderson/2099-Joy-View-Ln-89012/home/29694319,GLVAR,2257978,N,Y,36.0062714,-115.0708558
PAST SALE,March-11-2021,Townhouse,489 Dart Brook Pl,Henderson,NV,89012,292000,2,1.75,Del Webb Communities,1137,2614,1997,43,257,173,Sold,,,http://www.redfin.com/NV/Henderson/489-Dart-Brook-Pl-89012/home/29693972,GLVAR,2264146,N,Y,36.0079604,-115.0715044
PAST SALE,April-6-2021,Single Family Residential,486 Carmel Mesa Dr,Henderson,NV,89012,375800,3,1.5,Del Webb Communities,1490,4792,1997,17,252,61,Sold,,,http://www.redfin.com/NV/Henderson/486-Carmel-Mesa-Dr-89012/home/29694170,GLVAR,2276789,N,Y,36.0077721,-115.0727091
PAST SALE,January-26-2021,Single Family Residential,2002 Mesquite Wood Ct Unit C,Henderson,NV,89012,670000,4,4.5,Green Valley Ranch-Phase 1 Parcel 27 & 28,3503,6534,1996,87,191,62,Sold,,,http://www.redfin.com/NV/Henderson/2002-Mesquite-Wood-Ct-89012/unit-C/home/29685934,GLVAR,2257298,N,Y,36.0187626,-115.0738211
PAST SALE,,Single Family Residential,1895 Desert Forest Way,Henderson,NV,89012,425000,4,3.0,,2248,6970,1996,,189,,,,,http://www.redfin.com/NV/Henderson/1895-Desert-Forest-Way-89012/home/29685661,,,N,Y,36.0149286,-115.0683074
PAST SALE,February-16-2021,Single Family Residential,2000 Hobbyhorse Ave,Henderson,NV,89012,355000,3,2.0,Green Valley Ranch-Phase 2 Parcel 32,1648,5663,1998,66,215,,Sold,,,http://www.redfin.com/NV/Henderson/2000-Hobbyhorse-Ave-89012/home/29685572,GLVAR,2255904,N,Y,36.0158208,-115.0728944
PAST SALE,,Single Family Residential,ADDRESS REDACTED,LAS VEGAS,NV,89102,412000,3,2.0,,1796,6534,1999,,229,,,,,http://www.redfin.com/NV/LAS-VEGAS/ADDRESS-REDACTED-89102/home/29688494,,,N,Y,36.025763,-115.036839
PAST SALE,January-29-2021,Single Family Residential,626 St Croix St,Henderson,NV,89012,2245000,4,5.5,FOOTHILLS AT MACDONALD RANCH (,8998,22651,2007,84,249,330,Sold,,,http://www.redfin.com/NV/Henderson/626-St-Croix-St-89012/home/29943650,GLVAR,2205233,N,Y,36.0061702,-115.041641
PAST SALE,March-18-2021,Single Family Residential,1340 Enchanted River Dr,Henderson,NV,89012,1700000,4,4.75,MACDONALD HIGHLANDS PLANNING A,5555,11761,2007,36,306,330,Sold,,,http://www.redfin.com/NV/Henderson/1340-Enchanted-River-Dr-89012/home/29186340,GLVAR,2203253,N,Y,36.0099888,-115.0427531
PAST SALE,April-16-2021,Single Family Residential,631 Cityview Ridge Dr,Henderson,NV,89012,4950000,5,6.0,MACDONALD HIGHLANDS PLANNING A,7500,22651,2019,7,660,330,Sold,,,http://www.redfin.com/NV/Henderson/631-Cityview-Ridge-Dr-89012/home/45348240,GLVAR,2111519,N,Y,36.0052032,-115.0395985
PAST SALE,April-16-2021,Single Family Residential,158 Rocky Star St,Henderson,NV,89012,480000,3,3.0,Jubilee Heights,2075,7405,2004,7,231,48,Sold,,,http://www.redfin.com/NV/Henderson/158-Rocky-Star-St-89012/home/28995855,GLVAR,2255392,N,Y,36.0250139,-115.0365669
PAST SALE,February-3-2021,Single Family Residential,1222 Tranquil Rain Ave,Henderson,NV,89012,412000,4,3.0,Jubilee Heights,2405,5663,2005,79,171,52,Sold,,,http://www.redfin.com/NV/Henderson/1222-Tranquil-Rain-Ave-89012/home/29040972,GLVAR,2233748,N,Y,36.0252196,-115.0391387
PAST SALE,February-26-2021,Single Family Residential,511 Serenity Point Dr,Henderson,NV,89012,2300000,3,3.5,Macdonald Foothills Planning Area 18A Phase 4A,4025,14375,2020,56,571,,Sold,,,http://www.redfin.com/NV/Henderson/511-Serenity-Point-Dr-89012/home/166609889,GLVAR,2254151,N,Y,36.0088114,-115.0376071
PAST SALE,February-10-2021,Townhouse,430 Tranquil Peak Ct,Henderson,NV,89012,1212500,3,3.0,Macdonald Foothills Pa-18A Phase 2 Amd,3611,3049,2019,72,336,,Sold,,,http://www.redfin.com/NV/Henderson/430-Tranquil-Peak-Ct-89012/home/167784817,GLVAR,2238733,N,Y,36.0109463,-115.0375275
PAST SALE,February-26-2021,Townhouse,419 Tranquil Peak Ct,Henderson,NV,89012,2150000,2,2.0,Macdonald Foothills Pa-18A Phase 2 Amd,3001,6534,2019,56,716,330,Sold,,,http://www.redfin.com/NV/Henderson/419-Tranquil-Peak-Ct-89012/home/167784848,GLVAR,2262334,N,Y,36.0114543,-115.0377494
PAST SALE,April-21-2021,Townhouse,455 Tranquil Peak Ct,Henderson,NV,89012,1749000,3,3.0,Macdonald Foothills Pa-18A Phase 2 Amd,3028,6098,2018,2,578,330,Sold,,,http://www.redfin.com/NV/Henderson/455-Tranquil-Peak-Ct-89012/home/167784859,GLVAR,2242724,N,Y,36.010213,-115.0379376
PAST SALE,February-17-2021,Townhouse,53 Blue Beak Way,Henderson,NV,89012,229900,3,2.5,Eaglecrest Twnhms,1267,871,2006,65,181,192,Sold,,,http://www.redfin.com/NV/Henderson/53-Blue-Beak-Way-89012/home/29041662,GLVAR,2260755,N,Y,36.0255646,-115.0089449
PAST SALE,April-6-2021,Single Family Residential,982 Eureka Dunes Ave,Henderson,NV,89012,367700,3,2.5,Villas At Black Mountain,1988,3049,2007,17,185,135,Sold,,,http://www.redfin.com/NV/Henderson/982-Eureka-Dunes-Ave-89012/home/29185125,GLVAR,2273979,N,Y,36.026186,-115.0286351
PAST SALE,April-5-2021,Single Family Residential,58 Sterling Meadow St,Henderson,NV,89012,412000,3,2.75,Champion Village,1796,6534,1999,18,229,25,Sold,,,http://www.redfin.com/NV/Henderson/58-Sterling-Meadow-St-89012/home/170673591,GLVAR,2272457,N,Y,36.0257891,-115.036845
PAST SALE,April-19-2021,Single Family Residential,52 Sterling Meadow St,Henderson,NV,89012,413000,3,2.0,Champion Village,1959,6534,1999,4,211,25,Sold,,,http://www.redfin.com/NV/Henderson/52-Sterling-Meadow-St-89012/home/29688507,GLVAR,2273018,N,Y,36.0262924,-115.0368218
PAST SALE,February-18-2021,Single Family Residential,920 Pomander Point Pl,Henderson,NV,89012,555000,4,3.5,Horizon Ridge Gibson 2nd Amd,2683,5663,2016,64,207,75,Sold,,,http://www.redfin.com/NV/Henderson/920-Pomander-Point-Pl-89012/home/113140480,GLVAR,2234349,N,Y,36.016404,-115.026882
PAST SALE,March-26-2021,Single Family Residential,321 Crimson Edge St #36,Henderson,NV,89012,550804,4,2.5,Aurora & Buckhorn Phase 3,2868,6098,2021,28,192,105,Sold,,,http://www.redfin.com/NV/Henderson/321-Crimson-Edge-St-89012/unit-36/home/173892800,GLVAR,2251951,N,Y,36.0177062,-115.0247071
PAST SALE,March-31-2021,Single Family Residential,329 Crimson Edge St #38,Henderson,NV,89012,590682,5,3.25,Aurora & Buckhorn Phase 3,3108,6098,2021,23,190,105,Sold,,,http://www.redfin.com/NV/Henderson/329-Crimson-Edge-St-89012/unit-38/home/173758340,GLVAR,2249443,N,Y,36.0177062,-115.0247071
PAST SALE,,Single Family Residential,272 Sidewheeler St,Henderson,NV,89012,530000,4,3.0,,3300,5663,2015,,161,,,,,http://www.redfin.com/NV/Henderson/272-Sidewheeler-St-89012/home/88013087,,,N,Y,36.0190997,-115.0254223
PAST SALE,February-22-2021,Condo/Co-op,231 Horizon Ridge Pkwy #1317,Henderson,NV,89012,195000,2,2.0,Big Horn At Black Mountain Condo,1077,,1998,60,181,205,Sold,,,http://www.redfin.com/NV/Henderson/231-W-Horizon-Ridge-Pkwy-89012/unit-1317/home/29773169,GLVAR,2262813,N,Y,36.0156183,-114.9961108
PAST SALE,March-3-2021,Condo/Co-op,231 W Horizon Ridge Pkwy #1022,Henderson,NV,89012,193000,2,2.0,Big Horn At Black Mountain Condo,1077,,1998,51,179,205,Sold,,,http://www.redfin.com/NV/Henderson/231-W-Horizon-Ridge-Pkwy-89012/unit-1022/home/29773213,GLVAR,2263155,N,Y,36.0156183,-114.9961108
PAST SALE,April-19-2021,Single Family Residential,786 Bolle Way,Henderson,NV,89012,1945000,6,6.0,Roma Hills,6542,12632,2012,4,297,225,Sold,,,http://www.redfin.com/NV/Henderson/786-Bolle-Way-89012/home/33541569,GLVAR,2272969,N,Y,36.0004057,-115.0643458
PAST SALE,January-27-2021,Single Family Residential,524 Regents Gate Dr,Henderson,NV,89012,1750000,4,3.25,Highlands,5827,27443,2004,86,300,330,Sold,,,http://www.redfin.com/NV/Henderson/524-Regents-Gate-Dr-89012/home/29838869,GLVAR,2246017,N,Y,36.0080039,-115.0622607
PAST SALE,April-1-2021,Single Family Residential,1733 Tangiers Dr,Henderson,NV,89012,2397777,3,3.75,Highlands,5367,16117,2020,22,447,,Sold,,,http://www.redfin.com/NV/Henderson/1733-Tangiers-Dr-89012/home/33567114,GLVAR,2243821,N,Y,36.006336,-115.063832
PAST SALE,February-23-2021,Single Family Residential,916 Tasker Pass Ave,Henderson,NV,89012,450000,3,2.5,Arista At Paseo Verde & Gibson Phase 2,2321,3920,2016,59,194,67,Sold,,,http://www.redfin.com/NV/Henderson/916-Tasker-Pass-Ave-89012/home/108522536,GLVAR,2257629,N,Y,36.0272621,-115.0258682
PAST SALE,March-5-2021,Single Family Residential,67 Mesa Rivera St,Henderson,NV,89012,450000,4,2.0,La Entrada,2298,6098,2000,49,196,,Sold,,,http://www.redfin.com/NV/Henderson/67-Mesa-Rivera-St-89012/home/29671459,GLVAR,2259762,N,Y,36.0305346,-115.0231053
PAST SALE,March-16-2021,Single Family Residential,92 Misty Rain St,Henderson,NV,89012,370000,3,2.0,Montana At La Entrada,1780,6970,2000,38,208,,Sold,,,http://www.redfin.com/NV/Henderson/92-Misty-Rain-St-89012/home/29671052,GLVAR,2269923,N,Y,36.0288529,-115.0242175
PAST SALE,April-15-2021,Single Family Residential,868 Viento Del Montagna Ave,Henderson,NV,89012,449000,4,3.0,La Entrada,2431,6970,2000,8,185,,Sold,,,http://www.redfin.com/NV/Henderson/868-Viento-Del-Montagna-Ave-89012/home/29671515,GLVAR,2277984,N,Y,36.0316316,-115.0250748
PAST SALE,March-30-2021,Single Family Residential,85 Autumn Day St,Henderson,NV,89012,380000,3,2.0,Montana At La Entrada,1780,6098,2001,24,213,,Sold,,,http://www.redfin.com/NV/Henderson/85-Autumn-Day-St-89012/home/29671138,GLVAR,2264195,N,Y,36.0294541,-115.0230358
PAST SALE,January-27-2021,Single Family Residential,1807 Towering Mesa Ave,Henderson,NV,89012,285000,2,2.0,Sun City Macdonald Ranch,1130,5663,2000,86,252,60,Sold,,,http://www.redfin.com/NV/Henderson/1807-Towering-Mesa-Ave-89012/home/29699129,GLVAR,2236206,N,Y,35.9981573,-115.0665698
PAST SALE,March-15-2021,Single Family Residential,1866 Cypress Mesa Dr,Henderson,NV,89012,569500,3,3.0,Sun City Macdonald Ranch,2165,7405,2000,39,263,61,Sold,,,http://www.redfin.com/NV/Henderson/1866-Cypress-Mesa-Dr-89012/home/29699120,GLVAR,2263248,N,Y,35.9944535,-115.0695121
PAST SALE,February-17-2021,Single Family Residential,258 Windsong Echo Dr,Henderson,NV,89012,415000,3,2.0,Green Valley Ranch Parcel 23A,2029,5663,1998,65,205,63,Sold,,,http://www.redfin.com/NV/Henderson/258-Windsong-Echo-Dr-89012/home/29684943,GLVAR,2253394,N,Y,36.0183495,-115.0677977
PAST SALE,February-18-2021,Single Family Residential,777 Durgos Dr,Henderson,NV,89012,329000,3,2.0,Montesol At La Entrada,1538,5227,2000,64,214,30,Sold,,,http://www.redfin.com/NV/Henderson/777-Durgos-Dr-89012/home/29671203,GLVAR,2251011,N,Y,36.0287128,-115.0165017
PAST SALE,February-5-2021,Single Family Residential,827 Sleepy Moon Ave,Henderson,NV,89012,470000,5,3.75,Montana At La Entrada,3089,6098,2001,77,152,,Sold,,,http://www.redfin.com/NV/Henderson/827-Sleepy-Moon-Ave-89012/home/29881093,GLVAR,2246265,N,Y,36.0276089,-115.0197688
PAST SALE,March-26-2021,Single Family Residential,48 Vallejo Verde St,Henderson,NV,89012,361900,3,2.0,La Entrada,1716,6970,1999,28,211,,Sold,,,http://www.redfin.com/NV/Henderson/48-Vallejo-Verde-St-89012/home/29671237,GLVAR,2269522,N,Y,36.0314349,-115.0197688
PAST SALE,April-2-2021,Single Family Residential,171 Mount Saint Helens Dr,Henderson,NV,89012,560000,5,3.5,Black Mountain Vistas Parcel A- Amd,3022,6098,2000,21,185,40,Sold,,,http://www.redfin.com/NV/Henderson/171-Mt-St-Helens-Dr-89012/home/29688857,GLVAR,2268331,N,Y,36.0265065,-115.0171041
PAST SALE,April-1-2021,Single Family Residential,363 Eveningside Ave,Henderson,NV,89012,385000,4,3.0,Montenegro Estate,1780,7841,2001,22,216,12,Sold,,,http://www.redfin.com/NV/Henderson/363-Eveningside-Ave-89012/home/29881192,GLVAR,2235067,N,Y,36.021483,-115.0101065
PAST SALE,February-11-2021,Single Family Residential,235 Camelback Ridge Ave,Henderson,NV,89012,335000,3,2.0,Green Valley Ranch-Phase 1 Parcel 13 & 16,1464,4792,1996,71,229,,Sold,,,http://www.redfin.com/NV/Henderson/235-Camelback-Ridge-Ave-89012/home/29684723,GLVAR,2263857,N,Y,36.0228948,-115.0701144
PAST SALE,February-24-2021,Single Family Residential,251 Camelback Ridge Ave,Henderson,NV,89012,365000,3,2.0,Green Valley Ranch-Phase 1 Parcel 13 & 16,1464,4792,1996,58,249,,Sold,,,http://www.redfin.com/NV/Henderson/251-Camelback-Ridge-Ave-89012/home/29684609,GLVAR,2261629,N,Y,36.0217495,-115.0700681
PAST SALE,January-29-2021,Single Family Residential,1700 Choice Hills Dr,Henderson,NV,89012,1000000,4,4.25,Foothills At Macdonald Ranch,4265,10019,2003,84,234,330,Sold,,,http://www.redfin.com/NV/Henderson/1700-Choice-Hills-Dr-89012/home/29838999,GLVAR,2231818,N,Y,36.0103523,-115.0620059
PAST SALE,February-24-2021,Single Family Residential,461 Stovall Cress Ct,Henderson,NV,89012,500000,2,2.0,Del Webb Communities,1865,15682,1998,58,268,62,Sold,,,http://www.redfin.com/NV/Henderson/461-Stovall-Cress-Ct-89012/home/29694373,GLVAR,2258581,N,Y,36.0108175,-115.0704851
PAST SALE,March-5-2021,Single Family Residential,1206 Macdonald Ranch Dr,Henderson,NV,89012,3380000,6,7.5,FOOTHILLS MACDONALD RANCH L 12,9051,33106,2006,49,373,330,Sold,,,http://www.redfin.com/NV/Henderson/1206-MacDonald-Ranch-Dr-89012/home/29903414,GLVAR,2105408,N,Y,36.0063317,-115.0441432
PAST SALE,March-8-2021,Single Family Residential,55 Vista Del Mar St,Henderson,NV,89012,429000,3,2.0,La Entrada,2298,6534,2000,46,187,,Sold,,,http://www.redfin.com/NV/Henderson/55-Vista-Del-Mar-St-89012/home/29671361,GLVAR,2262313,N,Y,36.0310259,-115.0212517
PAST SALE,April-2-2021,Single Family Residential,812 Viento Del Montagna Ave,Henderson,NV,89012,500000,3,2.75,La Entrada,2431,6970,2000,21,206,,Sold,,,http://www.redfin.com/NV/Henderson/812-Viento-Del-Montagna-Ave-89012/home/29671349,GLVAR,2272984,N,Y,36.0320157,-115.0221785
PAST SALE,March-15-2021,Single Family Residential,92 Saint Johns Wood Ave,Henderson,NV,89002,440000,4,2.5,Palm Hills-Phase 2,2439,4792,2000,39,180,86,Sold,,,http://www.redfin.com/NV/Henderson/92-St-Johns-Wood-Ave-89002/home/29691546,GLVAR,2265192,N,Y,36.0052804,-114.9971536
PAST SALE,February-26-2021,Single Family Residential,1273 Vietti St,Henderson,NV,89012,825000,5,4.25,Terrazzo 2,4462,10454,2006,56,185,110,Sold,,,http://www.redfin.com/NV/Henderson/1273-Vietti-St-89012/home/29070609,GLVAR,2235938,N,Y,36.0129257,-115.0417337
PAST SALE,March-15-2021,Single Family Residential,378 Cavoli Ct,Henderson,NV,89012,920000,4,4.5,Terrazzo 2,3725,7841,2006,39,247,101,Sold,,,http://www.redfin.com/NV/Henderson/378-Cavoli-Ct-89012/home/29070572,GLVAR,2271235,N,Y,36.0130218,-115.040135
PAST SALE,March-1-2021,Single Family Residential,272 Walnut Village Ln,Henderson,NV,89012,372000,3,2.5,Green Valley Ranch-Phase 2 Parcel 31,1435,4792,1995,53,259,63,Sold,,,http://www.redfin.com/NV/Henderson/272-Walnut-Village-Ln-89012/home/29683317,GLVAR,2265183,N,Y,36.0175677,-115.0750721
PAST SALE,February-17-2021,Single Family Residential,1824 Eagle Mesa Ave,Henderson,NV,89012,330000,3,2.0,Sun City MacDonald Ranch,1580,5227,2001,65,209,61,Sold,,,http://www.redfin.com/NV/Henderson/1824-Eagle-Mesa-Ave-89012/home/29838896,GLVAR,2244216,N,Y,36.006213,-115.0693267
PAST SALE,March-11-2021,Single Family Residential,1801 Eagle Mesa Ave,Henderson,NV,89012,350000,2,1.75,Del Webb Communities,1590,5663,2001,43,220,61,Sold,,,http://www.redfin.com/NV/Henderson/1801-Eagle-Mesa-Ave-89012/home/29838721,GLVAR,2268681,N,Y,36.0066652,-115.0674734
PAST SALE,February-22-2021,Single Family Residential,82 Moonlight Village Ln,Henderson,NV,89012,450000,3,1.75,Mountain Pointe One,1976,6098,1996,60,228,,Sold,,,http://www.redfin.com/NV/Henderson/82-Moonlight-Village-Ln-89012/home/29685994,GLVAR,2265135,N,Y,36.0247949,-115.0570943
PAST SALE,February-16-2021,Townhouse,712 Solitude Point Ave,Henderson,NV,89012,292000,3,2.5,Black Mountain Vistas Parcel C,1738,2614,1999,66,168,98,Sold,,,http://www.redfin.com/NV/Henderson/712-Solitude-Point-Ave-89012/home/29688822,GLVAR,2230444,N,Y,36.0224787,-115.0176506
PAST SALE,March-15-2021,Townhouse,699 Solitude Point Ave,Henderson,NV,89012,256000,2,1.75,Black Mountain Vistas Parcel C,1308,2614,2000,39,196,92,Sold,,,http://www.redfin.com/NV/Henderson/699-Solitude-Point-Ave-89012/home/29688786,GLVAR,2269714,N,Y,36.022269,-115.0166201
PAST SALE,March-23-2021,Single Family Residential,920 Mckinley View Ave,Henderson,NV,89012,545000,3,2.5,Nec Gibson Road & Horizon Ridge,2845,6534,2014,31,192,45,Sold,,,http://www.redfin.com/NV/Henderson/920-McKinley-View-Ave-89012/home/65559116,GLVAR,2261311,N,Y,36.0235558,-115.0265345
PAST SALE,March-11-2021,Single Family Residential,2131 King Mesa Dr,Henderson,NV,89012,414000,2,2.0,SUN CITY MACDONALD RANCH,1590,8470,1999,43,260,61,Sold,,,http://www.redfin.com/NV/Henderson/2131-King-Mesa-Dr-89012/home/29695208,GLVAR,2271045,N,Y,36.0008719,-115.0740759
PAST SALE,March-5-2021,Single Family Residential,1074 Bootspur Dr,Henderson,NV,89012,326000,3,2.5,Champion Village,1515,4792,1998,49,215,18,Sold,,,http://www.redfin.com/NV/Henderson/1074-Bootspur-Dr-89012/home/29671274,GLVAR,2269065,N,Y,36.0303946,-115.0336939
PAST SALE,April-16-2021,Single Family Residential,416 Palegold St,Henderson,NV,89012,379000,3,2.0,Montenegro Estate,1369,6098,1999,7,277,12,Sold,,,http://www.redfin.com/NV/Henderson/416-Palegold-St-89012/home/29690526,GLVAR,2281062,N,Y,36.0217535,-115.002599
PAST SALE,March-31-2021,Single Family Residential,326 Island Reef Ave,Henderson,NV,89012,367000,3,2.5,Black Mountain Vistas Parcel K,1810,6098,1998,23,203,31,Sold,,,http://www.redfin.com/NV/Henderson/326-Island-Reef-Ave-89012/home/29691680,GLVAR,2254569,N,Y,36.0196172,-115.0001891
PAST SALE,February-2-2021,Single Family Residential,241 Pancho Via Dr,Henderson,NV,89012,505000,4,3.0,Palm Terrace,2582,9148,2006,80,196,62,Sold,,,http://www.redfin.com/NV/Henderson/241-Pancho-Via-Dr-89012/home/29255333,GLVAR,2255570,N,Y,36.0201195,-115.0333927
PAST SALE,March-19-2021,Single Family Residential,2185 Chapman Ranch Dr,Henderson,NV,89012,360000,2,1.75,Sun City MacDonald Ranch,1418,5227,1996,35,254,56,Sold,,,http://www.redfin.com/NV/Henderson/2185-Chapman-Ranch-Dr-89012/home/29692870,GLVAR,2251726,N,Y,36.0117317,-115.0814197
PAST SALE,April-15-2021,Single Family Residential,2156 Eagle Sticks Dr,Henderson,NV,89012,345000,2,2.0,Del Webb Communities,1230,5227,1997,8,280,61,Sold,,,http://www.redfin.com/NV/Henderson/2156-Eagle-Sticks-Dr-89012/home/29692803,GLVAR,2279507,N,Y,36.0112407,-115.0791494
PAST SALE,April-20-2021,Single Family Residential,2150 Eagle Watch Dr,Henderson,NV,89012,345000,2,2.0,Del Webb Communities,1404,5227,1996,3,246,,Sold,,,http://www.redfin.com/NV/Henderson/2150-Eagle-Watch-Dr-89012/home/29692543,GLVAR,2276825,N,Y,36.009251,-115.0787787
PAST SALE,February-1-2021,Single Family Residential,2129 Wilbanks Cir,Henderson,NV,89012,775000,5,3.0,Del Webb Communities-Phase 1 Parcel 36B-Phase 2 Am,4058,9583,1997,81,191,50,Sold,,,http://www.redfin.com/NV/Henderson/2129-Wilbanks-Cir-89012/home/29298202,GLVAR,2233136,N,Y,36.0131942,-115.0810259
PAST SALE,March-4-2021,Single Family Residential,58 Tanglewood Dr,Henderson,NV,89012,415000,3,3.0,Green Valley Ranch Parcel 12 & 14,1801,4792,1995,50,230,50,Sold,,,http://www.redfin.com/NV/Henderson/58-Tanglewood-Dr-89012/home/29683694,GLVAR,2264477,N,Y,36.0248665,-115.0702071
PAST SALE,January-30-2021,Single Family Residential,282 Windsong Echo Dr,Henderson,NV,89012,415000,3,2.0,Green Valley Ranch Parcel 23A,1759,5663,1998,83,236,,Sold,,,http://www.redfin.com/NV/Henderson/282-Windsong-Echo-Dr-89012/home/29684907,GLVAR,2255137,N,Y,36.0167892,-115.067288
PAST SALE,January-29-2021,Condo/Co-op,231 Horizon Ridge Pkwy #613,Henderson,NV,89012,125000,1,1.0,Big Horn At Black Mountain Condo,701,701,1998,84,178,205,Sold,,,http://www.redfin.com/NV/Henderson/231-W-Horizon-Ridge-Pkwy-89012/unit-613/home/29772195,GLVAR,2230123,N,Y,36.0156183,-114.9961108
PAST SALE,February-1-2021,Condo/Co-op,231 Horizon Ridge Pkwy #211,Henderson,NV,89012,170000,2,1.75,Big Horn At Black Mountain Condo,1077,,1998,81,158,205,Sold,,,http://www.redfin.com/NV/Henderson/231-W-Horizon-Ridge-Pkwy-89012/unit-211/home/29772328,GLVAR,2234413,N,Y,36.0156183,-114.9961108
PAST SALE,February-11-2021,Condo/Co-op,231 Horizon Ridge Pkwy #1227,Henderson,NV,89012,182000,2,2.0,Big Horn At Black Mountain Condo,927,927,1998,71,196,205,Sold,,,http://www.redfin.com/NV/Henderson/231-W-Horizon-Ridge-Pkwy-89012/unit-1227/home/29773177,GLVAR,2255518,N,Y,36.0156183,-114.9961108
PAST SALE,March-4-2021,Condo/Co-op,231 Horizon Ridge Pkwy #1013,Henderson,NV,89012,145000,1,1.0,Big Horn At Black Mountain Condo,701,,1998,50,207,205,Sold,,,http://www.redfin.com/NV/Henderson/231-W-Horizon-Ridge-Pkwy-89012/unit-1013/home/29758247,GLVAR,2266579,N,Y,36.0156183,-114.9961108
PAST SALE,April-1-2021,Condo/Co-op,231 Horizon Ridge Pkwy #1327,Henderson,NV,89012,179000,2,2.0,Big Horn At Black Mountain Condo,1077,1077,1998,22,166,215,Sold,,,http://www.redfin.com/NV/Henderson/231-W-Horizon-Ridge-Pkwy-89012/unit-1327/home/29773171,GLVAR,2251655,N,Y,36.0156183,-114.9961108
PAST SALE,February-26-2021,Single Family Residential,732 Fortacre St,Henderson,NV,89002,577000,6,4.0,Palm Hills Phase 3,4374,5663,2008,56,132,66,Sold,,,http://www.redfin.com/NV/Henderson/732-Fortacre-St-89002/home/29777206,GLVAR,2234857,N,Y,36.0008534,-114.997339
PAST SALE,February-16-2021,Townhouse,723 Principle Point Ave,Henderson,NV,89012,276000,2,2.5,Black Mountain Vistas Parcel C,1422,2178,2003,66,194,92,Sold,,,http://www.redfin.com/NV/Henderson/723-Principle-Point-Ave-89012/home/29689486,GLVAR,2240593,N,Y,36.0208957,-115.0179631
PAST SALE,February-10-2021,Townhouse,706 Value Ridge Ave,Henderson,NV,89012,322500,2,2.5,Black Mountain Vistas Parcel C,1632,2614,2003,72,198,95,Sold,,,http://www.redfin.com/NV/Henderson/706-Value-Ridge-Ave-89012/home/28979032,GLVAR,2258848,N,Y,36.020671,-115.017084
PAST SALE,March-8-2021,Townhouse,207 Priority Point St,Henderson,NV,89012,288000,3,2.5,Black Mountain Vistas Parcel C,1371,2178,2004,46,210,92,Sold,,,http://www.redfin.com/NV/Henderson/207-Priority-Point-St-89012/home/28993797,GLVAR,2263191,N,Y,36.022154,-115.015893
PAST SALE,March-9-2021,Townhouse,731 Character Point Ave,Henderson,NV,89012,295000,3,2.5,Black Mountain Vistas Parcel C,1371,2178,2003,45,215,92,Sold,,,http://www.redfin.com/NV/Henderson/731-Character-Point-Ave-89012/home/29689488,GLVAR,2264330,N,Y,36.020833,-115.0183977
PAST SALE,March-9-2021,Townhouse,724 Value Ridge Ave,Henderson,NV,89012,340000,3,2.5,Black Mountain Vistas Parcel C,1738,2614,2003,45,196,92,Sold,,,http://www.redfin.com/NV/Henderson/724-Value-Ridge-Ave-89012/home/28974851,GLVAR,2261802,N,Y,36.020667,-115.018034
PAST SALE,March-30-2021,Single Family Residential,317 Crimson Edge St #35,Henderson,NV,89012,559847,4,2.75,Aurora & Buckhorn Phase 2,2868,6098,2021,24,195,105,Sold,,,http://www.redfin.com/NV/Henderson/317-Crimson-Edge-St-89012/unit-35/home/173758658,GLVAR,2249442,N,Y,36.0177062,-115.0247071
PAST SALE,February-5-2021,Single Family Residential,345 Crimson Edge St,Henderson,NV,89012,587000,4,2.5,Aurora & Buckhorn Phase 3,2866,6098,2020,77,205,105,Sold,,,http://www.redfin.com/NV/Henderson/345-Crimson-Edge-St-89012/home/169239627,GLVAR,2250475,N,Y,36.0176109,-115.0247283
PAST SALE,March-8-2021,Single Family Residential,117 Lemongold St,Henderson,NV,89012,376000,3,2.0,Montenegro Estate,1629,8276,2000,46,231,12,Sold,,,http://www.redfin.com/NV/Henderson/117-Lemongold-St-89012/home/29689627,GLVAR,2262694,N,Y,36.0225924,-115.0067235
PAST SALE,March-12-2021,Single Family Residential,134 Mauve St,Henderson,NV,89012,400000,3,2.0,Montenegro Estate,1629,8712,2001,42,246,12,Sold,,,http://www.redfin.com/NV/Henderson/134-Mauve-St-89012/home/29849755,GLVAR,2268543,N,Y,36.0211303,-115.0063064
PAST SALE,February-3-2021,Single Family Residential,584 Saint Croix St,Henderson,NV,89012,4550000,5,6.5,Foothills At Macdonald Ranch Plan Areas 15 & 16,8258,24829,2006,79,551,330,Sold,,,http://www.redfin.com/NV/Henderson/584-St-Croix-St-89012/home/29943641,GLVAR,2238040,N,Y,36.0096679,-115.0402508
PAST SALE,March-19-2021,Single Family Residential,635 Cityview Ridge Dr,Henderson,NV,89012,4750000,5,7.25,Macdonald Highlands Planning Areas 20 & 18 Phase 1,7000,17860,2021,35,679,330,Sold,,,http://www.redfin.com/NV/Henderson/635-Cityview-Ridge-Dr-89012/home/144797799,GLVAR,2257042,N,Y,36.004991,-115.039564
PAST SALE,March-22-2021,Townhouse,427 Serenity Point Dr,Henderson,NV,89012,1655000,3,2.5,Macdonald Foothills Pa-18A Phase 1 Amd,3028,6534,2018,32,547,,Sold,,,http://www.redfin.com/NV/Henderson/427-Serenity-Point-Dr-89012/home/146418542,GLVAR,2254896,N,Y,36.0114611,-115.0389967
PAST SALE,April-14-2021,Single Family Residential,587 Saint Croix St,Henderson,NV,89012,6488800,7,10.75,Foothills At Macdonald Ranch Plan Areas 15 & 16,13706,33106,2008,9,473,330,Sold,,,http://www.redfin.com/NV/Henderson/587-St-Croix-St-89012/home/29943642,GLVAR,2246856,N,Y,36.0092756,-115.0407606
PAST SALE,,Condo/Co-op,251 S Green Valley Pkwy #2022,Henderson,NV,89012,195000,1,1.0,,824,,1997,,237,,,,,http://www.redfin.com/NV/Henderson/251-S-Green-Valley-Pkwy-89012/unit-2022/home/29497155,,,N,Y,36.019715,-115.083682
PAST SALE,,Other,11 Sky Arc Ct,Henderson,NV,89012,1050000,,,,,21344,,,,,,,,http://www.redfin.com/NV/Henderson/11-Sky-Arc-Ct-89012/home/166426845,,,N,Y,35.993857,-115.0562175
PAST SALE,,Other,7 Stoneshead Ct,Henderson,NV,89012,1500000,,,,,23522,,,,,,,,http://www.redfin.com/NV/Henderson/7-Stoneshead-Ct-89012/home/166565572,,,N,Y,35.9915526,-115.0556441
PAST SALE,,Other,11 Stoneshead Ct,Henderson,NV,89012,1750000,,,,,43124,,,,,,,,http://www.redfin.com/NV/Henderson/11-Stoneshead-Ct-89012/home/166035670,,,N,Y,35.9905762,-115.055964
PAST SALE,February-18-2021,Single Family Residential,396 Via Sonador,Henderson,NV,89012,699990,5,3.75,Trovas,4049,6970,2003,64,173,55,Sold,,,http://www.redfin.com/NV/Henderson/396-Via-Sonador-89012/home/29943675,GLVAR,2262211,N,Y,36.0131337,-115.0453712
PAST SALE,,Single Family Residential,419 Stone Lair Ct,Henderson,NV,89012,1359000,5,5.5,,5037,13504,2006,,270,,,,,http://www.redfin.com/NV/Henderson/419-Stone-Lair-Ct-89012/home/29041568,,,N,Y,36.0118947,-115.0409923
PAST SALE,March-2-2021,Single Family Residential,411 Stone Lair Ct,Henderson,NV,89012,1109900,5,7.0,FOOTHILLS AT MACDONALD RANCH P,5037,14810,2006,52,220,330,Sold,,,http://www.redfin.com/NV/Henderson/411-Stone-Lair-Ct-89012/home/29041570,GLVAR,2055764,N,Y,36.0121903,-115.0414556
PAST SALE,March-29-2021,Single Family Residential,1269 Vietti St,Henderson,NV,89012,766333,5,4.0,Terrazzo 2,3673,6534,2006,25,209,110,Sold,,,http://www.redfin.com/NV/Henderson/1269-Vietti-St-89012/unit-1/home/29070575,GLVAR,2271667,N,Y,36.0129077,-115.0414556
PAST SALE,February-4-2021,Single Family Residential,196 Carlsbad Caverns St,Henderson,NV,89012,443500,4,2.5,Black Mountain Vistas Parcel A,2320,8276,2002,78,191,40,Sold,,,http://www.redfin.com/NV/Henderson/196-Carlsbad-Caverns-St-89012/home/29688644,GLVAR,2255053,N,Y,36.024731,-115.0130724
PAST SALE,March-2-2021,Single Family Residential,612 Tyler Ridge Ave,Henderson,NV,89012,480000,5,3.5,Black Mountain Vistas Parcel A- Amd,3075,6098,2004,52,156,40,Sold,,,http://www.redfin.com/NV/Henderson/612-Tyler-Ridge-Ave-89012/home/29688597,GLVAR,2237006,N,Y,36.027377,-115.0122846
PAST SALE,March-18-2021,Single Family Residential,624 Badlands Ave,Henderson,NV,89012,368000,3,2.5,Black Mountain Vistas Parcel A,2021,4792,2002,36,182,40,Sold,,,http://www.redfin.com/NV/Henderson/624-Badlands-Ave-89012/home/29688630,GLVAR,2271639,N,Y,36.0256709,-115.0140456
PAST SALE,February-12-2021,Single Family Residential,362 Yacht Ave,Henderson,NV,89012,360000,2,1.75,Black Mountain Vistas Parcel K,1574,6970,1999,70,229,32,Sold,,,http://www.redfin.com/NV/Henderson/362-Yacht-St-89012/home/29691669,GLVAR,2257127,N,Y,36.0192281,-115.0032014
PAST SALE,March-4-2021,Single Family Residential,381 Red Snap Dragon Ln,Las Vegas,NV,89012,470000,4,2.5,Brighton,2533,5663,2007,50,186,72,Sold,,,http://www.redfin.com/NV/Henderson/381-Red-Snap-Dragon-Ln-89012/home/147380391,GLVAR,2263418,N,Y,36.0147483,-115.0576503
PAST SALE,March-12-2021,Single Family Residential,1625 Orange Daisy Pl,Henderson,NV,89012,410000,4,2.5,BRIGHTON,2533,3920,2007,42,162,67,Sold,,,http://www.redfin.com/NV/Henderson/1625-Orange-Daisy-Pl-89012/home/29497315,GLVAR,2266047,N,Y,36.0143772,-115.056631
PAST SALE,April-14-2021,Single Family Residential,363 Marlin Cove Rd,Henderson,NV,89012,570000,3,2.0,Desert Cove,2428,6098,2000,9,235,41,Sold,,,http://www.redfin.com/NV/Henderson/363-Marlin-Cove-Rd-89012/home/29688378,GLVAR,2272707,N,Y,36.0141582,-115.0559128
PAST SALE,March-12-2021,Townhouse,2083 Poppywood Ave,Henderson,NV,89012,288000,1,2.0,Del Webb Communities,1121,2614,1997,42,257,184,Sold,,,http://www.redfin.com/NV/Henderson/2083-Poppywood-Ave-89012/home/29693910,GLVAR,2261880,N,Y,36.0101084,-115.0720604
PAST SALE,April-8-2021,Single Family Residential,483 Bonnie Brook Pl,Henderson,NV,89012,375000,3,2.0,Del Webb Communities,1818,6534,1997,15,206,60,Sold,,,http://www.redfin.com/NV/Henderson/483-Bonnie-Brook-Pl-89012/home/29694009,GLVAR,2277573,N,Y,36.0087263,-115.0710179
PAST SALE,February-23-2021,Condo/Co-op,36 Red Oak Canyon St #2,Henderson,NV,89012,289900,3,2.5,Trilogy At Stephanie,1705,3024,2005,59,170,188,Sold,,,http://www.redfin.com/NV/Henderson/36-Red-Oak-Canyon-St-89012/unit-2/home/29041110,GLVAR,2248449,N,Y,36.0278714,-115.0444212
PAST SALE,April-2-2021,Condo/Co-op,1335 Grass Creek Ave #3,Henderson,NV,89012,230000,2,2.0,TRILOGY AT STEPHANIE UNIT-1,1229,,2005,21,187,188,Sold,,,http://www.redfin.com/NV/Henderson/1335-Grass-Creek-Ave-89012/unit-3/home/29041156,GLVAR,2247230,N,Y,36.0274702,-115.0447919
PAST SALE,April-9-2021,Townhouse,1354 Grass Creek Ave #1,Henderson,NV,89012,296000,3,2.5,Trilogy At Stephaseanie,1656,3056,2005,14,179,188,Sold,,,http://www.redfin.com/NV/Henderson/1354-Grass-Creek-Ave-89012/unit-1/home/29002399,GLVAR,2281528,N,Y,36.0278812,-115.0458114
PAST SALE,March-19-2021,Single Family Residential,1341 Cedar Berry Ct,Henderson,NV,89012,375000,3,2.5,Paseo Verde Twilight,1947,3920,2006,35,193,45,Sold,,,http://www.redfin.com/NV/Henderson/1341-Cedar-Berry-Ct-89012/home/29298216,GLVAR,2270705,N,Y,36.0248996,-115.0455102
PAST SALE,April-12-2021,Townhouse,1341 Quiet Fox Way,Henderson,NV,89012,356000,3,3.0,Lamplight Village At Stephanie - Amd,2023,1307,2016,11,176,235,Sold,,,http://www.redfin.com/NV/Henderson/1341-Quiet-Fox-Way-89012/home/103941934,GLVAR,2279059,N,Y,36.0266041,-115.0443004
PAST SALE,April-1-2021,Single Family Residential,54 Nellywood Ct,Henderson,NV,89012,520000,4,2.5,Village,3289,6970,2003,22,158,25,Sold,,,http://www.redfin.com/NV/Henderson/54-Nellywood-Ct-89012/home/29955389,GLVAR,2266618,N,Y,36.0261475,-115.0403435
PAST SALE,February-11-2021,Single Family Residential,1496 Rancho Navarro St,Henderson,NV,89012,360000,3,2.0,Rancho Arroyo Grande,1745,4356,1998,71,206,35,Sold,,,http://www.redfin.com/NV/Henderson/1496-Rancho-Navarro-St-89012/home/29688019,GLVAR,2260771,N,Y,36.0209092,-115.0530631
PAST SALE,April-6-2021,Single Family Residential,1505 Arroyo Verde Dr,Henderson,NV,89012,725000,5,3.5,Horizon Ridge & Arroyo Grande,3894,11326,2014,17,186,70,Sold,,,http://www.redfin.com/NV/Henderson/1505-Arroyo-Verde-Dr-89012/home/65559146,GLVAR,2278377,N,Y,36.0211804,-115.0548007
PAST SALE,April-9-2021,Single Family Residential,1506 Arroyo Verde Dr,Henderson,NV,89012,661800,5,3.5,Horizon Ridge & Arroyo Grande,3598,6534,2014,14,184,70,Sold,,,http://www.redfin.com/NV/Henderson/1506-Arroyo-Verde-Dr-89012/home/53556473,GLVAR,2241224,N,Y,36.0209977,-115.0552641
PAST SALE,April-9-2021,Single Family Residential,190 Oella Ridge Ct,Henderson,NV,89012,375000,3,2.0,Rancho Arroyo Grande,1745,5227,1999,14,215,35,Sold,,,http://www.redfin.com/NV/Henderson/190-Oella-Ridge-Ct-89012/home/29688200,GLVAR,2274741,N,Y,36.0211193,-115.0515803
PAST SALE,April-12-2021,Single Family Residential,194 Oella Ridge Ct,Henderson,NV,89012,348888,3,1.5,Rancho Arroyo Grande,1789,4792,1998,11,195,45,Sold,,,http://www.redfin.com/NV/Henderson/194-Oella-Ridge-Ct-89012/home/29688202,GLVAR,2271625,N,Y,36.0209317,-115.0513486
PAST SALE,,Single Family Residential,117 Morning Dr,Henderson,NV,89012,275900,3,3.0,,1408,2178,2001,,196,,,,,http://www.redfin.com/NV/Henderson/117-Morning-Dr-89012/home/29880827,,,N,Y,36.0235131,-115.0512096
PAST SALE,March-26-2021,Single Family Residential,1551 Livingston Dr,Henderson,NV,89012,550000,4,3.0,Foothills Ranch-Phase 2,2914,6098,1997,28,189,45,Sold,,,http://www.redfin.com/NV/Henderson/1551-Livingston-Dr-89012/home/29688004,GLVAR,2265893,N,Y,36.0256452,-115.0525534
PAST SALE,February-2-2021,Single Family Residential,125 Voltaire Ave,Henderson,NV,89002,570000,6,4.0,Palm Hills Phase 3,4168,6098,2007,80,137,86,Sold,,,http://www.redfin.com/NV/Henderson/125-Voltaire-Ave-89002/home/29497360,GLVAR,2238969,N,Y,36.0003075,-114.9954852
PAST SALE,February-26-2021,Single Family Residential,793 Wigan Pier Dr,Henderson,NV,89002,414000,4,3.0,Palm Hills Phase 3,2605,5227,2003,56,159,86,Sold,,,http://www.redfin.com/NV/Henderson/793-Wigan-Pier-Dr-89002/home/29944956,GLVAR,2249249,N,Y,35.9989093,-114.9936082
PAST SALE,February-26-2021,Single Family Residential,19 Sanctuary Peak Ct,Henderson,NV,89012,6300000,4,4.75,Ascaya Fka Crystal Ridge Phase 2,8911,58370,2018,56,707,650,Sold,,,http://www.redfin.com/NV/Henderson/19-Sanctuary-Peak-Ct-89012/home/146416426,GLVAR,2262606,N,Y,35.9928924,-115.0641928
PAST SALE,April-7-2021,Townhouse,676 Falcon Smt,Henderson,NV,89012,1406807,2,2.25,Macdonald Highlands Planning Area 7 Phase2C Amd,2841,7841,2020,16,495,69,Sold,,,http://www.redfin.com/NV/Henderson/Summit-Dr-89002/home/170373769,GLVAR,2232126,N,Y,35.9944,-115.0629
PAST SALE,February-23-2021,Single Family Residential,1819 Stablegate Ave,Henderson,NV,89012,381000,3,1.75,Green Valley Ranch-Phase 2 Parcel 22,1792,4792,1997,59,213,83,Sold,,,http://www.redfin.com/NV/Henderson/1819-Stablegate-Ave-89012/home/29686397,GLVAR,2250720,N,Y,36.0227056,-115.0634423
PAST SALE,,Single Family Residential,1827 Poetic Valley Cir,Henderson,NV,89012,365000,3,2.5,,1618,2614,1997,,226,,,,,http://www.redfin.com/NV/Henderson/1827-Poetic-Valley-Cir-89012/home/29684108,,,N,Y,36.0262265,-115.0655273
PAST SALE,March-2-2021,Single Family Residential,1864 Whispering Cir,Henderson,NV,89012,567500,3,2.75,Green Valley Ranch Parcel 25,2862,6970,1996,52,198,63,Sold,,,http://www.redfin.com/NV/Henderson/1864-Whispering-Cir-89012/home/29685647,GLVAR,2265642,N,Y,36.0145093,-115.0710874
PAST SALE,,Single Family Residential,1807 Cypress Bay Ave,Henderson,NV,89012,285000,1,1.5,,1020,5227,2000,,279,,,,,http://www.redfin.com/NV/Henderson/1807-Cypress-Bay-Ave-89012/home/29695368,,,N,Y,36.0018095,-115.0665467
PAST SALE,March-4-2021,Single Family Residential,182 Rolling Fields Ct,Henderson,NV,89012,470000,5,3.5,Village South,3629,6098,2007,50,130,40,Sold,,,http://www.redfin.com/NV/Henderson/182-Rolling-Fields-Ct-89012/home/29056856,GLVAR,2265022,N,Y,36.0239889,-115.0357097
PAST SALE,February-26-2021,Single Family Residential,1758 Amarone Way,Henderson,NV,89012,1300000,4,4.0,Roma Hills,4105,11761,2006,56,317,1,Sold,,,http://www.redfin.com/NV/Henderson/1758-Amarone-Way-89012/home/29691881,GLVAR,2260517,N,Y,36.0023614,-115.0592258
PAST SALE,March-9-2021,Single Family Residential,661 Dragon Peak Dr,Henderson,NV,89012,3975000,4,4.5,Macdonald Highlands Planning Area 7-Phase 2A,5231,22651,2019,45,760,330,Sold,,,http://www.redfin.com/NV/Henderson/661-Dragon-Peak-Dr-89012/home/145579996,GLVAR,2261689,N,Y,36.001623,-115.051577
PAST SALE,April-2-2021,Single Family Residential,657 Dragon Peak,Henderson,NV,89012,4300000,4,5.25,Macdonald Highlands Planning Area 7-Phase 2A,6073,25265,2021,21,708,330,Sold,,,http://www.redfin.com/NV/Henderson/657-Dragon-Peak-Ct-89012/home/171190607,GLVAR,2184763,N,Y,36.0019019,-115.0517342
PAST SALE,April-5-2021,Single Family Residential,1772 Amarone Way,Henderson,NV,89012,2250000,5,5.75,Roma Hills,7177,12632,2014,18,314,245,Sold,,,http://www.redfin.com/NV/Henderson/1772-Amarone-Way-89012/home/33547281,GLVAR,2261267,N,Y,36.0033385,-115.061195
PAST SALE,March-12-2021,Single Family Residential,1996 Antelope Hill Ct,Henderson,NV,89012,428500,3,2.5,Green Valley Ranch-Phase 1 Parcel 13 & 16,1976,5227,1996,42,217,,Sold,,,http://www.redfin.com/NV/Henderson/1996-Antelope-Hill-Ct-89012/home/29684607,GLVAR,2271955,N,Y,36.0215383,-115.0729871
PAST SALE,April-1-2021,Single Family Residential,2008 Summerside Ct,Henderson,NV,89012,430000,3,2.5,Green Valley Ranch Parcel 15,1969,6534,1996,22,218,67,Sold,,,http://www.redfin.com/NV/Henderson/2008-Summerside-Ct-89012/home/29684545,GLVAR,2270190,N,Y,36.0230971,-115.0736821
PAST SALE,January-27-2021,Single Family Residential,2000 Poppywood Ave,Henderson,NV,89012,445000,3,3.0,SUN CITY MACDONALD RANCH,2165,7841,1999,86,206,60,Sold,,,http://www.redfin.com/NV/Henderson/2000-Poppywood-Ave-89012/home/29693852,GLVAR,2247115,N,Y,36.0125189,-115.0667784
PAST SALE,March-4-2021,Single Family Residential,2030 Poppywood Ave,Henderson,NV,89012,300000,2,1.75,Del Webb Communities,1230,5663,1998,50,244,61,Sold,,,http://www.redfin.com/NV/Henderson/2030-Poppywood-Ave-89012/home/29693834,GLVAR,2251917,N,Y,36.0125999,-115.0692804
PAST SALE,April-9-2021,Townhouse,1979 Joy View Ln,Henderson,NV,89012,305000,2,2.0,Del Webb Communities,1296,2614,1998,14,235,60,Sold,,,http://www.redfin.com/NV/Henderson/1979-Joy-View-Ln-89012/home/29693860,GLVAR,2270285,N,Y,36.0119352,-115.0655505
PAST SALE,February-22-2021,Single Family Residential,1169 Calle De Luz,Henderson,NV,89012,1075000,4,5.0,La Luz,5357,6098,2007,60,201,141,Sold,,,http://www.redfin.com/NV/Henderson/1169-Calle-De-Luz-89012/home/28970407,GLVAR,2260558,N,Y,36.0200108,-115.0374705
PAST SALE,April-9-2021,Single Family Residential,1283 Peppercorn Ave,Henderson,NV,89012,575000,4,2.75,Stephanie Arroyo Grande Phase,3014,6970,2001,14,191,12,Sold,,,http://www.redfin.com/NV/Henderson/1283-Peppercorn-Ave-89012/home/29688576,GLVAR,2277358,N,Y,36.019368,-115.040274
PAST SALE,March-2-2021,Townhouse,24 Red Oak Canyon St #3,Henderson,NV,89012,227000,2,2.0,Trilogy At Stephaseanie,1229,2711,2005,52,185,188,Sold,,,http://www.redfin.com/NV/Henderson/24-Red-Oak-Canyon-St-89012/unit-3/home/29041132,GLVAR,2264712,N,Y,36.0284293,-115.0444212
PAST SALE,February-24-2021,Single Family Residential,1476 Rancho Navarro St,Henderson,NV,89012,455000,4,2.5,Rancho Arroyo Grande,2439,5663,1997,58,187,40,Sold,,,http://www.redfin.com/NV/Henderson/1476-Rancho-Navarro-St-89012/home/29688030,GLVAR,2251882,N,Y,36.021902,-115.0521827
PAST SALE,April-22-2021,Single Family Residential,1856 Desert Forest Way,Henderson,NV,89012,489000,4,2.0,Green Valley Ranch Parcel 23B,2020,5663,1997,1,242,,Sold,,,http://www.redfin.com/NV/Henderson/1856-Desert-Forest-Way-89012/home/29685686,GLVAR,2280480,N,Y,36.0163887,-115.0662223
PAST SALE,February-10-2021,Single Family Residential,1667 Tangiers Dr,Henderson,NV,89012,1539900,4,4.75,Highlands,5415,13504,2009,72,284,330,Sold,,,http://www.redfin.com/NV/Henderson/1667-Tangiers-Dr-89012/home/29691456,GLVAR,2250176,N,Y,36.0075878,-115.0578589
PAST SALE,April-21-2021,Single Family Residential,1639 Liege Dr,Henderson,NV,89012,1500000,4,3.25,Highlands,3892,13939,2001,2,385,,Sold,,,http://www.redfin.com/NV/Henderson/1639-Liege-Dr-89012/home/29691446,GLVAR,2271353,N,Y,36.0071274,-115.0581369
PAST SALE,March-31-2021,Single Family Residential,143 Ritchie Ct,Henderson,NV,89012,565000,5,3.0,Foothills Ranch-Phase 3,2946,7841,1997,23,192,25,Sold,,,http://www.redfin.com/NV/Henderson/143-Ritchie-Ct-89012/home/29688057,GLVAR,2260208,N,Y,36.0230699,-115.0552641
PAST SALE,February-18-2021,Single Family Residential,2157 Indigo Creek Ave,Henderson,NV,89012,365000,2,1.5,Sun City Macdonald Ranch,1386,4792,1999,64,263,60,Sold,,,http://www.redfin.com/NV/Henderson/2157-Indigo-Creek-Ave-89012/home/29693623,GLVAR,2265348,N,Y,36.0032464,-115.0756744
PAST SALE,February-26-2021,Single Family Residential,560 Carmel Valley St,Henderson,NV,89012,359000,2,1.75,Sun City Macdonald Ranch,1370,6098,1999,56,262,61,Sold,,,http://www.redfin.com/NV/Henderson/560-Carmel-Valley-St-89012/home/29693333,GLVAR,2263102,N,Y,36.0024031,-115.0778521
PAST SALE,April-12-2021,Single Family Residential,1575 Deer Meadow Dr,Henderson,NV,89012,390000,4,2.0,Foothills Ranch-Phase 1,1925,6970,1996,11,203,25,Sold,,,http://www.redfin.com/NV/Henderson/1575-Deer-Meadow-Dr-89012/home/29687289,GLVAR,2274727,N,Y,36.024961,-115.0534801
PAST SALE,March-22-2021,Single Family Residential,1721 Cypress Manor Dr,Henderson,NV,89012,1075000,5,4.5,Foothills At Macdonald Ranch,4347,10890,2001,32,247,330,Sold,,,http://www.redfin.com/NV/Henderson/1721-Cypress-Manor-Dr-89012/home/29839004,GLVAR,2239781,N,Y,36.0095443,-115.0634886
PAST SALE,April-9-2021,Single Family Residential,1699 Tangiers,Henderson,NV,89012,2350000,6,6.75,Highlands,7278,17424,2010,14,323,330,Sold,,,http://www.redfin.com/NV/Henderson/1699-Tangiers-Dr-89012/home/39659227,GLVAR,2199501,N,Y,36.0071881,-115.0607317
PAST SALE,April-8-2021,Single Family Residential,1836 Stablegate Ave,Henderson,NV,89012,359000,2,2.0,Green Valley Ranch-Phase 2 Parcel 22,1311,4356,2000,15,274,83,Sold,,,http://www.redfin.com/NV/Henderson/1836-Stablegate-Ave-89012/home/29686330,GLVAR,2269877,N,Y,36.0214661,-115.0639983
PAST SALE,April-8-2021,Single Family Residential,1587 Bamboo Bay Dr,Henderson,NV,89012,557000,3,2.5,Desert Cove,2357,6534,2000,15,236,41,Sold,,,http://www.redfin.com/NV/Henderson/1587-Bamboo-Bay-Dr-89012/home/29688436,GLVAR,2276347,N,Y,36.0129447,-115.0556347
PAST SALE,February-2-2021,Single Family Residential,769 Durgos Dr,Henderson,NV,89012,435000,4,3.0,Montesol At La Entrada,2085,6534,2000,80,209,33,Sold,,,http://www.redfin.com/NV/Henderson/769-Durgos-Dr-89012/home/29671199,GLVAR,2254327,N,Y,36.0289172,-115.0157602
PAST SALE,April-2-2021,Single Family Residential,757 Durgos Dr,Henderson,NV,89012,385000,4,3.0,Montesol At La Entrada,2085,5663,2000,21,185,33,Sold,,,http://www.redfin.com/NV/Henderson/757-Durgos-Dr-89012/home/29671159,GLVAR,2261023,N,Y,36.029733,-115.0152273
PAST SALE,March-23-2021,Single Family Residential,1414 Foothills Village Dr,Henderson,NV,89012,1299900,5,4.5,Macdonald Highlands Planning Area 1-Phase 2,3999,15682,2005,31,325,330,Sold,,,http://www.redfin.com/NV/Henderson/1414-Foothills-Village-Dr-89012/home/29041608,GLVAR,2260898,N,Y,36.0119955,-115.0491476
PAST SALE,February-19-2021,Single Family Residential,389 Oakey Crest Ridge St #51,Henderson,NV,89012,620860,5,3.75,Aurora & Buckhorn Phase 2,3108,6534,2020,63,200,105,Sold,,,http://www.redfin.com/NV/Henderson/389-Grant-Ridge-Dr-89012/unit-51/home/172671286,GLVAR,2219284,N,Y,36.0133355,-115.0610481
PAST SALE,March-25-2021,Single Family Residential,1773 Antelope Valley Ave,Henderson,NV,89012,521000,4,2.0,Inco Parcel,2096,8276,1997,29,249,43,Sold,,,http://www.redfin.com/NV/Henderson/1773-Antelope-Valley-Ave-89012/home/29687037,GLVAR,2268078,N,Y,36.0147795,-115.0628862
PAST SALE,April-22-2021,Single Family Residential,292 Fairmeadow St,Henderson,NV,89012,640000,4,3.0,Inco Parcel,2735,6970,1997,1,234,37,Sold,,,http://www.redfin.com/NV/Henderson/292-Fairmeadow-St-89012/home/29687084,GLVAR,2278991,N,Y,36.0165673,-115.0636276
PAST SALE,February-26-2021,Single Family Residential,551 Carmel Mesa Dr,Henderson,NV,89012,341000,2,1.75,Del Webb Communities,1386,4792,2000,56,246,50,Sold,,,http://www.redfin.com/NV/Henderson/551-Carmel-Mesa-Dr-89012/home/29838556,GLVAR,2242054,N,Y,36.0041172,-115.0697901
PAST SALE,March-15-2021,Single Family Residential,1814 Eagle Village Ave,Henderson,NV,89012,389000,2,2.0,SUN CITY MACDONALD RANCH,1590,5227,1999,39,245,61,Sold,,,http://www.redfin.com/NV/Henderson/1814-Eagle-Village-Ave-89012/home/29839667,GLVAR,2269189,N,Y,36.005229,-115.0676587
PAST SALE,,Condo/Co-op,251 S Green Valley Pkwy #2714,Henderson,NV,89012,235000,2,2.5,,1102,,1997,,213,,,,,http://www.redfin.com/NV/Henderson/251-S-Green-Valley-Pkwy-89012/unit-2714/home/29450171,,,N,Y,36.019055,-115.084452
PAST SALE,March-4-2021,Condo/Co-op,251 Green Valley Pkwy #3021,Henderson,NV,89012,195000,1,1.0,Bella Vista,721,721,1997,50,270,302,Sold,,,http://www.redfin.com/NV/Henderson/251-S-Green-Valley-Pkwy-89012/unit-3021/home/29497267,GLVAR,2235498,N,Y,36.019765,-115.084418
PAST SALE,April-8-2021,Condo/Co-op,251 Green Valley Pkwy #1413,Henderson,NV,89012,342000,2,2.25,Bella Vista,1163,6235,1997,15,294,302,Sold,,,http://www.redfin.com/NV/Henderson/251-S-Green-Valley-Pkwy-89012/unit-1413/home/29497229,GLVAR,2273832,N,Y,36.01862,-115.084305
PAST SALE,March-25-2021,Condo/Co-op,251 S Green Valley Pkwy #1121,Henderson,NV,89012,293500,2,2.0,Bella Vista,1044,,1997,29,281,293,Sold,,,http://www.redfin.com/NV/Henderson/251-S-Green-Valley-Pkwy-89012/unit-1121/home/29497208,GLVAR,2270384,N,Y,36.018154,-115.084684
PAST SALE,March-9-2021,Single Family Residential,2120 High Mesa Dr,Henderson,NV,89012,315000,2,1.75,Del Webb Communities,1230,4792,1997,45,256,71,Sold,,,http://www.redfin.com/NV/Henderson/2120-High-Mesa-Dr-89012/home/29692611,GLVAR,2258851,N,Y,36.0106583,-115.0771108
PAST SALE,,Single Family Residential,2147 Eagle Watch Dr,Henderson,NV,89012,500000,2,2.0,,1818,6534,1996,,275,,,,,http://www.redfin.com/NV/Henderson/2147-Eagle-Watch-Dr-89012/home/29692532,,,N,Y,36.008892,-115.0781532
PAST SALE,March-29-2021,Single Family Residential,2013 Trailside Village Ave,Henderson,NV,89012,675000,4,3.75,Green Valley Ranch-Phase 1 Parcel 27 & 28,2990,7405,1996,25,226,65,Sold,,,http://www.redfin.com/NV/Henderson/2013-Trailside-Village-Ave-89012/home/29683207,GLVAR,2271773,N,Y,36.018803,-115.0750721
PAST SALE,March-3-2021,Single Family Residential,1648 Liege,Henderson,NV,89012,1800000,5,5.5,Highlands Unit 1,7063,14810,2014,51,255,330,Sold,,,http://www.redfin.com/NV/Henderson/1648-Liege-Dr-89012/home/33540839,GLVAR,2260985,N,Y,36.0079657,-115.0579515
PAST SALE,February-23-2021,Townhouse,1363 Grass Creek Ave #2,Henderson,NV,89012,285000,3,2.5,Trilogy At Stephaseanie,1468,2727,2005,59,194,188,Sold,,,http://www.redfin.com/NV/Henderson/1363-Grass-Creek-Ave-89012/unit-2/home/29012226,GLVAR,2259686,N,Y,36.0274388,-115.0463674
PAST SALE,March-17-2021,Townhouse,1354 Crystal Hill Ln #2,Henderson,NV,89012,305000,3,2.5,Tripoly At Stephanie,1705,3038,2005,37,179,188,Sold,,,http://www.redfin.com/NV/Henderson/1354-Crystal-Hill-Ln-89012/unit-2/home/29041195,GLVAR,2244949,N,Y,36.0284364,-115.0461821
PAST SALE,March-25-2021,Single Family Residential,272 Camino Viejo St,Henderson,NV,89012,385000,3,2.5,Vista Grande,2073,4792,2000,29,186,58,Sold,,,http://www.redfin.com/NV/Henderson/272-Camino-Viejo-St-89012/home/29688325,GLVAR,2270428,N,Y,36.0184027,-115.0442591
PAST SALE,,Single Family Residential,1514 Emerald Peak Ave,Henderson,NV,89012,366000,3,2.0,,1524,5227,2000,,240,,,,,http://www.redfin.com/NV/Henderson/1514-Emerald-Peak-Ave-89012/home/29688079,,,N,Y,36.0181993,-115.0530631
PAST SALE,March-10-2021,Single Family Residential,687 Glowing Horizon St,Henderson,NV,89052,760000,4,2.75,The Canyons Parcel B Phase 3,3316,4792,2020,44,229,65,Sold,,,http://www.redfin.com/NV/Henderson/687-Glowing-Horizon-St-89052/home/166502970,GLVAR,2238145,N,Y,36.0028736,-115.0827849
PAST SALE,March-22-2021,Single Family Residential,1481 Rancho Ridge Dr,Henderson,NV,89012,520000,5,3.0,Rancho Arroyo Grande,2834,6534,1998,32,183,35,Sold,,,http://www.redfin.com/NV/Henderson/1481-Rancho-Ridge-Dr-89012/home/29688065,GLVAR,2256379,N,Y,36.0216176,-115.0529241
PAST SALE,March-31-2021,Single Family Residential,260 Redwing Village Ct,Henderson,NV,89012,306900,2,2.0,GREEN VALLEY RANCH,1282,4792,1997,23,239,170,Sold,,,http://www.redfin.com/NV/Henderson/260-Redwing-Village-Ct-89012/home/29684663,GLVAR,2013014,N,Y,36.0223405,-115.0683074
PAST SALE,March-22-2021,Single Family Residential,493 Elm Hollow Ct,Henderson,NV,89012,408000,2,2.0,Del Webb Communities,1802,10890,1996,32,226,62,Sold,,,http://www.redfin.com/NV/Henderson/493-Elm-Hollow-Ct-89012/home/29692490,GLVAR,2270341,N,Y,36.0062695,-115.0824158
PAST SALE,March-17-2021,Single Family Residential,493 Lace Haven Ct,Henderson,NV,89012,420000,2,2.0,Del Webb Communities,1997,10019,1996,37,210,61,Sold,,,http://www.redfin.com/NV/Henderson/493-Lace-Haven-Ct-89012/home/29692479,GLVAR,2264292,N,Y,36.0071892,-115.0826707
PAST SALE,March-31-2021,Single Family Residential,2197 Tiger Links Dr,Henderson,NV,89012,362000,2,2.0,Sun City Macdonald Ranch,1580,5227,1998,23,229,,Sold,,,http://www.redfin.com/NV/Henderson/2197-Tiger-Links-Dr-89012/home/29693476,GLVAR,2269949,N,Y,36.0046088,-115.0786861
PAST SALE,March-26-2021,Single Family Residential,1351 Calle Calma,Henderson,NV,89012,575000,3,2.5,Trovas,2373,7405,2003,28,242,55,Sold,,,http://www.redfin.com/NV/Henderson/1351-Cll-Calma-89012/home/29943593,GLVAR,2265250,N,Y,36.0138709,-115.0460894
PAST SALE,February-26-2021,Condo/Co-op,251 Green Valley Pkwy #5911,Henderson,NV,89012,295600,3,2.5,Bella Vista,1195,,1997,56,247,301,Sold,,,http://www.redfin.com/NV/Henderson/251-S-Green-Valley-Pkwy-89012/unit-5911/home/29497345,GLVAR,2256252,N,Y,36.018973,-115.086188
PAST SALE,March-8-2021,Condo/Co-op,251 Green Valley Pkwy #2813,Henderson,NV,89012,253000,2,1.5,Bella Vista,1163,,1997,46,218,292,Sold,,,http://www.redfin.com/NV/Henderson/251-S-Green-Valley-Pkwy-89012/unit-2813/home/29469859,GLVAR,2256183,N,Y,36.019013,-115.084749
PAST SALE,March-15-2021,Condo/Co-op,2260 Village Walk Dr #1204,Henderson,NV,89052,409000,1,1.5,District,991,,2004,39,413,590,Sold,,,http://www.redfin.com/NV/Henderson/2260-Village-Walk-Dr-89052/unit-1204/home/29056823,GLVAR,2257480,N,Y,36.0214435,-115.0876088
PAST SALE,March-11-2021,Townhouse,1216 Starview Peak Ct,Henderson,NV,89012,1525000,3,3.0,Macdonald Foothills Pa-18A Phase 1 Amd,3028,6534,2017,43,504,330,Sold,,,http://www.redfin.com/NV/Henderson/1216-Starview-Peak-Ct-89012/home/146418538,GLVAR,2228407,N,Y,36.012563,-115.038689
PAST SALE,March-15-2021,Single Family Residential,1232 Starview Peak Ct,Henderson,NV,89012,1900000,3,3.0,MACDONALD FOOTHILLS PA-18A PHA,3028,5663,2017,39,627,330,Sold,,,http://www.redfin.com/NV/Henderson/1232-Starview-Peak-Ct-89012/home/146418535,GLVAR,2250661,N,Y,36.012376,-115.039319
PAST SALE,March-19-2021,Single Family Residential,406 Solitude Peak Ln,Henderson,NV,89012,1000000,2,2.25,Macdonald Foothills Pa-18A Phase 1 Amd,2892,3049,2018,35,346,330,Sold,,,http://www.redfin.com/NV/Henderson/406-Solitude-Peak-Ln-89012/home/161755043,GLVAR,2232453,N,Y,36.0121256,-115.0383586
PAST SALE,April-8-2021,Single Family Residential,383 Solitude Peak Ln,Henderson,NV,89012,2012273,3,3.0,MACDONALD FOOTHILLS PA-18A PHA,3572,9917,2020,15,563,,Sold,,,http://www.redfin.com/NV/Henderson/383-Solitude-Peak-Ln-89012/home/169230460,GLVAR,2137855,N,Y,36.0126297,-115.0383532
PAST SALE,March-1-2021,Single Family Residential,1816 Country Meadows Dr,Henderson,NV,89012,690000,4,3.0,Green Valley Ranch Parcel 25,3913,10454,2000,53,176,126,Sold,,,http://www.redfin.com/NV/Henderson/1816-Country-Meadows-Dr-89012/home/29685785,GLVAR,2258731,N,Y,36.0135462,-115.0666393
PAST SALE,February-26-2021,Townhouse,1780 Tanner Cir,Henderson,NV,89012,300000,2,2.0,Green Valley Ranch Parcel 3,1489,3485,1996,56,201,177,Sold,,,http://www.redfin.com/NV/Henderson/1780-Tanner-Cir-89012/home/29685971,GLVAR,2249385,N,Y,36.0264928,-115.0614983
PAST SALE,February-26-2021,Single Family Residential,45 Trailside Ct,Henderson,NV,89012,410000,3,2.0,Mountain Pointe One,1558,6098,1995,56,263,64,Sold,,,http://www.redfin.com/NV/Henderson/45-Trailside-Ct-89012/home/29686345,GLVAR,2261180,N,Y,36.0233233,-115.0594111
PAST SALE,March-23-2021,Single Family Residential,2194 Chapman Ranch Dr,Henderson,NV,89012,330000,2,1.75,Del Webb Communities,1404,5663,1996,31,235,60,Sold,,,http://www.redfin.com/NV/Henderson/2194-Chapman-Ranch-Dr-89012/home/29692840,GLVAR,2260168,N,Y,36.0121438,-115.0822537
PAST SALE,March-29-2021,Single Family Residential,281 Manzanita Ranch Ln,Henderson,NV,89012,386000,3,2.5,Green Valley Ranch-Phase 2 Parcel 31,1620,5663,1996,25,238,63,Sold,,,http://www.redfin.com/NV/Henderson/281-Manzanita-Ranch-Ln-89012/home/29683286,GLVAR,2267974,N,Y,36.0170784,-115.0765548
PAST SALE,March-5-2021,Single Family Residential,2156 Indigo Creek Ave,Henderson,NV,89012,310000,2,2.0,Sun City Macdonald Ranch,1276,4792,1999,49,243,64,Sold,,,http://www.redfin.com/NV/Henderson/2156-Indigo-Creek-Ave-89012/home/29693673,GLVAR,2261052,N,Y,36.0036848,-115.0756744
PAST SALE,March-8-2021,Single Family Residential,2190 King Mesa Dr,Henderson,NV,89012,295000,2,1.75,Sun City MacDonald Ranch,1130,4356,1999,46,261,61,Sold,,,http://www.redfin.com/NV/Henderson/2190-King-Mesa-Dr-89012/home/29693494,GLVAR,2260821,N,Y,36.0034052,-115.0781767
PAST SALE,February-26-2021,Single Family Residential,2155 Wilbanks Cir,Henderson,NV,89012,720000,5,3.0,Green Valley Ranch Parcel 36B-Phase 2,4058,11761,1998,56,177,50,Sold,,,http://www.redfin.com/NV/Henderson/2155-Wilbanks-Cir-89012/home/29684347,GLVAR,2220177,N,Y,36.0145024,-115.082578
PAST SALE,,Single Family Residential,ADDRESS REDACTED,HENDERSON,NV,89012,465000,4,2.5,,2358,8276,1996,,197,,,,,http://www.redfin.com/NV/HENDERSON/ADDRESS-REDACTED-89012/home/29686041,,,N,Y,36.025484,-115.056467
PAST SALE,March-9-2021,Single Family Residential,2153 Hidden Ranch Ter,Henderson,NV,89052,310000,2,2.0,Green Valley Ranch Parcel 39A Amd,1188,4356,1998,45,261,48,Sold,,,http://www.redfin.com/NV/Henderson/2153-Hidden-Ranch-Ter-89052/home/29682022,GLVAR,2257734,N,Y,36.0165338,-115.0892034
PAST SALE,March-11-2021,Single Family Residential,2185 Hidden Ranch Ter,Henderson,NV,89052,399900,3,2.0,Green Valley Ranch Parcel 39A,1444,10454,1999,43,277,63,Sold,,,http://www.redfin.com/NV/Henderson/2185-Hidden-Ranch-Ter-89052/home/29682234,GLVAR,2270764,N,Y,36.0160887,-115.091381
PAST SALE,February-22-2021,Single Family Residential,1463 Evening Song Ave,Henderson,NV,89012,325000,3,2.5,Stephaseanie Carriage Homes Phase 2,1621,2178,2001,60,200,124,Sold,,,http://www.redfin.com/NV/Henderson/1463-Evening-Song-Ave-89012/home/29880823,GLVAR,2262975,N,Y,36.0241781,-115.0501902
PAST SALE,March-18-2021,Single Family Residential,499 Eagle Vista Dr,Henderson,NV,89012,408000,2,1.75,Del Webb Communities,1418,5227,1997,36,288,61,Sold,,,http://www.redfin.com/NV/Henderson/499-Eagle-Vista-Dr-89012/home/29694109,GLVAR,2265652,N,Y,36.0064322,-115.0733578
PAST SALE,March-23-2021,Single Family Residential,512 Carmel Mesa Dr,Henderson,NV,89012,345000,2,2.0,Del Webb Communities,1738,5663,1997,31,199,61,Sold,,,http://www.redfin.com/NV/Henderson/512-Carmel-Mesa-Dr-89012/home/29694158,GLVAR,2234354,N,Y,36.0062704,-115.0716666
PAST SALE,February-1-2021,Single Family Residential,1046 Parkington Ave,Henderson,NV,89012,659597,4,2.5,HORIZON RIDGE & VALLE VERDE,2867,5500,2020,81,230,69,Sold,,,http://www.redfin.com/NV/Henderson/Parkington-Ave-89012/home/169239282,GLVAR,2235539,N,Y,36.0153,-115.0559
PAST SALE,March-8-2021,Single Family Residential,1066 Parkington Ave,Henderson,NV,89012,733657,4,3.5,Horizon Ridge & Gibson West,3309,5500,2020,46,222,69,Sold,,,http://www.redfin.com/NV/Henderson/Parkington-Ave-89012/home/169239277,GLVAR,2254412,N,Y,36.0153,-115.0559
PAST SALE,April-9-2021,Single Family Residential,1416 Summer Glow Ave,Henderson,NV,89012,325000,3,2.5,Stephaseanie Carriage Homes,1506,1742,2000,14,216,124,Sold,,,http://www.redfin.com/NV/Henderson/1416-Summer-Glow-Ave-89012/home/29837536,GLVAR,2269572,N,Y,36.0241312,-115.0484294
PAST SALE,March-30-2021,Single Family Residential,1428 Evening Song Ave,Henderson,NV,89012,307500,3,2.5,Stephaseanie Carriage Homes,1506,1742,2000,24,204,124,Sold,,,http://www.redfin.com/NV/Henderson/1428-Evening-Song-Ave-89012/home/28966777,GLVAR,2255415,N,Y,36.0249434,-115.0490781
PAST SALE,April-14-2021,Single Family Residential,1842 High Mesa Dr,Henderson,NV,89012,335000,2,2.0,Macdonald Ranch,1277,6534,2000,9,262,,Sold,,,http://www.redfin.com/NV/Henderson/1842-High-Mesa-Dr-89012/home/29695219,GLVAR,2265150,N,Y,35.9992743,-115.065759
PAST SALE,April-13-2021,Single Family Residential,1330 Calle Calma,Henderson,NV,89012,650000,4,3.75,Trovas,4071,8276,2002,10,160,50,Sold,,,http://www.redfin.com/NV/Henderson/1330-Cll-Calma-89012/home/29943591,GLVAR,2273666,N,Y,36.0143392,-115.0446993
PAST SALE,March-8-2021,Single Family Residential,549 Carmel Mesa Dr,Henderson,NV,89012,307000,2,2.0,Del Webb Communities,1130,4356,2000,46,272,61,Sold,,,http://www.redfin.com/NV/Henderson/549-Carmel-Mesa-Dr-89012/home/29838607,GLVAR,2261419,N,Y,36.004166,-115.0699291
PAST SALE,March-2-2021,Single Family Residential,1499 Macdonald Ranch Dr,Henderson,NV,89012,3000000,6,6.25,PALISADES,10723,31799,2003,52,280,330,Sold,,,http://www.redfin.com/NV/Henderson/1499-MacDonald-Ranch-Dr-89012/home/29838875,GLVAR,2088984,N,Y,36.0104137,-115.054291
PAST SALE,March-19-2021,Single Family Residential,629 Dragon Peak Dr,Henderson,NV,89012,4600000,5,6.0,Macdonald Highlands Planning Area 7-Phase 2A,8600,47045,2019,35,535,399,Sold,,,http://www.redfin.com/NV/Henderson/629-Dragon-Peak-Dr-89012/home/166030616,GLVAR,2203519,N,Y,36.004763,-115.05004
PAST SALE,March-26-2021,Single Family Residential,740 Descartes Ave,Henderson,NV,89002,430000,3,2.0,Palm Hills-Phase 1,2243,6534,1997,28,192,86,Sold,,,http://www.redfin.com/NV/Henderson/740-Descartes-Ave-89002/home/29722573,GLVAR,2271305,N,Y,36.0025202,-114.9894604
PAST SALE,January-29-2021,Single Family Residential,2120 Point Mallard Dr,Henderson,NV,89012,365000,2,1.75,Del Webb Communities,1649,6534,1997,84,221,61,Sold,,,http://www.redfin.com/NV/Henderson/2120-Point-Mallard-Dr-89012/home/29692743,GLVAR,2260511,N,Y,36.0126933,-115.0761146
PAST SALE,April-12-2021,Single Family Residential,1565 Bozeman Dr,Henderson,NV,89012,600000,4,2.5,Foothills Ranch-Phase 2,2825,7405,1997,11,212,25,Sold,,,http://www.redfin.com/NV/Henderson/1565-Bozeman-Dr-89012/home/29687991,GLVAR,2272681,N,Y,36.026637,-115.0524839
PAST SALE,,Single Family Residential,1591 Bozeman Dr,Henderson,NV,89012,300000,3,2.0,,1770,7405,1996,,169,,,,,http://www.redfin.com/NV/Henderson/1591-Bozeman-Dr-89012/home/29687221,,,N,Y,36.0265928,-115.0551019
PAST SALE,March-15-2021,Single Family Residential,52 Cabana Blanca St,Henderson,NV,89012,473000,4,2.0,La Entrada,2298,6098,2000,39,206,,Sold,,,http://www.redfin.com/NV/Henderson/52-Cabana-Blanca-St-89012/home/29671519,GLVAR,2268417,N,Y,36.031118,-115.0251443
PAST SALE,February-26-2021,Single Family Residential,2153 Eagle Watch Dr,Henderson,NV,89012,520000,2,1.75,Del Webb Communities,1981,6534,1996,56,262,61,Sold,,,http://www.redfin.com/NV/Henderson/2153-Eagle-Watch-Dr-89012/home/29692531,GLVAR,2266284,N,Y,36.0088126,-115.0787787
PAST SALE,April-6-2021,Single Family Residential,437 Piute Valley Ct,Henderson,NV,89012,509000,2,2.0,Del Webb Communities,1997,20038,1996,17,255,54,Sold,,,http://www.redfin.com/NV/Henderson/437-Piute-Valley-Ct-89012/home/29692817,GLVAR,2273130,N,Y,36.0103802,-115.0789872
PAST SALE,January-25-2021,Single Family Residential,280 Goldstar St,Henderson,NV,89012,646000,4,3.75,Stephaseanie & Arroyo Grande,3403,7841,2011,88,190,118,Sold,,,http://www.redfin.com/NV/Henderson/280-Goldstar-St-89012/home/40548919,GLVAR,2255409,N,Y,36.0165086,-115.0478502
PAST SALE,February-5-2021,Single Family Residential,2004 Saddle Ridge Ave,Henderson,NV,89012,365000,3,2.0,Green Valley Ranch Parcel 15,1690,4792,1997,77,216,63,Sold,,,http://www.redfin.com/NV/Henderson/2004-Saddle-Ridge-Ave-89012/home/29683475,GLVAR,2262215,N,Y,36.0252033,-115.0744234
PAST SALE,April-6-2021,Single Family Residential,242 Desert Arroyo Ct,Henderson,NV,89012,485000,4,2.5,Arroyo Summit,3038,6098,2013,17,160,78,Sold,,,http://www.redfin.com/NV/Henderson/242-Desert-Arroyo-Ct-89012/home/49704734,GLVAR,2271316,N,Y,36.0163052,-115.0463443
PAST SALE,January-29-2021,Townhouse,229 Serenity Crest St,Henderson,NV,89012,282000,2,2.5,Black Mountain Vistas Parcel C,1422,2614,2003,84,198,92,Sold,,,http://www.redfin.com/NV/Henderson/229-Serenity-Crest-St-89012/home/29689475,GLVAR,2259759,N,Y,36.021367,-115.017007
