SALE TYPE,SOLD DATE,PROPERTY TYPE,ADDRESS,CITY,STATE OR PROVINCE,ZIP OR POSTAL CODE,PRICE,BEDS,BATHS,LOCATION,SQUARE FEET,LOT SIZE,YEAR BUILT,DAYS ON MARKET,$/SQUARE FEET,HOA/MONTH,STATUS,NEXT OPEN HOUSE START TIME,NEXT OPEN HOUSE END TIME,URL (SEE http://www.redfin.com/buy-a-home/comparative-market-analysis FOR INFO ON PRICING),SOURCE,MLS#,FAVORITE,INTERESTED,LATITUDE,LONGITUDE
PAST SALE,January-25-2021,Single Family Residential,3252 Hill Valley St,Las Vegas,NV,89129,415000,2,2.5,Cheyenne Hualapai,1944,8712,2000,86,213,24,Sold,,,http://www.redfin.com/NV/Las-Vegas/3252-Hill-Valley-St-89129/home/29105069,GLVAR,2255743,N,Y,36.2205577,-115.3183216
PAST SALE,March-8-2021,Condo/Co-op,10550 Alexander Rd #1199,Las Vegas,NV,89129,164000,1,1.0,Chateau Versailles Condo,772,,2003,44,212,145,Sold,,,http://www.redfin.com/NV/Las-Vegas/10550-W-Alexander-Rd-89129/unit-1199/home/29277438,GLVAR,2270886,N,Y,36.234752,-115.327994
PAST SALE,March-5-2021,Condo/Co-op,10550 Alexander Rd #2118,Las Vegas,NV,89129,164000,1,1.0,Chateau Versailles Condo,821,,2003,47,200,145,Sold,,,http://www.redfin.com/NV/Las-Vegas/10550-W-Alexander-Rd-89129/unit-2118/home/29277340,GLVAR,2270852,N,Y,36.235421,-115.327115
PAST SALE,March-29-2021,Condo/Co-op,3812 Ormond Beach St #201,Las Vegas,NV,89129,199900,2,2.0,Lone Mountain Condos,1110,1500,2003,23,180,165,Sold,,,http://www.redfin.com/NV/Las-Vegas/3812-Ormond-Beach-St-89129/unit-201/home/29930524,GLVAR,2269182,N,Y,36.229775,-115.317141
PAST SALE,February-5-2021,Condo/Co-op,10550 Alexander Rd #2040,Las Vegas,NV,89129,225000,2,2.0,Chateau Versailles Condo,1270,,2003,75,177,145,Sold,,,http://www.redfin.com/NV/Las-Vegas/10550-W-Alexander-Rd-89129/unit-2040/home/29277449,GLVAR,2256312,N,Y,36.234517,-115.326394
PAST SALE,February-4-2021,Condo/Co-op,10550 Alexander Rd #2072,Las Vegas,NV,89129,173500,1,1.0,Chateau Versailles Condo,821,,2003,76,211,145,Sold,,,http://www.redfin.com/NV/Las-Vegas/10550-W-Alexander-Rd-89129/unit-2072/home/29277547,GLVAR,2259360,N,Y,36.235536,-115.326369
PAST SALE,January-29-2021,Single Family Residential,9325 Dancing Daffodil Ave,Las Vegas,NV,89129,245000,2,2.0,Summersprings,958,4356,1996,82,256,,Sold,,,http://www.redfin.com/NV/Las-Vegas/9325-Dancing-Daffodil-Ave-89129/home/29123088,GLVAR,2244263,N,Y,36.2247158,-115.2990843
PAST SALE,February-26-2021,Single Family Residential,3512 Summersprings Dr,Las Vegas,NV,89129,251000,2,2.0,Summersprings-Unit 1,964,3920,1994,54,260,,Sold,,,http://www.redfin.com/NV/Las-Vegas/3512-Summersprings-Dr-89129/home/29124786,GLVAR,2262224,N,Y,36.2244952,-115.2952182
PAST SALE,February-23-2021,Single Family Residential,7136 Overhill Ave,Las Vegas,NV,89129,290500,2,2.0,Lone Mountain Village,1248,5227,1994,57,233,13,Sold,,,http://www.redfin.com/NV/Las-Vegas/7136-Overhill-Ave-89129/home/29119518,GLVAR,2268099,N,Y,36.2445931,-115.2509049
PAST SALE,January-25-2021,Townhouse,8465 Majestic View Ave,Las Vegas,NV,89129,210000,2,2.5,Mira Vista,1281,2178,1997,86,164,70,Sold,,,http://www.redfin.com/NV/Las-Vegas/8465-Majestic-View-Ave-89129/home/29127138,GLVAR,2231867,N,Y,36.222716,-115.277948
PAST SALE,March-12-2021,Townhouse,10500 Nordic Cliff Ave,Las Vegas,NV,89129,240000,2,2.5,Cliff Shadows Twnhms,1396,1307,2007,40,172,200,Sold,,,http://www.redfin.com/NV/Las-Vegas/10500-Nordic-Cliff-Ave-89129/home/29277333,GLVAR,2272116,N,Y,36.246564,-115.325789
PAST SALE,February-3-2021,Condo/Co-op,3511 Desert Cliff St #102,Las Vegas,NV,89129,207000,2,1.5,Gowan Cliff Shadows Condo,1054,,2004,77,196,205,Sold,,,http://www.redfin.com/NV/Las-Vegas/3511-Desert-Cliff-St-89129/unit-102/home/29007242,GLVAR,2247224,N,Y,36.2245025,-115.3306596
PAST SALE,February-18-2021,Condo/Co-op,3832 Ormond Beach St #201,Las Vegas,NV,89129,195000,2,2.0,Lone Mountain Condos,1110,,2003,62,176,165,Sold,,,http://www.redfin.com/NV/Las-Vegas/3832-Ormond-Beach-St-89129/unit-201/home/29930306,GLVAR,2257498,N,Y,36.2303307,-115.317141
PAST SALE,January-22-2021,Condo/Co-op,10120 Cedar Key Ave #204,Las Vegas,NV,89129,205000,2,2.0,Lone Mountain Condos,1110,,2003,89,185,165,Sold,,,http://www.redfin.com/NV/Las-Vegas/10120-Cedar-Key-Ave-89129/unit-204/home/29930058,GLVAR,2241180,N,Y,36.2310367,-115.3161224
PAST SALE,March-15-2021,Condo/Co-op,3822 Ormond Beach St #202,Las Vegas,NV,89129,202000,2,2.0,Lone Mountain Condos,1232,7016,2003,37,164,165,Sold,,,http://www.redfin.com/NV/Las-Vegas/3822-Ormond-Beach-St-89129/unit-202/home/29930508,GLVAR,2262093,N,Y,36.2300131,-115.317141
PAST SALE,April-8-2021,Single Family Residential,10385 Prairie Schooner Ave,Las Vegas,NV,89129,263000,2,2.5,Sierra Crossings-Phase 1,1340,2178,2003,13,196,120,Sold,,,http://www.redfin.com/NV/Las-Vegas/10385-Prairie-Schooner-Ave-89129/home/29930133,GLVAR,2276478,N,Y,36.2266793,-115.3228587
PAST SALE,April-9-2021,Condo/Co-op,10550 Alexander Rd #2068,Las Vegas,NV,89129,239000,2,2.0,Chateau Versailles Condo,1270,1270,2003,12,188,145,Sold,,,http://www.redfin.com/NV/Las-Vegas/10550-W-Alexander-Rd-89129/unit-2068/home/29277553,GLVAR,2271914,N,Y,36.2355361,-115.326369
PAST SALE,March-19-2021,Condo/Co-op,3672 Angela Robin St #105,Las Vegas,NV,89129,184700,2,2.0,Sunhampton Condo,1091,1091,1996,33,169,180,Sold,,,http://www.redfin.com/NV/Las-Vegas/3672-Angela-Robin-St-89129/unit-105/home/29130203,GLVAR,2268487,N,Y,36.2269105,-115.248057
PAST SALE,March-15-2021,Townhouse,9705 Tiaquinn Ave #101,Las Vegas,NV,89129,260000,2,1.75,Cheyenne Ridge Condos-Phase 1 2nd Amd,1387,1817,1996,37,187,265,Sold,,,http://www.redfin.com/NV/Las-Vegas/9705-Tiaquinn-Ave-89129/unit-101/home/29121278,GLVAR,2262288,N,Y,36.222382,-115.3073257
PAST SALE,January-28-2021,Condo/Co-op,3975 N Hualapai Way #274,Las Vegas,NV,89129,209000,2,2.0,Cambria Condo Amd,1200,,2007,83,174,210,Sold,,,http://www.redfin.com/NV/Las-Vegas/3975-N-Hualapai-Way-89129/unit-274/home/29061325,GLVAR,2258494,N,Y,36.2314754,-115.3159372
PAST SALE,February-11-2021,Single Family Residential,10524 Cold Mountain Ave,Las Vegas,NV,89129,245000,2,2.5,Sierra 2,1419,1742,2005,69,173,40,Sold,,,http://www.redfin.com/NV/Las-Vegas/10524-Cold-Mountain-Ave-89129/home/29011951,GLVAR,2260573,N,Y,36.2232094,-115.3278587
PAST SALE,February-9-2021,Condo/Co-op,3574 Desert Cliff St #103,Las Vegas,NV,89129,194000,2,1.75,Gowan Cliff Shadows Condo,1054,,2004,71,184,216,Sold,,,http://www.redfin.com/NV/Las-Vegas/3574-Desert-Cliff-St-89129/unit-103/home/29008723,GLVAR,2242592,N,Y,36.225194,-115.3302777
PAST SALE,February-25-2021,Condo/Co-op,3545 Cactus Shadow St #202,Las Vegas,NV,89129,186900,2,2.0,Gowan Cliff Shadows Condo,1054,,2004,55,177,205,Sold,,,http://www.redfin.com/NV/Las-Vegas/3545-Cactus-Shadow-St-89129/unit-202/home/29001940,GLVAR,2259695,N,Y,36.2248492,-115.3315855
PAST SALE,April-2-2021,Condo/Co-op,3314 Indian Shadow St #104,Las Vegas,NV,89129,205000,2,2.0,Gowan Cliff Shadows Condo,1054,,2004,19,194,170,Sold,,,http://www.redfin.com/NV/Las-Vegas/3314-Indian-Shadow-St-89129/unit-104/home/28985576,GLVAR,2270703,N,Y,36.2220291,-115.3300115
PAST SALE,March-24-2021,Condo/Co-op,3451 Desert Cliff St #201,Las Vegas,NV,89129,203000,2,1.75,Gowan Cliff Shadows Condo,1054,1054,2004,28,193,210,Sold,,,http://www.redfin.com/NV/Las-Vegas/3451-Desert-Cliff-St-89129/unit-201/home/28985653,GLVAR,2267781,N,Y,36.2237087,-115.3306596
PAST SALE,March-25-2021,Condo/Co-op,3460 Cactus Shadow St #104,Las Vegas,NV,89129,211000,2,2.0,Gowan Cliff Shadows Condo,1054,,2004,27,200,205,Sold,,,http://www.redfin.com/NV/Las-Vegas/3460-Cactus-Shadow-St-89129/unit-104/home/28985663,GLVAR,2268734,N,Y,36.2239426,-115.33103
PAST SALE,April-16-2021,Condo/Co-op,3575 Cactus Shadow St #203,Las Vegas,NV,89129,216000,2,1.75,Gowan Cliff Shadows Condo,1242,,2004,5,174,205,Sold,,,http://www.redfin.com/NV/Las-Vegas/3575-Cactus-Shadow-St-89129/unit-203/home/29004282,GLVAR,2269905,N,Y,36.2250874,-115.3315855
PAST SALE,April-12-2021,Townhouse,10459 Tuscany Rose Ct,Las Vegas,NV,89129,258000,2,2.5,Spinnaker Village 3,1381,1742,2007,9,187,115,Sold,,,http://www.redfin.com/NV/Las-Vegas/10459-Tuscany-Rose-Ct-89129/home/29313618,GLVAR,2272846,N,Y,36.221154,-115.324332
PAST SALE,March-23-2021,Condo/Co-op,10190 Deerfield Beach Ave #201,Las Vegas,NV,89129,255000,2,1.75,Lone Mountain Condos,1280,,2003,29,199,165,Sold,,,http://www.redfin.com/NV/Las-Vegas/10190-Deerfield-Beach-Ave-89129/unit-201/home/29930080,GLVAR,2272905,N,Y,36.232474,-115.317141
PAST SALE,January-29-2021,Single Family Residential,9712 Standard Ave,Las Vegas,NV,89129,380000,2,3.0,Cheyenne Ridge Phase 2,2289,7841,1996,82,166,50,Sold,,,http://www.redfin.com/NV/Las-Vegas/9712-Standard-Ave-89129/home/29121410,GLVAR,2248472,N,Y,36.2272563,-115.3076267
PAST SALE,February-23-2021,Single Family Residential,3712 Vanishing Point St,Las Vegas,NV,89129,252900,2,2.5,Sierra Crossings-Phase 2,1340,1742,2004,57,189,120,Sold,,,http://www.redfin.com/NV/Las-Vegas/3712-Vanishing-Point-St-89129/home/28985770,GLVAR,2258027,N,Y,36.2280059,-115.3231365
PAST SALE,January-29-2021,Single Family Residential,3674 Mcmurty Ct,Las Vegas,NV,89129,250000,2,2.5,Sierra Crossings-Phase 1,1340,1742,2003,82,187,110,Sold,,,http://www.redfin.com/NV/Las-Vegas/3674-McMurty-Ct-89129/home/29930190,GLVAR,2255327,N,Y,36.227001,-115.323368
PAST SALE,March-5-2021,Single Family Residential,3618 American Pie Ct,Las Vegas,NV,89129,270000,2,2.5,Sierra Crossings-Phase 1,1340,1742,2003,47,201,120,Sold,,,http://www.redfin.com/NV/Las-Vegas/3618-American-Pie-Ct-89129/home/29930117,GLVAR,2269125,N,Y,36.2258457,-115.3219791
PAST SALE,March-17-2021,Condo/Co-op,10630 Calico Mountain Ave #102,Las Vegas,NV,89129,205000,2,1.75,Gowan Cliff Shadows Condo,1054,,2004,35,194,216,Sold,,,http://www.redfin.com/NV/Las-Vegas/10630-Calico-Mountain-Ave-89129/unit-102/home/28985625,GLVAR,2262980,N,Y,36.2231572,-115.3302893
PAST SALE,April-12-2021,Condo/Co-op,10550 Alexander Rd #2108,Las Vegas,NV,89129,169800,1,1.0,Chateau Versailles Condo,821,,2003,9,207,145,Sold,,,http://www.redfin.com/NV/Las-Vegas/10550-W-Alexander-Rd-89129/unit-2108/home/29277317,GLVAR,2276869,N,Y,36.235897,-115.327494
PAST SALE,March-29-2021,Condo/Co-op,10550 Alexander Rd #1178,Las Vegas,NV,89129,181500,2,2.0,Chateau Versailles Condo,1086,,2003,23,167,145,Sold,,,http://www.redfin.com/NV/Las-Vegas/10550-W-Alexander-Rd-89129/unit-1178/home/29179718,GLVAR,2209491,N,Y,36.233595,-115.327887
PAST SALE,February-18-2021,Condo/Co-op,10200 Delray Beach Ave #104,Las Vegas,NV,89129,208000,2,2.0,Lone Mountain Condos,1032,9023,2003,62,202,,Sold,,,http://www.redfin.com/NV/Las-Vegas/10200-Delray-Beach-Ave-89129/unit-104/home/29930332,GLVAR,2261741,N,Y,36.2316551,-115.317604
PAST SALE,March-15-2021,Condo/Co-op,10550 Alexander Rd #2202,Las Vegas,NV,89129,173000,1,1.0,Chateau Versailles Condo,889,,2003,37,195,145,Sold,,,http://www.redfin.com/NV/Las-Vegas/10550-W-Alexander-Rd-89129/unit-2202/home/29179631,GLVAR,2268255,N,Y,36.234752,-115.327994
PAST SALE,March-22-2021,Townhouse,10454 Gold Shadow Ave,Las Vegas,NV,89129,242000,2,2.5,Cliff Shadows Twnhms,1396,1307,2007,30,173,200,Sold,,,http://www.redfin.com/NV/Las-Vegas/10454-Gold-Shadow-Ave-89129/home/29277271,GLVAR,2271540,N,Y,36.247354,-115.325412
PAST SALE,January-22-2021,Condo/Co-op,10550 Alexander Rd #1055,Las Vegas,NV,89129,168000,1,1.0,Chateau Versailles Condo,772,,2003,89,218,137,Sold,,,http://www.redfin.com/NV/Las-Vegas/10550-W-Alexander-Rd-89129/unit-1055/home/29277455,GLVAR,2260403,N,Y,36.235046,-115.326381
PAST SALE,February-8-2021,Condo/Co-op,10550 Alexander Rd #2125,Las Vegas,NV,89129,167000,1,1.0,Chateau Versailles Condo,821,,2003,72,203,145,Sold,,,http://www.redfin.com/NV/Las-Vegas/10550-W-Alexander-Rd-89129/unit-2125/home/29179743,GLVAR,2258603,N,Y,36.235417,-115.32758
PAST SALE,February-10-2021,Condo/Co-op,10550 Alexander #2219,Las Vegas,NV,89129,169000,1,1.0,Chateau Versailles Condo,821,7783,2003,70,206,145,Sold,,,http://www.redfin.com/NV/Las-Vegas/10550-W-Alexander-Rd-89129/unit-2219/home/29179624,GLVAR,2180704,N,Y,36.233314,-115.328064
PAST SALE,,Single Family Residential,10401 Rocky Waters Ave,Las Vegas,NV,89129,253000,2,2.5,,1499,2614,2000,,169,,,,,http://www.redfin.com/NV/Las-Vegas/10401-Rocky-Waters-Ave-89129/home/29104643,,,N,Y,36.221095,-115.3226272
PAST SALE,February-26-2021,Single Family Residential,7221 Camden Pine Ave,Las Vegas,NV,89129,239800,2,2.5,Mayfield,1271,2178,2005,54,189,80,Sold,,,http://www.redfin.com/NV/Las-Vegas/7221-Camden-Pine-Ave-89129/home/29009679,GLVAR,2260899,N,Y,36.23923,-115.252152
PAST SALE,March-16-2021,Condo/Co-op,10550 Alexander Rd #2164,Las Vegas,NV,89129,214000,2,2.0,Chateau Versailles Condo,1172,,2003,36,183,145,Sold,,,http://www.redfin.com/NV/Las-Vegas/10550-W-Alexander-Rd-89129/unit-2164/home/29179741,GLVAR,2268245,N,Y,36.234078,-115.327664
PAST SALE,April-6-2021,Single Family Residential,4118 Sparrow Rock St,Las Vegas,NV,89129,265000,2,2.5,Beazer At Lone Mountain West,1201,2614,2005,15,221,80,Sold,,,http://www.redfin.com/NV/Las-Vegas/4118-Sparrow-Rock-St-89129/home/29024305,GLVAR,2249872,N,Y,36.234827,-115.329977
PAST SALE,March-1-2021,Single Family Residential,3226 Cheltenham St,Las Vegas,NV,89129,290000,2,2.5,American West Village,1621,1742,1996,51,179,160,Sold,,,http://www.redfin.com/NV/Las-Vegas/3226-Cheltenham-St-89129/home/29125940,GLVAR,2262927,N,Y,36.2197488,-115.287208
PAST SALE,February-12-2021,Condo/Co-op,3613 Shawn Reynolds Ct #103,Las Vegas,NV,89129,155000,2,2.0,Sunhampton Condo,1091,,1995,68,142,173,Sold,,,http://www.redfin.com/NV/Las-Vegas/3613-Shawn-Reynolds-Ct-89129/unit-103/home/29129708,GLVAR,2247981,N,Y,36.2259432,-115.2487821
PAST SALE,April-2-2021,Condo/Co-op,7061 Roscoe Ave #202,Las Vegas,NV,89129,170000,2,2.0,Sunhampton Condo,1108,,1995,19,153,180,Sold,,,http://www.redfin.com/NV/Las-Vegas/7061-Roscoe-Ave-89129/unit-202/home/29129692,GLVAR,2278528,N,Y,36.2263469,-115.2487979
PAST SALE,March-26-2021,Condo/Co-op,3673 Ian Thomas St #202,Las Vegas,NV,89129,165000,2,2.0,Sunhampton Condo,1108,1108,1996,26,149,180,Sold,,,http://www.redfin.com/NV/Las-Vegas/3673-Ian-Thomas-St-89129/unit-202/home/29130519,GLVAR,2269510,N,Y,36.226973,-115.2477791
PAST SALE,February-24-2021,Townhouse,8465 Wandering Sun Ave,Las Vegas,NV,89129,228500,2,2.25,Mira Vista,1280,2178,1998,56,179,70,Sold,,,http://www.redfin.com/NV/Las-Vegas/8465-Wandering-Sun-Ave-89129/home/29127745,GLVAR,2263745,N,Y,36.224238,-115.277974
PAST SALE,March-23-2021,Townhouse,8469 Blazing Sun Ave,Las Vegas,NV,89129,232000,2,2.5,Mira Vista,1280,2178,1999,29,181,70,Sold,,,http://www.redfin.com/NV/Las-Vegas/8469-Blazing-Sun-Ave-89129/home/29127674,GLVAR,2265724,N,Y,36.225007,-115.278158
PAST SALE,,Townhouse,9708 Tiaquinn Ave #101,Las Vegas,NV,89129,245000,2,2.0,,1225,1817,1997,,200,,,,,http://www.redfin.com/NV/Las-Vegas/9708-Tiaquinn-Ave-89129/unit-101/home/29121306,,,N,Y,36.2226578,-115.3075109
PAST SALE,March-15-2021,Condo/Co-op,3935 Legend Hills St #204,Las Vegas,NV,89129,200000,2,2.0,Lone Mountain Condos Phase 2,1110,,2005,37,180,165,Sold,,,http://www.redfin.com/NV/Las-Vegas/3935-Legend-Hills-St-89129/unit-204/home/28967896,GLVAR,2264994,N,Y,36.2321858,-115.3198262
PAST SALE,April-7-2021,Condo/Co-op,3945 Palm Beach St #202,Las Vegas,NV,89129,230000,2,2.0,Lone Mountain Condos,1260,,2004,14,183,165,Sold,,,http://www.redfin.com/NV/Las-Vegas/3945-Palm-Beach-St-89129/unit-202/home/29930349,GLVAR,2273424,N,Y,36.2319978,-115.3189003
PAST SALE,April-9-2021,Townhouse,9716 Blatimac Ave #101,Las Vegas,NV,89129,285000,2,1.75,Cheyenne Ridge Condo-Phase 3,1387,2000,1998,12,205,265,Sold,,,http://www.redfin.com/NV/Las-Vegas/9716-Blatimac-Ave-89129/unit-101/home/29121583,GLVAR,2280264,N,Y,36.2220917,-115.307997
PAST SALE,April-14-2021,Condo/Co-op,3975 Hualapai Way #276,Las Vegas,NV,89129,285000,2,2.0,Cambria Condo Amd,1666,,2007,7,171,210,Sold,,,http://www.redfin.com/NV/Las-Vegas/3975-N-Hualapai-Way-89129/unit-276/home/29061329,GLVAR,2280059,N,Y,36.2314754,-115.3159372
PAST SALE,February-24-2021,Townhouse,9709 Templemore Ave #102,Las Vegas,NV,89129,242000,2,2.0,Cheyenne Ridge Condo-Phase 3,1108,2000,1998,56,218,265,Sold,,,http://www.redfin.com/NV/Las-Vegas/9709-Templemore-Ave-89129/unit-102/home/29121570,GLVAR,2248272,N,Y,36.2213875,-115.3075109
PAST SALE,February-9-2021,Single Family Residential,7476 Buckskin Ave,Las Vegas,NV,89129,555000,2,2.25,,2267,21344,2015,71,245,,Sold,,,http://www.redfin.com/NV/Las-Vegas/7476-Buckskin-Ave-89129/home/109550111,GLVAR,2254022,N,Y,36.2227176,-115.2578742
