SALE TYPE,SOLD DATE,PROPERTY TYPE,ADDRESS,CITY,STATE OR PROVINCE,ZIP OR POSTAL CODE,PRICE,BEDS,BATHS,LOCATION,SQUARE FEET,LOT SIZE,YEAR BUILT,DAYS ON MARKET,$/SQUARE FEET,HOA/MONTH,STATUS,NEXT OPEN HOUSE START TIME,NEXT OPEN HOUSE END TIME,URL (SEE http://www.redfin.com/buy-a-home/comparative-market-analysis FOR INFO ON PRICING),SOURCE,MLS#,FAVORITE,INTERESTED,LATITUDE,LONGITUDE
PAST SALE,,Condo/Co-op,239 W New York Ave,Las Vegas,NV,89102,600000,,,,,,1961,,,,,,,http://www.redfin.com/NV/Las-Vegas/239-W-New-York-Ave-89102/home/29457510,,,N,Y,36.1507436,-115.1595266
PAST SALE,,Single Family Residential,1449 Cottonwood Pl,Las Vegas,NV,89104,177000,2,1.0,,902,6970,1944,,196,,,,,http://www.redfin.com/NV/Las-Vegas/1449-Cottonwood-Pl-89104/home/29451754,,,N,Y,36.1581366,-115.1334004
PAST SALE,,Single Family Residential,415 S 17th St,Las Vegas,NV,89101,140000,3,1.0,,1088,7405,1942,,129,,,,,http://www.redfin.com/NV/Las-Vegas/415-S-17th-St-89101/home/29349123,,,N,Y,36.1595504,-115.1286752
PAST SALE,February-5-2021,Single Family Residential,418 11th St,Las Vegas,NV,89101,238000,4,2.0,Pioneer Heights Add,1426,6970,1947,86,167,,Sold,,,http://www.redfin.com/NV/Las-Vegas/418-S-11th-St-89101/home/29347538,GLVAR,2262182,N,Y,36.1622718,-115.1367821
PAST SALE,February-10-2021,Condo/Co-op,150 Las Vegas Blvd #1818,Las Vegas,NV,89101,248000,1,1.5,Streamline Tower,859,,2007,81,289,367,Sold,,,http://www.redfin.com/NV/Las-Vegas/150-Las-Vegas-Blvd-N-89101/unit-1818/home/29813763,GLVAR,2243495,N,Y,36.1699412,-115.1398296
PAST SALE,February-26-2021,Single Family Residential,1417 Maria Elena Dr,Las Vegas,NV,89104,715000,5,4.0,,5741,27443,1959,65,125,,Sold,,,http://www.redfin.com/NV/Las-Vegas/1417-Maria-Elena-Dr-89104/home/29451484,GLVAR,2232059,N,Y,36.1533662,-115.1315242
PAST SALE,,Single Family Residential,1313 S 16th St,Las Vegas,NV,89104,290000,2,2.5,,2707,8276,1962,,107,,,,,http://www.redfin.com/NV/Las-Vegas/1313-S-16th-St-89104/home/29452777,,,N,Y,36.1542465,-115.1303429
PAST SALE,February-26-2021,Multi-Family (2-4 Unit),1306 Rexford Pl,Las Vegas,NV,89104,337500,1,,Paradise Grove,3990,6534,1954,65,85,,Sold,,,http://www.redfin.com/NV/Las-Vegas/1306-Rexford-Pl-89104/home/29454590,GLVAR,2257092,N,Y,36.154567,-115.1490115
PAST SALE,,Single Family Residential,1133 Pahor Dr,Las Vegas,NV,89102,420000,2,2.0,,1970,6970,1954,,213,,,,,http://www.redfin.com/NV/Las-Vegas/1133-Pahor-Dr-89102/home/29457338,,,N,Y,36.1575882,-115.168119
PAST SALE,February-25-2021,Condo/Co-op,200 Sahara Ave #2307,Las Vegas,NV,89102,300000,2,2.0,Allure Condo,1295,,2006,66,232,751,Sold,,,http://www.redfin.com/NV/Las-Vegas/200-W-Sahara-Ave-89102/unit-2307/home/29797962,GLVAR,2222008,N,Y,36.1444008,-115.1589939
PAST SALE,February-26-2021,Condo/Co-op,200 Sahara Ave #1011,Las Vegas,NV,89102,215000,1,1.0,Allure Condo,1090,,2006,65,197,652,Sold,,,http://www.redfin.com/NV/Las-Vegas/200-W-Sahara-Ave-89102/unit-1011/home/29796914,GLVAR,2262892,N,Y,36.1444008,-115.1589939
PAST SALE,March-1-2021,Single Family Residential,2220 Santa Paula Dr,Las Vegas,NV,89104,310000,4,2.5,Paradise Village Tr #2,2674,5663,1951,62,116,,Sold,,,http://www.redfin.com/NV/Las-Vegas/2220-Santa-Paula-Dr-89104/home/29455424,GLVAR,2263934,N,Y,36.1455219,-115.1521151
PAST SALE,April-1-2021,Condo/Co-op,200 Sahara Ave #3712,Las Vegas,NV,89102,255000,1,1.5,Allure Condo,974,,2006,31,262,584,Sold,,,http://www.redfin.com/NV/Las-Vegas/200-W-Sahara-Ave-89102/unit-3712/home/29797698,GLVAR,2271260,N,Y,36.1444008,-115.1589939
PAST SALE,March-19-2021,Single Family Residential,1208 Norman Ave,Las Vegas,NV,89104,222000,2,1.0,Huntridge Sub Tr 3,1078,6098,1948,44,206,,Sold,,,http://www.redfin.com/NV/Las-Vegas/1208-Norman-Ave-89104/home/29451791,GLVAR,2224403,N,Y,36.1556082,-115.1359946
PAST SALE,March-30-2021,Multi-Family (2-4 Unit),1312 E Saint Louis Ave,Las Vegas,NV,89104,207000,5,,Francisco Park,1786,6970,1954,33,116,,Sold,,,http://www.redfin.com/NV/Las-Vegas/1312-E-St-Louis-Ave-89104/home/29452413,GLVAR,2276836,N,Y,36.1477099,-115.13475
PAST SALE,March-31-2021,Condo/Co-op,200 Sahara Ave #3312,Las Vegas,NV,89102,256000,1,1.5,Allure Condo,974,,2006,32,263,590,Sold,,,http://www.redfin.com/NV/Las-Vegas/200-W-Sahara-Ave-89102/unit-3312/home/29798016,GLVAR,2245985,N,Y,36.1444008,-115.1589939
PAST SALE,March-24-2021,Single Family Residential,1625 Birch St,Las Vegas,NV,89102,805000,5,3.75,Scotch Eighty Add,3753,25265,1961,39,214,,Sold,,,http://www.redfin.com/NV/Las-Vegas/1625-Birch-St-89102/home/29457847,GLVAR,2260935,N,Y,36.1519103,-115.1688833
PAST SALE,April-5-2021,Condo/Co-op,150 Las Vegas Blvd #1904,Las Vegas,NV,89101,265900,1,1.5,THE OGDEN,963,,2007,27,276,437,Sold,,,http://www.redfin.com/NV/Las-Vegas/150-Las-Vegas-Blvd-N-89101/unit-1904/home/28967408,GLVAR,2254251,N,Y,36.1699412,-115.1398296
PAST SALE,April-7-2021,Single Family Residential,1036 Hassett Ave,Las Vegas,NV,89104,252500,3,2.0,Southridge Tr 2,1494,6534,1951,25,169,,Sold,,,http://www.redfin.com/NV/Las-Vegas/1036-E-Hassett-Ave-89104/home/29456904,GLVAR,2277130,N,Y,36.1498911,-115.1399553
PAST SALE,April-8-2021,Condo/Co-op,200 Sahara Ave #2403,Las Vegas,NV,89102,328500,2,2.0,Allure Condo,1233,,2006,24,266,713,Sold,,,http://www.redfin.com/NV/Las-Vegas/200-W-Sahara-Ave-89102/unit-2403/home/29797955,GLVAR,2269612,N,Y,36.1444008,-115.1589939
PAST SALE,,Single Family Residential,1216 Francis Ave,Las Vegas,NV,89104,175000,3,2.0,,1404,6098,1944,,125,,,,,http://www.redfin.com/NV/Las-Vegas/1216-Francis-Ave-89104/home/29451616,,,N,Y,36.1570311,-115.1358556
PAST SALE,April-9-2021,Multi-Family (2-4 Unit),1304 E Saint Louis Ave,Las Vegas,NV,89104,290000,5,,Francisco Park,1826,6970,1954,23,159,,Sold,,,http://www.redfin.com/NV/Las-Vegas/1304-E-St-Louis-Ave-89104/home/29452415,GLVAR,2261583,N,Y,36.1477007,-115.1352534
PAST SALE,,Townhouse,652 Tam O Shanter,Las Vegas,NV,89109,210000,3,2.5,,1800,900,1969,,117,,,,,http://www.redfin.com/NV/Las-Vegas/652-Tam-O-Shanter-89109/home/29466016,,,N,Y,36.1401307,-115.1478356
PAST SALE,February-17-2021,Condo/Co-op,682 Oakmont Ave #1503,Las Vegas,NV,89109,160000,1,1.0,Village Green Condo,897,897,1973,74,178,275,Sold,,,http://www.redfin.com/NV/Las-Vegas/682-Oakmont-Ave-89109/unit-1503/home/29063500,GLVAR,2235652,N,Y,36.1387206,-115.1482935
PAST SALE,February-5-2021,Condo/Co-op,2777 Paradise Rd #1903,Las Vegas,NV,89109,680000,2,2.5,Turnberry Place Phase 4,2195,,2005,86,310,1075,Sold,,,http://www.redfin.com/NV/Las-Vegas/2777-Paradise-Rd-89109/unit-1903/home/29063274,GLVAR,2258840,N,Y,36.138277,-115.155482
PAST SALE,February-10-2021,Condo/Co-op,2747 Paradise Rd #704,Las Vegas,NV,89109,430000,2,2.5,Turnberry Place Phase 3 Amd,2050,,2003,81,210,976,Sold,,,http://www.redfin.com/NV/Las-Vegas/2747-Paradise-Rd-89109/unit-704/home/29934117,GLVAR,2210221,N,Y,36.1384588,-115.1563999
PAST SALE,February-9-2021,Condo/Co-op,2831 Geary Pl #2910,Las Vegas,NV,89109,175000,2,1.0,Village Green Condo,1112,,1973,82,157,275,Sold,,,http://www.redfin.com/NV/Las-Vegas/2831-Geary-Pl-89109/unit-2910/home/29063787,GLVAR,2259650,N,Y,36.1375174,-115.1494052
PAST SALE,February-20-2021,Condo/Co-op,222 Karen Ave #1505,Las Vegas,NV,89109,320000,1,1.5,Turnberry Towers At Paradise Road & Karen Ave,814,,2007,71,393,165,Sold,,,http://www.redfin.com/NV/Las-Vegas/222-Karen-Ave-89109/unit-1505/home/29797618,GLVAR,2211854,N,Y,36.140947,-115.15373
PAST SALE,February-25-2021,Single Family Residential,1600 La Jolla Ave,Las Vegas,NV,89169,225000,3,1.75,Francisco Park #04,1449,6970,1960,66,155,,Sold,,,http://www.redfin.com/NV/Las-Vegas/1600-La-Jolla-Ave-89169/home/29467594,GLVAR,2246248,N,Y,36.1391783,-115.1306135
PAST SALE,February-25-2021,Condo/Co-op,1405 Vegas Valley Dr #122,Las Vegas,NV,89169,85000,2,1.0,Casa Vegas Apt Homes,863,,1971,66,98,270,Sold,,,http://www.redfin.com/NV/Las-Vegas/1405-Vegas-Valley-Dr-89169/unit-122/home/29467375,GLVAR,2263552,N,Y,36.135805,-115.1339331
PAST SALE,February-17-2021,Single Family Residential,3024 Bel Air Dr,Las Vegas,NV,89109,478000,3,3.0,Las Vegas Cntry Club Villas,2629,4792,1975,74,182,138,Sold,,,http://www.redfin.com/NV/Las-Vegas/3024-Bel-Air-Dr-89109/home/29467112,GLVAR,2252107,N,Y,36.1347316,-115.1400711
PAST SALE,,Condo/Co-op,1405 Vegas Valley Dr #135,Las Vegas,NV,89169,40000,3,2.0,,1125,,1971,,36,,,,,http://www.redfin.com/NV/Las-Vegas/1405-Vegas-Valley-Dr-89169/unit-135/home/29467389,,,N,Y,36.135805,-115.1339331
PAST SALE,March-3-2021,Condo/Co-op,2879 Geary Pl #2802,Las Vegas,NV,89109,156500,1,1.0,Village Green Condo,897,,1973,60,174,275,Sold,,,http://www.redfin.com/NV/Las-Vegas/2879-Geary-Pl-89109/unit-2802/home/29063254,GLVAR,2269752,N,Y,36.1363963,-115.1480156
PAST SALE,March-16-2021,Condo/Co-op,3111 Bel Air Dr Unit 22C,Las Vegas,NV,89109,317500,2,2.25,Regency Towers Amd,1856,,1974,47,171,933,Sold,,,http://www.redfin.com/NV/Las-Vegas/3111-Bel-Air-Dr-89109/unit-22C/home/29466970,GLVAR,2267849,N,Y,36.1332234,-115.1413913
PAST SALE,March-17-2021,Single Family Residential,1628 Palora Ave,Las Vegas,NV,89169,205000,3,1.0,Francisco Park #06,1065,7405,1961,46,192,,Sold,,,http://www.redfin.com/NV/Las-Vegas/1628-Palora-Ave-89169/home/29468630,GLVAR,2270425,N,Y,36.134765,-115.1300418
PAST SALE,March-23-2021,Condo/Co-op,2877 Paradise Rd #2502,Las Vegas,NV,89109,925000,3,2.75,Turnberry Place Amd,2805,,2001,40,330,1350,Sold,,,http://www.redfin.com/NV/Las-Vegas/2877-Paradise-Rd-89109/unit-2502/home/29866756,GLVAR,2276778,N,Y,36.136769,-115.156791
PAST SALE,April-15-2021,Condo/Co-op,2857 Paradise Rd #3104,Las Vegas,NV,89109,2150000,3,3.75,Turnberry Place Phase 2,4103,,2002,17,524,1805,Sold,,,http://www.redfin.com/NV/Las-Vegas/2857-Paradise-Rd-89109/unit-3104/home/29895710,GLVAR,2266187,N,Y,36.1367864,-115.1555198
PAST SALE,April-19-2021,Condo/Co-op,2747 Paradise Rd #806,Las Vegas,NV,89109,449000,2,1.75,Turnberry Place Phase 3 Amd,1712,,2003,13,262,853,Sold,,,http://www.redfin.com/NV/Las-Vegas/2747-Paradise-Rd-89109/unit-806/home/29934125,GLVAR,2280479,N,Y,36.1384588,-115.1563999
PAST SALE,April-2-2021,Condo/Co-op,2700 S Las Vegas Blvd #1907,Las Vegas,NV,89109,320000,2,2.0,Sky Las Vegas,1100,,2006,30,291,581,Sold,,,http://www.redfin.com/NV/Las-Vegas/2700-S-Las-Vegas-Blvd-89109/unit-1907/home/29784932,GLVAR,2227136,N,Y,36.1388477,-115.1617731
PAST SALE,April-6-2021,Single Family Residential,3157 Bel Air Dr,Las Vegas,NV,89109,590000,4,2.75,Las Vegas Cntry Club Garden Homes,3030,3485,1974,26,195,233,Sold,,,http://www.redfin.com/NV/Las-Vegas/3157-Bel-Air-Dr-89109/home/29467213,GLVAR,2264721,N,Y,36.132511,-115.142772
PAST SALE,February-19-2021,Single Family Residential,313 Rosemary Ln,Las Vegas,NV,89107,670000,4,3.0,Rancho Nevada Estates,3451,23522,1964,72,194,190,Sold,,,http://www.redfin.com/NV/Las-Vegas/313-Rosemary-Ln-89107/home/29345653,GLVAR,2209487,N,Y,36.168616,-115.1792356
PAST SALE,April-8-2021,Single Family Residential,2020 N Park Way,Las Vegas,NV,89106,700000,4,3.75,Rancho Park,3573,15246,1962,24,196,,Sold,,,http://www.redfin.com/NV/Las-Vegas/2020-Park-Way-N-89106/home/29346330,GLVAR,2276599,N,Y,36.1695843,-115.1713614
PAST SALE,February-19-2021,Single Family Residential,2415 Mason Ave,Las Vegas,NV,89102,675000,4,2.5,McNeil Tr #3,2682,10890,1957,72,252,,Sold,,,http://www.redfin.com/NV/Las-Vegas/2415-Mason-Ave-89102/home/29460046,GLVAR,2231469,N,Y,36.1554381,-115.1748816
PAST SALE,February-3-2021,Single Family Residential,1708 Rambla Ct,Las Vegas,NV,89102,530000,4,2.75,Rancho Bonito Estate,3227,10454,1978,88,164,,Sold,,,http://www.redfin.com/NV/Las-Vegas/1708-Rambla-Ct-89102/home/29459912,GLVAR,2250682,N,Y,36.1509237,-115.1777302
PAST SALE,April-15-2021,Single Family Residential,2905 Gilmary Ave,Las Vegas,NV,89102,465000,3,1.5,McNeil Manor Tr 2A,2160,8276,1970,17,215,,Sold,,,http://www.redfin.com/NV/Las-Vegas/2905-Gilmary-Ave-89102/home/29460256,GLVAR,2272248,N,Y,36.1522738,-115.1811115
PAST SALE,April-15-2021,Single Family Residential,2812 W Oakey Blvd,Las Vegas,NV,89102,535000,8,3.25,McNeil Manor Tr 3 Amd,3271,10890,1978,17,164,,Sold,,,http://www.redfin.com/NV/Las-Vegas/2812-W-Oakey-Blvd-89102/home/29460233,GLVAR,2250172,N,Y,36.1518909,-115.1800693
PAST SALE,March-19-2021,Single Family Residential,406 Vandalia St,Las Vegas,NV,89106,216000,2,1.0,Highland Park Amd,816,5663,1963,44,265,,Sold,,,http://www.redfin.com/NV/Las-Vegas/406-Vandalia-St-89106/home/29347539,GLVAR,2271290,N,Y,36.1672189,-115.1676327
PAST SALE,March-19-2021,Condo/Co-op,200 Hoover Ave #1709,Las Vegas,NV,89101,462500,2,1.75,Newport Lofts,1645,,2006,44,281,620,Sold,,,http://www.redfin.com/NV/Las-Vegas/200-Hoover-Ave-89101/unit-1709/home/29792179,GLVAR,2264357,N,Y,36.1614954,-115.1495905
PAST SALE,March-22-2021,Condo/Co-op,2747 Paradise Rd #1004,Las Vegas,NV,89109,445000,2,2.5,TURNBERRY PLACE PHASE 3 AMD,2050,,2003,41,217,976,Sold,,,http://www.redfin.com/NV/Las-Vegas/2747-Paradise-Rd-89109/unit-1004/home/29934136,GLVAR,2097970,N,Y,36.1384588,-115.1563999
PAST SALE,,Condo/Co-op,3111 Bel Air Dr Unit 11A,Las Vegas,NV,89109,390000,2,2.0,,1856,,1974,,210,,,,,http://www.redfin.com/NV/Las-Vegas/3111-Bel-Air-Dr-89109/unit-11A/home/29467245,,,N,Y,36.1332234,-115.1413913
PAST SALE,April-16-2021,Condo/Co-op,2877 Paradise Rd #2406,Las Vegas,NV,89109,530000,2,1.75,Turnberry Place Amd,1712,,2001,16,310,970,Sold,,,http://www.redfin.com/NV/Las-Vegas/2877-Paradise-Rd-89109/unit-2406/home/29895891,GLVAR,2272506,N,Y,36.136769,-115.156791
PAST SALE,April-16-2021,Condo/Co-op,200 Hoover Ave #1103,Las Vegas,NV,89101,424000,1,1.75,Newport Lofts,1613,,2006,16,263,619,Sold,,,http://www.redfin.com/NV/Las-Vegas/200-Hoover-Ave-89101/unit-1103/home/29792163,GLVAR,2250667,N,Y,36.1614954,-115.1495905
PAST SALE,April-16-2021,Single Family Residential,1051 Sweeney Ave,Las Vegas,NV,89104,364000,3,2.0,Huntridge Sub Tr 5,1524,6098,1944,16,239,,Sold,,,http://www.redfin.com/NV/Las-Vegas/1051-Sweeney-Ave-89104/home/29456002,GLVAR,2269857,N,Y,36.1538745,-115.1392141
PAST SALE,April-19-2021,Condo/Co-op,200 Hoover Ave #1111,Las Vegas,NV,89101,459900,2,2.0,Newport Lofts,1490,,2006,13,309,620,Sold,,,http://www.redfin.com/NV/Las-Vegas/200-Hoover-Ave-89101/unit-1111/home/29791209,GLVAR,2277298,N,Y,36.1614954,-115.1495905
PAST SALE,April-1-2021,Condo/Co-op,2890 Loveland Dr #2406,Las Vegas,NV,89109,133000,1,1.0,Village Green Condo,897,6500,1973,31,148,275,Sold,,,http://www.redfin.com/NV/Las-Vegas/2890-Loveland-Dr-89109/unit-2406/home/29063610,GLVAR,2239903,N,Y,36.1362645,-115.1471817
PAST SALE,April-6-2021,Condo/Co-op,200 Sahara Ave #2312,Las Vegas,NV,89102,248000,1,1.5,Allure Condo,974,,2006,26,255,585,Sold,,,http://www.redfin.com/NV/Las-Vegas/200-W-Sahara-Ave-89102/unit-2312/home/28966580,GLVAR,2260327,N,Y,36.1444008,-115.1589939
PAST SALE,April-7-2021,Single Family Residential,2900 Mason Ave,Las Vegas,NV,89102,600000,4,3.25,Mason Manor,3340,11326,1964,25,180,,Sold,,,http://www.redfin.com/NV/Las-Vegas/2900-Mason-Ave-89102/home/29460066,GLVAR,2257664,N,Y,36.1559765,-115.1805557
PAST SALE,April-7-2021,Single Family Residential,413 15th St,Las Vegas,NV,89101,230000,2,1.0,Mayfair Tr #2 Amd,910,7405,1950,25,253,,Sold,,,http://www.redfin.com/NV/Las-Vegas/413-S-15th-St-89101/home/29348794,GLVAR,2276498,N,Y,36.1606098,-115.1314084
PAST SALE,April-8-2021,Single Family Residential,1601 6th St,Las Vegas,NV,89104,572000,3,3.0,,2774,11326,1963,24,206,,Sold,,,http://www.redfin.com/NV/Las-Vegas/1601-S-6th-St-89104/home/29455988,GLVAR,2284975,N,Y,36.152065,-115.1458847
PAST SALE,,Single Family Residential,252 Vertigo Tulip Ct,Las Vegas,NV,89106,240000,3,2.5,,1489,2614,2006,,161,,,,,http://www.redfin.com/NV/Las-Vegas/252-Vertigo-Tulip-Ct-89106/home/29052213,,,N,Y,36.1694347,-115.1666136
PAST SALE,April-12-2021,Single Family Residential,829 Oakey,Las Vegas,NV,89104,305000,3,1.5,,2140,6970,1958,20,143,,Sold,,,http://www.redfin.com/NV/Las-Vegas/829-E-Oakey-Blvd-89104/home/29455975,GLVAR,2192998,N,Y,36.1517016,-115.1426189
PAST SALE,April-15-2021,Condo/Co-op,200 Hoover Ave #2108,Las Vegas,NV,89101,775000,2,2.0,Newport Lofts,2533,,2006,17,306,945,Sold,,,http://www.redfin.com/NV/Las-Vegas/200-Hoover-Ave-89101/unit-2108/home/29792254,GLVAR,2250984,N,Y,36.1614954,-115.1495905
PAST SALE,April-15-2021,Single Family Residential,1122 5th Pl,Las Vegas,NV,89104,370000,5,2.75,Park Place Add Amd,2360,10019,1939,17,157,,Sold,,,http://www.redfin.com/NV/Las-Vegas/1122-5th-Pl-89104/home/29454499,GLVAR,2249675,N,Y,36.155526,-115.1473902
PAST SALE,April-1-2021,Condo/Co-op,737 Oakmont Ave #1208,Las Vegas,NV,89109,140000,1,1.0,Village Green Condo,863,,1972,31,162,275,Sold,,,http://www.redfin.com/NV/Las-Vegas/737-Oakmont-Ave-89109/unit-1208/home/29063525,GLVAR,2272044,N,Y,36.13834,-115.146718
PAST SALE,April-15-2021,Condo/Co-op,353 E Bonneville Ave #339,Las Vegas,NV,89101,425900,2,2.0,Juhl,1322,,2008,17,322,549,Sold,,,http://www.redfin.com/NV/Las-Vegas/353-E-Bonneville-Ave-89101/unit-339/home/29815185,GLVAR,2278980,N,Y,36.1639701,-115.1463479
PAST SALE,April-6-2021,Condo/Co-op,150 Las Vegas Blvd #1213,Las Vegas,NV,89101,414997,2,1.75,Streamline Tower,1246,,2007,26,333,560,Sold,,,http://www.redfin.com/NV/Las-Vegas/150-Las-Vegas-Blvd-N-89101/unit-1213/home/29813819,GLVAR,2257673,N,Y,36.1699412,-115.1398296
PAST SALE,,Condo/Co-op,239 W Cleveland Ave,Las Vegas,NV,89102,615000,,,,,,1957,,,,,,,http://www.redfin.com/NV/Las-Vegas/239-W-Cleveland-Ave-89102/home/29457600,,,N,Y,36.145429,-115.1601751
PAST SALE,April-7-2021,Condo/Co-op,322 Karen Ave #602,Las Vegas,NV,89109,425000,2,2.0,Turnberry Towers At Paradise Road & Karen Ave,1405,,2006,25,302,651,Sold,,,http://www.redfin.com/NV/Las-Vegas/322-Karen-Ave-89109/unit-602/home/29797765,GLVAR,2260873,N,Y,36.1409467,-115.1523004
PAST SALE,April-7-2021,Condo/Co-op,200 Sahara Ave #2409,Las Vegas,NV,89102,210000,1,1.0,Allure Condo,1090,,2006,25,193,632,Sold,,,http://www.redfin.com/NV/Las-Vegas/200-W-Sahara-Ave-89102/unit-2409/home/29797951,GLVAR,2246418,N,Y,36.1444008,-115.1589939
PAST SALE,,Condo/Co-op,1405 Vegas Valley Dr #236,Las Vegas,NV,89169,46243,2,2.0,,951,,1971,,49,,,,,http://www.redfin.com/NV/Las-Vegas/1405-Vegas-Valley-Dr-89169/unit-236/home/29467498,,,N,Y,36.135805,-115.1339331
PAST SALE,April-9-2021,Single Family Residential,1804 Cochran St,Las Vegas,NV,89104,325000,3,2.5,Morning View Heights Tr #1,1906,7405,1958,23,171,,Sold,,,http://www.redfin.com/NV/Las-Vegas/1804-Cochran-St-89104/home/29452635,GLVAR,2276833,N,Y,36.1503186,-115.1298565
PAST SALE,March-5-2021,Multi-Family (2-4 Unit),336 14th St,Las Vegas,NV,89101,390000,6,,Fourteenth Street City Add,2380,6534,1977,58,164,,Sold,,,http://www.redfin.com/NV/Las-Vegas/336-N-14th-St-89101/home/29348504,GLVAR,2265487,N,Y,36.168669,-115.1278182
PAST SALE,March-5-2021,Single Family Residential,1096 Vegas Valley Dr,Las Vegas,NV,89109,560000,3,2.25,Las Vegas Intl Country Club Patio Houses Amd,2461,7405,1970,58,228,,Sold,,,http://www.redfin.com/NV/Las-Vegas/1096-Vegas-Valley-Dr-89109/home/29465832,GLVAR,2227129,N,Y,36.137655,-115.139365
PAST SALE,March-2-2021,Single Family Residential,2906 Bel Air Dr,Las Vegas,NV,89109,495000,3,2.5,Las Vegas Cntry Club Villas,2746,7405,1975,61,180,132,Sold,,,http://www.redfin.com/NV/Las-Vegas/2906-Bel-Air-Dr-89109/home/29467121,GLVAR,2258069,N,Y,36.1370937,-115.1394689
PAST SALE,March-17-2021,Condo/Co-op,3111 Bel Air Dr Unit 5A,Las Vegas,NV,89109,342000,2,1.75,Regency Towers Amd,1856,,1974,46,184,933,Sold,,,http://www.redfin.com/NV/Las-Vegas/3111-Bel-Air-Dr-89109/unit-5A/home/29467294,GLVAR,2268267,N,Y,36.1332234,-115.1413913
PAST SALE,March-17-2021,Condo/Co-op,2747 Paradise Rd #1104,Las Vegas,NV,89109,470000,2,2.5,Turnberry Place Phase 3 Amd,2050,,2003,46,229,1006,Sold,,,http://www.redfin.com/NV/Las-Vegas/2747-Paradise-Rd-89109/unit-1104/home/29934147,GLVAR,2273183,N,Y,36.1384588,-115.1563999
PAST SALE,March-22-2021,Condo/Co-op,730 Oakmont Ave #901,Las Vegas,NV,89109,101000,0,1.0,Village Green Condo,600,,1972,41,168,275,Sold,,,http://www.redfin.com/NV/Las-Vegas/730-Oakmont-Ave-89109/unit-901/home/29063568,GLVAR,2261876,N,Y,36.138732,-115.147206
PAST SALE,March-22-2021,Townhouse,1086 Tam O Shanter,Las Vegas,NV,89109,224000,2,2.25,Lv Intl Cntry Club Twnhs Lv Int C C Estate,1400,700,1968,41,160,279,Sold,,,http://www.redfin.com/NV/Las-Vegas/1086-Tam-O-Shanter-89109/home/29465897,GLVAR,2261872,N,Y,36.140201,-115.139694
PAST SALE,March-24-2021,Single Family Residential,1584 La Jolla Ave,Las Vegas,NV,89169,248200,3,1.75,Francisco Park #04,1161,6970,1960,39,214,,Sold,,,http://www.redfin.com/NV/Las-Vegas/1584-La-Jolla-Ave-89169/home/29467597,GLVAR,2271514,N,Y,36.1391384,-115.1308525
PAST SALE,,Condo/Co-op,222 Karen Ave #2408,Las Vegas,NV,89109,610000,2,2.0,,1657,,2007,,368,,,,,http://www.redfin.com/NV/Las-Vegas/222-Karen-Ave-89109/unit-2408/home/29799107,,,N,Y,36.140947,-115.15373
PAST SALE,March-31-2021,Townhouse,944 Tam O Shanter,Las Vegas,NV,89109,284810,3,3.0,Lv Intl Cntry Club Twnhs Lv Int C C Estate,1686,975,1969,32,169,226,Sold,,,http://www.redfin.com/NV/Las-Vegas/944-Tam-O-Shanter-89109/home/29465864,GLVAR,2264159,N,Y,36.140126,-115.142577
PAST SALE,March-30-2021,Townhouse,986 Tam O Shanter,Las Vegas,NV,89109,206200,1,1.0,Lv Intl Cntry Club Twnhs Lv Int C C Estate,856,920,1969,33,241,246,Sold,,,http://www.redfin.com/NV/Las-Vegas/986-Tam-O-Shanter-89109/home/29465895,GLVAR,2236565,N,Y,36.140132,-115.141875
PAST SALE,,Condo/Co-op,3111 Bel Air Dr Unit 4D,Las Vegas,NV,89109,259000,2,2.0,,1856,,1974,,140,,,,,http://www.redfin.com/NV/Las-Vegas/3111-Bel-Air-Dr-89109/unit-4D/home/29467301,,,N,Y,36.1332234,-115.1413913
PAST SALE,April-2-2021,Condo/Co-op,200 Sahara Ave #2202,Las Vegas,NV,89102,330000,2,2.0,Allure Condo,1295,,2006,30,255,751,Sold,,,http://www.redfin.com/NV/Las-Vegas/200-W-Sahara-Ave-89102/unit-2202/home/29797918,GLVAR,2258539,N,Y,36.1444008,-115.1589939
PAST SALE,February-12-2021,Single Family Residential,2904 Gilmary Ave,Las Vegas,NV,89102,585000,4,1.75,McNeil Manor Tr 2A,1968,9148,1970,79,297,,Sold,,,http://www.redfin.com/NV/Las-Vegas/2904-Gilmary-Ave-89102/home/29460341,GLVAR,2261111,N,Y,36.1527112,-115.1811115
PAST SALE,March-29-2021,Single Family Residential,2612 Burton Ave,Las Vegas,NV,89102,570500,4,3.75,McNeil Tr #4,2888,9583,1962,34,198,,Sold,,,http://www.redfin.com/NV/Las-Vegas/2612-Burton-Ave-89102/home/29460228,GLVAR,2259622,N,Y,36.1550846,-115.1770818
PAST SALE,March-23-2021,Single Family Residential,2717 Sidonia Ave,Las Vegas,NV,89102,352000,3,2.0,Rancho Sereno,1607,6534,1983,40,219,,Sold,,,http://www.redfin.com/NV/Las-Vegas/2717-Sidonia-Ave-89102/home/29460473,GLVAR,2268569,N,Y,36.1478258,-115.178425
PAST SALE,April-2-2021,Single Family Residential,500 Shetland Rd,Las Vegas,NV,89107,2790000,5,4.5,,7249,43560,1970,30,385,,Sold,,,http://www.redfin.com/NV/Las-Vegas/500-Shetland-Rd-89107/home/29346305,GLVAR,2233780,N,Y,36.1655068,-115.176966
PAST SALE,April-21-2021,Condo/Co-op,2879 Geary Pl #2816,Las Vegas,NV,89109,135000,1,1.0,Village Green Condo,761,,1973,11,177,275,Sold,,,http://www.redfin.com/NV/Las-Vegas/2879-Geary-Pl-89109/unit-2816/home/29063263,GLVAR,2279866,N,Y,36.1363963,-115.1480156
PAST SALE,April-22-2021,Single Family Residential,2994 Bel Air Dr,Las Vegas,NV,89109,467500,3,2.5,Las Vegas Cntry Club Villas,2746,5663,1975,10,170,132,Sold,,,http://www.redfin.com/NV/Las-Vegas/2994-Bel-Air-Dr-89109/home/29467105,GLVAR,2242774,N,Y,36.1354373,-115.1401174
PAST SALE,April-23-2021,Condo/Co-op,2700 Las Vegas Blvd #2401,Las Vegas,NV,89109,400000,2,2.25,Sky Las Vegas,1329,,2006,9,301,739,Sold,,,http://www.redfin.com/NV/Las-Vegas/2700-S-Las-Vegas-Blvd-89109/unit-2401/home/29784821,GLVAR,2255821,N,Y,36.1388477,-115.1617731
PAST SALE,April-7-2021,Condo/Co-op,322 Karen Ave #1906,Las Vegas,NV,89109,345000,1,1.5,Turnberry Towers At Paradise Road & Karen Ave,814,,2006,25,424,377,Sold,,,http://www.redfin.com/NV/Las-Vegas/322-Karen-Ave-89109/unit-1906/home/29797816,GLVAR,2271257,N,Y,36.1409467,-115.1523004
PAST SALE,April-23-2021,Condo/Co-op,363 N 14th St Unit A,Las Vegas,NV,89101,220000,3,1.75,14th Street,1130,1742,2020,9,195,55,Sold,,,http://www.redfin.com/NV/Las-Vegas/363-N-14th-St-89101/unit-A/home/170026007,GLVAR,2255060,N,Y,36.1697409,-115.1284377
PAST SALE,April-30-2021,Single Family Residential,2105 Westlund Dr,Las Vegas,NV,89102,535000,5,3.75,Westwood Village Tr 2,3822,10454,1965,2,140,,Sold,,,http://www.redfin.com/NV/Las-Vegas/2105-Westlund-Dr-89102/home/29460523,GLVAR,2280033,N,Y,36.1475334,-115.1735152
PAST SALE,April-30-2021,Condo/Co-op,2700 Las Vegas Blvd #2507,Las Vegas,NV,89109,319500,2,1.75,Sky Las Vegas,1100,,2006,2,290,582,Sold,,,http://www.redfin.com/NV/Las-Vegas/2700-S-Las-Vegas-Blvd-89109/unit-2507/home/29784809,GLVAR,2281441,N,Y,36.1388477,-115.1617731
PAST SALE,April-20-2021,Single Family Residential,577 Saint Louis Ave,Las Vegas,NV,89104,340000,4,2.0,Beverly Green Tr #4,2019,8712,1960,12,168,,Sold,,,http://www.redfin.com/NV/Las-Vegas/577-E-St-Louis-Ave-89104/home/29455622,GLVAR,2268839,N,Y,36.147948,-115.1476681
PAST SALE,April-20-2021,Condo/Co-op,650 Oakmont Ave #2120,Las Vegas,NV,89109,129999,1,1.0,Village Green Condo,761,,1973,12,171,69,Sold,,,http://www.redfin.com/NV/Las-Vegas/650-Oakmont-Ave-89109/unit-2120/home/28966327,GLVAR,2279820,N,Y,36.1387695,-115.1494979
PAST SALE,April-21-2021,Condo/Co-op,353 Bonneville Ave #704,Las Vegas,NV,89101,279900,1,1.0,JUHL,770,,2008,11,364,525,Sold,,,http://www.redfin.com/NV/Las-Vegas/353-E-Bonneville-Ave-89101/unit-704/home/29816731,GLVAR,2277446,N,Y,36.1639701,-115.1463479
PAST SALE,April-22-2021,Condo/Co-op,200 Sahara Ave #3802,Las Vegas,NV,89102,253500,1,1.0,Allure Condo,867,,2006,10,292,520,Sold,,,http://www.redfin.com/NV/Las-Vegas/200-W-Sahara-Ave-89102/unit-3802/home/29797704,GLVAR,2274005,N,Y,36.1444008,-115.1589939
PAST SALE,April-23-2021,Single Family Residential,1421 Francis Ave,Las Vegas,NV,89104,310000,3,1.75,Huntridge Sub Tr 3,1380,11761,1944,9,225,,Sold,,,http://www.redfin.com/NV/Las-Vegas/1421-Francis-Ave-89104/home/29451563,GLVAR,2278744,N,Y,36.1572895,-115.133632
PAST SALE,April-23-2021,Single Family Residential,10 Crescent Dr,Las Vegas,NV,89102,875000,4,3.0,Scotch Eighty Add,2907,25740,1966,9,301,,Sold,,,http://www.redfin.com/NV/Las-Vegas/10-Crescent-Dr-89102/home/29457241,GLVAR,2261768,N,Y,36.1539721,-115.1721951
PAST SALE,April-7-2021,Condo/Co-op,222 Karen Ave #3307,Las Vegas,NV,89109,650000,2,2.0,Turnberry Towers At Paradise Road & Karen Ave,1657,,2007,25,392,768,Sold,,,http://www.redfin.com/NV/Las-Vegas/222-Karen-Ave-89109/unit-3307/home/29799186,GLVAR,2261661,N,Y,36.140947,-115.15373
PAST SALE,April-23-2021,Condo/Co-op,200 Sahara #3205,Las Vegas,NV,89102,310000,2,2.0,Allure Condo,1233,,2006,9,251,706,Sold,,,http://www.redfin.com/NV/Las-Vegas/200-W-Sahara-Ave-89102/unit-3205/home/29797969,GLVAR,2269095,N,Y,36.1444008,-115.1589939
PAST SALE,April-29-2021,Single Family Residential,1221 17th St,Las Vegas,NV,89104,440000,5,4.0,HILLSIDE TERRACE,3215,10890,1950,3,137,,Sold,,,http://www.redfin.com/NV/Las-Vegas/1221-S-17th-St-89104/home/29451639,GLVAR,2259710,N,Y,36.1562203,-115.1286289
PAST SALE,April-30-2021,Single Family Residential,2850 Augusta Dr,Las Vegas,NV,89109,1316000,3,4.25,Las Vegas Intl Cntry Club Estate,5466,11761,1993,2,241,138,Sold,,,http://www.redfin.com/NV/Las-Vegas/2850-Augusta-Dr-89109/home/29465968,GLVAR,2274691,N,Y,36.1379142,-115.1411366
PAST SALE,February-8-2021,Condo/Co-op,200 Hoover Ave #910,Las Vegas,NV,89101,280000,1,1.0,Newport Lofts,1059,,2006,83,264,508,Sold,,,http://www.redfin.com/NV/Las-Vegas/200-Hoover-Ave-89101/unit-910/home/29791226,GLVAR,2240489,N,Y,36.1614954,-115.1495905
PAST SALE,February-3-2021,Condo/Co-op,150 N Las Vegas Blvd #1801,Las Vegas,NV,89101,269000,1,1.5,Streamline Tower,859,,2007,88,313,379,Sold,,,http://www.redfin.com/NV/Las-Vegas/150-Las-Vegas-Blvd-N-89101/unit-1801/home/29813746,GLVAR,2223660,N,Y,36.1699412,-115.1398296
PAST SALE,March-1-2021,Condo/Co-op,150 N Las Vegas Bl Blvd #2309,Las Vegas,NV,89101,292000,1,1.5,THE OGDEN,817,,2007,62,357,361,Sold,,,http://www.redfin.com/NV/Las-Vegas/150-Las-Vegas-Blvd-N-89101/unit-2309/home/29814018,GLVAR,2251022,N,Y,36.1699412,-115.1398296
PAST SALE,April-16-2021,Single Family Residential,1324 Jessica Ave,Las Vegas,NV,89104,269900,3,1.0,Huntridge Sub Tr 3,1102,6970,1944,16,245,,Sold,,,http://www.redfin.com/NV/Las-Vegas/1324-Jessica-Ave-89104/home/29451586,GLVAR,2264634,N,Y,36.1563563,-115.1346048
PAST SALE,March-19-2021,Condo/Co-op,3111 Bel Air Dr #211,Las Vegas,NV,89109,128000,1,1.0,REGENCY TOWERS AMD,584,,1974,44,219,295,Sold,,,http://www.redfin.com/NV/Las-Vegas/3111-Bel-Air-Dr-89109/unit-211/home/29467202,GLVAR,2265761,N,Y,36.1332234,-115.1413913
PAST SALE,April-15-2021,Condo/Co-op,3111 Bel Air Dr Unit 28B,Las Vegas,NV,89109,1148000,3,3.5,Regency Towers Amd,3541,,1974,17,324,1699,Sold,,,http://www.redfin.com/NV/Las-Vegas/3111-Bel-Air-Dr-89109/unit-28B/home/29466943,GLVAR,2272291,N,Y,36.1332234,-115.1413913
PAST SALE,March-3-2021,Condo/Co-op,3141 Pinehurst Dr Unit C,Las Vegas,NV,89109,185000,2,1.5,Lv Intl Cntry Club Estate Twnhs Condo Lv Int C C E,1200,,1972,60,154,358,Sold,,,http://www.redfin.com/NV/Las-Vegas/3141-Pinehurst-Dr-89109/unit-C/home/29467162,GLVAR,2255878,N,Y,36.1334615,-115.1386351
PAST SALE,,Condo/Co-op,322 Karen Ave #4508,Las Vegas,NV,89109,850000,2,2.0,,1657,,2006,,513,,,,,http://www.redfin.com/NV/Las-Vegas/322-Karen-Ave-89109/unit-4508/home/29795922,,,N,Y,36.1409467,-115.1523004
PAST SALE,February-26-2021,Single Family Residential,1901 16th St,Las Vegas,NV,89104,460000,4,2.75,CRESTVIEW EST,2196,8712,1959,65,209,,Sold,,,http://www.redfin.com/NV/Las-Vegas/1901-S-16th-St-89104/home/29452574,GLVAR,2261259,N,Y,36.1493608,-115.1302271
PAST SALE,February-26-2021,Condo/Co-op,3111 Bel Air Unit 12G,Las Vegas,NV,89109,342000,2,2.5,Regency Towers Amd,1856,,1974,65,184,909,Sold,,,http://www.redfin.com/NV/Las-Vegas/3111-Bel-Air-Dr-89109/unit-12G/home/29466901,GLVAR,2202002,N,Y,36.1332234,-115.1413913
PAST SALE,February-17-2021,Single Family Residential,1025 Canosa Ave,Las Vegas,NV,89104,226000,2,1.0,Southridge Tr #3,929,6534,1951,74,243,,Sold,,,http://www.redfin.com/NV/Las-Vegas/1025-E-Canosa-Ave-89104/home/29456885,GLVAR,2260979,N,Y,36.1495429,-115.1405343
PAST SALE,March-22-2021,Condo/Co-op,682 Oakmont Ave #1505,Las Vegas,NV,89109,150000,1,1.0,Village Green Condo,897,,1973,41,167,69,Sold,,,http://www.redfin.com/NV/Las-Vegas/682-Oakmont-Ave-89109/unit-1505/home/29063498,GLVAR,2242719,N,Y,36.1387206,-115.1482935
PAST SALE,April-16-2021,Single Family Residential,2952 Bel Air Dr,Las Vegas,NV,89109,549900,4,3.25,Las Vegas Cntry Club Villas,2670,5227,1975,16,206,132,Sold,,,http://www.redfin.com/NV/Las-Vegas/2952-Bel-Air-Dr-89109/home/29467122,GLVAR,2272133,N,Y,36.1363532,-115.1397121
PAST SALE,April-1-2021,Condo/Co-op,1405 Vegas Valley Dr #59,Las Vegas,NV,89169,59000,1,1.0,Casa Vegas Apt Homes,671,,1971,31,88,212,Sold,,,http://www.redfin.com/NV/Las-Vegas/1405-Vegas-Valley-Dr-89169/unit-59/home/29467318,GLVAR,2281605,N,Y,36.135805,-115.1339331
PAST SALE,April-7-2021,Single Family Residential,2839 Queens Courtyard Dr,Las Vegas,NV,89109,974900,4,5.0,Las Vegas Cntry Club Fairway Estate,4027,4792,1984,25,242,,Sold,,,http://www.redfin.com/NV/Las-Vegas/2839-Queens-Courtyard-Dr-89109/home/29465978,GLVAR,2258598,N,Y,36.1369381,-115.1452362
PAST SALE,,Single Family Residential,418 S 17th St,Las Vegas,NV,89104,60000,3,1.0,,1066,8712,1947,,56,,,,,http://www.redfin.com/NV/Las-Vegas/418-S-17th-St-89104/home/29348818,,,N,Y,36.1594867,-115.1291385
PAST SALE,February-9-2021,Condo/Co-op,322 Karen Ave #1205,Las Vegas,NV,89109,284999,1,1.5,Turnberry Towers At Paradise Road & Karen Ave,814,,2006,82,350,365,Sold,,,http://www.redfin.com/NV/Las-Vegas/322-Karen-Ave-89109/unit-1205/home/29797731,GLVAR,2262386,N,Y,36.1409467,-115.1523004
PAST SALE,February-23-2021,Single Family Residential,1307 Canosa Ave,Las Vegas,NV,89104,455000,4,3.0,Marycrest Estate,2850,10454,1964,68,160,,Sold,,,http://www.redfin.com/NV/Las-Vegas/1307-E-Canosa-Ave-89104/home/29452663,GLVAR,2231549,N,Y,36.1496511,-115.1350681
PAST SALE,February-25-2021,Condo/Co-op,353 E Bonneville Ave #627,Las Vegas,NV,89101,434900,2,2.0,Juhl,1322,,2008,66,329,549,Sold,,,http://www.redfin.com/NV/Las-Vegas/353-E-Bonneville-Ave-89101/unit-627/home/29816807,GLVAR,2260780,N,Y,36.1639701,-115.1463479
PAST SALE,February-18-2021,Condo/Co-op,900 Las Vegas Blvd #1114,Las Vegas,NV,89101,339000,2,2.0,Soho Lofts,1277,,2005,73,265,599,Sold,,,http://www.redfin.com/NV/Las-Vegas/900-S-Las-Vegas-Blvd-89101/unit-1114/home/29052318,GLVAR,2226627,N,Y,36.159942,-115.147445
PAST SALE,February-25-2021,Townhouse,542 Tam O Shanter,Las Vegas,NV,89109,250000,2,1.5,Lv Intl Cntry Club Twnhs Amd Lv Int C C Estate,1350,700,1969,66,185,279,Sold,,,http://www.redfin.com/NV/Las-Vegas/542-Tam-O-Shanter-89109/home/29466127,GLVAR,2262351,N,Y,36.139884,-115.150934
PAST SALE,February-3-2021,Condo/Co-op,353 E Bonneville Ave #349,Las Vegas,NV,89101,196900,0,1.0,Juhl,587,,2008,88,335,459,Sold,,,http://www.redfin.com/NV/Las-Vegas/353-E-Bonneville-Ave-89101/unit-349/home/29815172,GLVAR,2209866,N,Y,36.1639701,-115.1463479
PAST SALE,February-23-2021,Condo/Co-op,2807 Geary Pl #2508,Las Vegas,NV,89109,217888,2,2.0,Village Green Condo,1239,,1973,68,176,275,Sold,,,http://www.redfin.com/NV/Las-Vegas/2807-Geary-Pl-89109/unit-2508/home/29063241,GLVAR,2251512,N,Y,36.1383651,-115.150239
PAST SALE,February-24-2021,Condo/Co-op,2831 Geary Pl #2912,Las Vegas,NV,89109,130000,1,1.0,Village Green Condo,761,,1973,67,171,275,Sold,,,http://www.redfin.com/NV/Las-Vegas/2831-Geary-Pl-89109/unit-2912/home/29063806,GLVAR,2251730,N,Y,36.1375174,-115.1494052
PAST SALE,March-1-2021,Condo/Co-op,200 Hoover Ave #1706,Las Vegas,NV,89101,425000,1,1.75,NEWPORT LOFTS,1650,,2006,62,258,619,Sold,,,http://www.redfin.com/NV/Las-Vegas/200-Hoover-Ave-89101/unit-1706/home/29792185,GLVAR,2268234,N,Y,36.1614954,-115.1495905
PAST SALE,March-2-2021,Condo/Co-op,2879 Geary Pl #2815,Las Vegas,NV,89109,130000,1,1.0,Village Green Condo,761,,1973,61,171,69,Sold,,,http://www.redfin.com/NV/Las-Vegas/2879-Geary-Pl-89109/unit-2815/home/29063262,GLVAR,2256238,N,Y,36.1363963,-115.1480156
PAST SALE,February-19-2021,Multi-Family (2-4 Unit),1405 Clark Ave,Las Vegas,NV,89101,360000,4,,Lv Dev Co Add Ladd Add,1671,5227,1949,72,215,,Sold,,,http://www.redfin.com/NV/Las-Vegas/1405-E-Clark-Ave-89101/home/29348728,GLVAR,2259222,N,Y,36.1601783,-115.1329835
PAST SALE,,Condo/Co-op,2645 S Van Patten St,Las Vegas,NV,89109,450000,,,,,,1963,,,,,,,http://www.redfin.com/NV/Las-Vegas/2645-S-Van-Patten-St-89109/home/29466066,,,N,Y,36.1411287,-115.1486409
PAST SALE,,Single Family Residential,2817 Burton Ave,Las Vegas,NV,89102,435000,3,2.0,,2198,9360,1961,,198,,,,,http://www.redfin.com/NV/Las-Vegas/2817-Burton-Ave-89102/home/29460181,,,N,Y,36.1546472,-115.1802777
PAST SALE,March-3-2021,Single Family Residential,1124 Strong Dr,Las Vegas,NV,89102,601000,4,2.5,McNeil Tr,2670,20038,1950,60,225,,Sold,,,http://www.redfin.com/NV/Las-Vegas/1124-Strong-Dr-89102/home/29459334,GLVAR,2244251,N,Y,36.1577683,-115.1765491
PAST SALE,March-5-2021,Single Family Residential,1711 Lewis Ave,Las Vegas,NV,89101,210000,3,1.75,Mayfair Tr #2 Amd,1200,7405,1948,58,175,,Sold,,,http://www.redfin.com/NV/Las-Vegas/1711-Lewis-Ave-89101/home/29348820,GLVAR,2263818,N,Y,36.1600494,-115.1273318
PAST SALE,March-10-2021,Single Family Residential,1310 Francis Ave,Las Vegas,NV,89104,284000,3,2.0,Huntridge Sub Tr 3,1216,6098,1944,53,234,,Sold,,,http://www.redfin.com/NV/Las-Vegas/1310-Francis-Ave-89104/home/28965260,GLVAR,2270336,N,Y,36.1570568,-115.1352071
PAST SALE,March-18-2021,Single Family Residential,1705 Lamplighter Ln,Las Vegas,NV,89104,255990,3,1.75,Moore Add #1 Sub Amd,1152,6098,1962,45,222,,Sold,,,http://www.redfin.com/NV/Las-Vegas/1705-Lamplighter-Ln-89104/home/29454759,GLVAR,2268434,N,Y,36.147553,-115.1271928
PAST SALE,April-22-2021,Condo/Co-op,1405 Vegas Valley Dr #229,Las Vegas,NV,89169,90000,2,1.5,Casa Vegas Apt Homes,951,,1971,10,95,306,Sold,,,http://www.redfin.com/NV/Las-Vegas/1405-Vegas-Valley-Dr-89169/unit-229/home/29467478,GLVAR,2230924,N,Y,36.135805,-115.1339331
PAST SALE,April-28-2021,Single Family Residential,1580 Izabella Ave,Las Vegas,NV,89169,175000,2,1.0,FRANCISCO PARK #05,875,6970,1961,4,200,,Sold,,,http://www.redfin.com/NV/Las-Vegas/1580-Izabella-Ave-89169/home/29467687,GLVAR,2161397,N,Y,36.1376563,-115.1308988
PAST SALE,April-19-2021,Condo/Co-op,222 Karen Ave #2603,Las Vegas,NV,89109,335000,1,1.75,Turnberry Towers At Paradise Road & Karen Ave,814,,2007,13,412,377,Sold,,,http://www.redfin.com/NV/Las-Vegas/222-Karen-Ave-89109/unit-2603/home/29799114,GLVAR,2273618,N,Y,36.140947,-115.15373
PAST SALE,March-31-2021,Condo/Co-op,2877 Paradise Rd #1505,Las Vegas,NV,89109,475000,2,1.75,TURNBERRY PLACE AMD,1556,,2001,32,305,894,Sold,,,http://www.redfin.com/NV/Las-Vegas/2877-Paradise-Rd-89109/unit-1505/home/29895918,GLVAR,2276493,N,Y,36.136769,-115.156791
PAST SALE,March-31-2021,Condo/Co-op,2747 Paradise Rd #2401,Las Vegas,NV,89109,765000,3,2.75,Turnberry Place Phase 3 Amd,2805,,2003,32,273,1308,Sold,,,http://www.redfin.com/NV/Las-Vegas/2747-Paradise-Rd-89109/unit-2401/home/29934032,GLVAR,2254627,N,Y,36.1384588,-115.1563999
PAST SALE,April-20-2021,Condo/Co-op,200 Sahara #1811,Las Vegas,NV,89102,240000,1,1.0,Allure Condo,1090,,2006,12,220,,Sold,,,http://www.redfin.com/NV/Las-Vegas/200-W-Sahara-Ave-89102/unit-1811/home/29796778,GLVAR,2191977,N,Y,36.1444008,-115.1589939
PAST SALE,April-21-2021,Condo/Co-op,322 Karen Ave #501,Las Vegas,NV,89109,430000,2,2.0,Turnberry Towers At Paradise Road & Karen Ave,1405,,2006,11,306,651,Sold,,,http://www.redfin.com/NV/Las-Vegas/322-Karen-Ave-89109/unit-501/home/29797758,GLVAR,2265942,N,Y,36.1409467,-115.1523004
PAST SALE,April-21-2021,Condo/Co-op,900 Las Vegas Blvd #1116,Las Vegas,NV,89101,330000,0,1.75,Soho Lofts,1356,,2005,11,243,599,Sold,,,http://www.redfin.com/NV/Las-Vegas/900-S-Las-Vegas-Blvd-89101/unit-1116/home/29052316,GLVAR,2240240,N,Y,36.159942,-115.147445
PAST SALE,,Single Family Residential,3 Crescent Dr,Las Vegas,NV,89102,800000,4,4.0,,3662,31799,1961,,218,,,,,http://www.redfin.com/NV/Las-Vegas/3-Crescent-Dr-89102/home/29866850,,,N,Y,36.1547466,-115.1722878
PAST SALE,April-8-2021,Condo/Co-op,322 Karen Ave #1508,Las Vegas,NV,89109,604000,2,2.0,Turnberry Towers At Paradise Road & Karen Ave,1657,,2006,24,365,765,Sold,,,http://www.redfin.com/NV/Las-Vegas/322-Karen-Ave-89109/unit-1508/home/29796029,GLVAR,2265891,N,Y,36.1409467,-115.1523004
PAST SALE,April-26-2021,Single Family Residential,800 Saint Louis Ave,Las Vegas,NV,89104,320000,5,2.5,Town & Country Estate,1977,8276,1963,6,162,,Sold,,,http://www.redfin.com/NV/Las-Vegas/800-E-St-Louis-Ave-89104/home/29457141,GLVAR,2285559,N,Y,36.1475094,-115.1444718
PAST SALE,April-27-2021,Condo/Co-op,200 Hoover Ave #1707,Las Vegas,NV,89101,289000,1,1.0,Newport Lofts,1077,,2006,5,268,508,Sold,,,http://www.redfin.com/NV/Las-Vegas/200-Hoover-Ave-89101/unit-1707/home/29792186,GLVAR,2278813,N,Y,36.1614954,-115.1495905
PAST SALE,April-27-2021,Condo/Co-op,3111 Bel Air Dr Unit 21D,Las Vegas,NV,89109,426000,2,2.5,Regency Towers Amd,1856,,1974,5,230,1002,Sold,,,http://www.redfin.com/NV/Las-Vegas/3111-Bel-Air-Dr-89109/unit-21D/home/29466961,GLVAR,2279285,N,Y,36.1332234,-115.1413913
PAST SALE,March-19-2021,Single Family Residential,1407 Westwood Dr,Las Vegas,NV,89102,1085000,4,4.0,Scotch Eighty Add,5012,23958,1973,44,216,,Sold,,,http://www.redfin.com/NV/Las-Vegas/1407-Westwood-Dr-89102/home/29457236,GLVAR,2265112,N,Y,36.1546069,-115.1664283
PAST SALE,,Single Family Residential,2706 Ashby Ave,Las Vegas,NV,89102,256100,3,3.0,,3542,40511,1950,,72,,,,,http://www.redfin.com/NV/Las-Vegas/2706-Ashby-Ave-89102/home/29459337,,,N,Y,36.1573776,-115.1779387
PAST SALE,April-29-2021,Condo/Co-op,2747 Paradise Rd #904,Las Vegas,NV,89109,460000,2,2.5,TURNBERRY PLACE PHASE 3 AMD,2050,,2003,3,224,977,Sold,,,http://www.redfin.com/NV/Las-Vegas/2747-Paradise-Rd-89109/unit-904/home/29934134,GLVAR,2277314,N,Y,36.1384588,-115.1563999
PAST SALE,April-29-2021,Condo/Co-op,200 Sahara Ave #1005,Las Vegas,NV,89102,305000,2,2.0,Allure Condo,1233,,2006,3,247,733,Sold,,,http://www.redfin.com/NV/Las-Vegas/200-W-Sahara-Ave-89102/unit-1005/home/29796912,GLVAR,2278302,N,Y,36.1444008,-115.1589939
PAST SALE,April-29-2021,Condo/Co-op,900 Las Vegas Blvd #910,Las Vegas,NV,89101,413500,0,2.0,Soho Lofts,1590,,2005,3,260,599,Sold,,,http://www.redfin.com/NV/Las-Vegas/900-S-Las-Vegas-Blvd-89101/unit-910/home/29052352,GLVAR,2273961,N,Y,36.159942,-115.147445
PAST SALE,April-30-2021,Single Family Residential,549 Oakey Blvd,Las Vegas,NV,89104,340000,5,4.5,Desert Park #3,4194,10890,1960,2,81,,Sold,,,http://www.redfin.com/NV/Las-Vegas/549-E-Oakey-Blvd-89104/home/29454576,GLVAR,2276543,N,Y,36.1516855,-115.1482935
PAST SALE,April-30-2021,Single Family Residential,2706 Burton Ave,Las Vegas,NV,89102,625000,5,3.0,McNeil Tr #4,2656,9583,1960,2,235,,Sold,,,http://www.redfin.com/NV/Las-Vegas/2706-Burton-Ave-89102/home/29460174,GLVAR,2277496,N,Y,36.1551719,-115.177846
PAST SALE,April-22-2021,Single Family Residential,2301 Beverly Way,Las Vegas,NV,89104,260000,3,2.0,Paradise Plaza Tr 1,1376,6098,1957,10,189,,Sold,,,http://www.redfin.com/NV/Las-Vegas/2301-S-Beverly-Way-89104/home/29455877,GLVAR,2285782,N,Y,36.1451735,-115.1471817
PAST SALE,April-23-2021,Condo/Co-op,2877 Paradise Rd #901,Las Vegas,NV,89109,900000,3,3.0,TURNBERRY PLACE AMD,2805,,2001,9,321,1400,Sold,,,http://www.redfin.com/NV/Las-Vegas/2877-Paradise-Rd-89109/unit-901/home/29895941,GLVAR,2264840,N,Y,36.136769,-115.156791
PAST SALE,April-23-2021,Condo/Co-op,2877 Paradise Rd #2306,Las Vegas,NV,89109,525000,2,1.75,Turnberry Place Amd,1712,,2001,9,307,916,Sold,,,http://www.redfin.com/NV/Las-Vegas/2877-Paradise-Rd-89109/unit-2306/home/29895887,GLVAR,2270469,N,Y,36.136769,-115.156791
PAST SALE,April-23-2021,Condo/Co-op,2807 Geary Pl #2506,Las Vegas,NV,89109,147500,1,1.0,Village Green Condo,897,,1973,9,164,275,Sold,,,http://www.redfin.com/NV/Las-Vegas/2807-Geary-Pl-89109/unit-2506/home/29063243,GLVAR,2271995,N,Y,36.1383651,-115.150239
PAST SALE,April-8-2021,Condo/Co-op,2877 Paradise Rd #2303,Las Vegas,NV,89109,725000,2,2.5,Turnberry Place Amd,2195,,2001,24,330,1006,Sold,,,http://www.redfin.com/NV/Las-Vegas/2877-Paradise-Rd-89109/unit-2303/home/29895911,GLVAR,2257890,N,Y,36.136769,-115.156791
PAST SALE,April-23-2021,Townhouse,1024 Tam O Shanter,Las Vegas,NV,89109,220000,2,1.5,Lv Intl Cntry Club Twnhs Lv Int C C Estate,1350,700,1968,9,163,378,Sold,,,http://www.redfin.com/NV/Las-Vegas/1024-Tam-O-Shanter-89109/home/29465880,GLVAR,2262328,N,Y,36.140253,-115.141283
PAST SALE,April-26-2021,Condo/Co-op,2747 Paradise Rd #1602,Las Vegas,NV,89109,755000,3,3.0,Turnberry Place Phase 3 Amd,2805,,2003,6,269,,Sold,,,http://www.redfin.com/NV/Las-Vegas/2747-Paradise-Rd-89109/unit-1602/home/29934166,GLVAR,2266188,N,Y,36.138321,-115.1567931
PAST SALE,April-26-2021,Single Family Residential,2851 Queens Courtyard Dr,Las Vegas,NV,89109,557000,2,2.5,Las Vegas Cntry Club Fairway Estate,2709,3485,1983,6,206,,Sold,,,http://www.redfin.com/NV/Las-Vegas/2851-Queens-Courtyard-Dr-89109/home/29465857,GLVAR,2276699,N,Y,36.1371981,-115.1445182
PAST SALE,April-30-2021,Single Family Residential,1611 6th St,Las Vegas,NV,89104,382500,3,2.0,,2270,10454,1960,2,169,,Sold,,,http://www.redfin.com/NV/Las-Vegas/1611-S-6th-St-89104/home/29455984,GLVAR,2288406,N,Y,36.1516216,-115.1460005
PAST SALE,,Condo/Co-op,222 Karen Ave #303,Las Vegas,NV,89109,282500,1,1.0,,814,,2007,,347,,,,,http://www.redfin.com/NV/Las-Vegas/222-Karen-Ave-89109/unit-303/home/29795934,,,N,Y,36.140947,-115.15373
PAST SALE,February-18-2021,Condo/Co-op,222 Karen Ave #608,Las Vegas,NV,89109,510000,2,1.75,Turnberry Towers At Paradise Road & Karen Ave,1657,,2007,73,308,768,Sold,,,http://www.redfin.com/NV/Las-Vegas/222-Karen-Ave-89109/unit-608/home/29797872,GLVAR,2219046,N,Y,36.140947,-115.15373
PAST SALE,February-12-2021,Condo/Co-op,322 Karen Ave #1501,Las Vegas,NV,89109,500000,2,2.0,Turnberry Towers At Paradise Road & Karen Ave,1405,,2006,79,356,651,Sold,,,http://www.redfin.com/NV/Las-Vegas/322-Karen-Ave-89109/unit-1501/home/29795969,GLVAR,2251399,N,Y,36.1409467,-115.1523004
PAST SALE,February-5-2021,Condo/Co-op,222 Karen Ave #2303,Las Vegas,NV,89109,319000,1,1.5,Turnberry Towers At Paradise Road & Karen Ave,814,,2007,86,392,165,Sold,,,http://www.redfin.com/NV/Las-Vegas/222-Karen-Ave-89109/unit-2303/home/29799119,GLVAR,2249679,N,Y,36.140947,-115.15373
PAST SALE,February-22-2021,Single Family Residential,2426 Palomino Ln,Las Vegas,NV,89107,2500000,5,5.0,,6711,43560,1996,69,373,,Sold,,,http://www.redfin.com/NV/Las-Vegas/2426-Palomino-Ln-89107/home/29346277,GLVAR,2228362,N,Y,36.163025,-115.175288
PAST SALE,February-24-2021,Condo/Co-op,714 Oakmont Ave #1104,Las Vegas,NV,89109,114000,0,1.0,Village Green Condo,620,,1972,67,184,279,Sold,,,http://www.redfin.com/NV/Las-Vegas/714-Oakmont-Ave-89109/unit-1104/home/29063536,GLVAR,2237260,N,Y,36.138969,-115.1474768
PAST SALE,February-26-2021,Condo/Co-op,2747 Paradise Rd #3303,Las Vegas,NV,89109,2175000,3,4.0,TURNBERRY PLACE PHASE 3 AMD,4007,,2003,65,543,1628,Sold,,,http://www.redfin.com/NV/Las-Vegas/2747-Paradise-Rd-89109/unit-3303/home/29934080,GLVAR,2139456,N,Y,36.1384588,-115.1563999
PAST SALE,February-12-2021,Single Family Residential,1700 Ivanhoe Way,Las Vegas,NV,89102,382000,4,2.5,Glen Heather Estate,2274,7841,1963,79,168,,Sold,,,http://www.redfin.com/NV/Las-Vegas/1700-Ivanhoe-Way-89102/home/29457803,GLVAR,2238941,N,Y,36.1512775,-115.1685127
PAST SALE,March-1-2021,Condo/Co-op,2747 Paradise Rd #3403,Las Vegas,NV,89109,1750000,3,3.25,TURNBERRY PLACE PHASE 3 AMD,4007,,2003,62,437,1751,Sold,,,http://www.redfin.com/NV/Las-Vegas/2747-Paradise-Rd-89109/unit-3403/home/29934084,GLVAR,2248191,N,Y,36.1384588,-115.1563999
PAST SALE,March-1-2021,Condo/Co-op,2700 Las Vegas Blvd #3604,Las Vegas,NV,89109,319000,2,1.75,Sky Las Vegas,1100,,2006,62,290,582,Sold,,,http://www.redfin.com/NV/Las-Vegas/2700-S-Las-Vegas-Blvd-89109/unit-3604/home/29784399,GLVAR,2259748,N,Y,36.1388477,-115.1617731
PAST SALE,March-2-2021,Condo/Co-op,353 E Bonneville Ave #720,Las Vegas,NV,89101,529900,2,2.5,Juhl,1491,,2008,61,355,568,Sold,,,http://www.redfin.com/NV/Las-Vegas/353-E-Bonneville-Ave-89101/unit-720/home/29816701,GLVAR,2260765,N,Y,36.1639701,-115.1463479
PAST SALE,,Single Family Residential,1807 S 8th St,Las Vegas,NV,89104,256000,7,7.0,,2936,8276,1956,,87,,,,,http://www.redfin.com/NV/Las-Vegas/1807-S-8th-St-89104/home/29457088,,,N,Y,36.1500312,-115.1443097
PAST SALE,March-5-2021,Condo/Co-op,3157 Pinehurst Dr Unit B,Las Vegas,NV,89109,224000,2,1.5,Lv Intl Cntry Club Estate Twnhs Condo Lv Int C C E,1200,1400,1972,58,187,289,Sold,,,http://www.redfin.com/NV/Las-Vegas/3157-Pinehurst-Dr-89109/unit-B/home/29467158,GLVAR,2258070,N,Y,36.13314,-115.138686
PAST SALE,March-2-2021,Single Family Residential,3200 Bel Air Dr,Las Vegas,NV,89109,600000,3,3.0,LAS VEGAS INTL CNTRY CLUB EST,2733,4356,1979,61,220,233,Sold,,,http://www.redfin.com/NV/Las-Vegas/3200-Bel-Air-Dr-89109/home/29467026,GLVAR,2218395,N,Y,36.1322675,-115.1443329
PAST SALE,March-8-2021,Condo/Co-op,2857 Paradise Rd #704,Las Vegas,NV,89109,520000,2,2.5,Turnberry Place Phase 2,2050,,2002,55,254,953,Sold,,,http://www.redfin.com/NV/Las-Vegas/2857-Paradise-Rd-89109/unit-704/home/29896079,GLVAR,2261109,N,Y,36.1367864,-115.1555198
PAST SALE,March-8-2021,Condo/Co-op,2857 Paradise Rd #3003,Las Vegas,NV,89109,1850000,3,4.5,Turnberry Place Phase 2,4007,,2002,55,462,1650,Sold,,,http://www.redfin.com/NV/Las-Vegas/2857-Paradise-Rd-89109/unit-3003/home/29895969,GLVAR,2264792,N,Y,36.1367864,-115.1555198
PAST SALE,March-8-2021,Condo/Co-op,2747 Paradise Rd #1606,Las Vegas,NV,89109,420000,2,1.75,Turnberry Place Phase 3 Amd,1712,,2003,55,245,854,Sold,,,http://www.redfin.com/NV/Las-Vegas/2747-Paradise-Rd-89109/unit-1606/home/29934169,GLVAR,2261199,N,Y,36.1384588,-115.1563999
PAST SALE,March-11-2021,Single Family Residential,1100 5th Pl,Las Vegas,NV,89104,510000,6,5.25,Park Place Add Amd,3520,8712,1997,52,145,,Sold,,,http://www.redfin.com/NV/Las-Vegas/1100-5th-Pl-89104/home/29454506,GLVAR,2258694,N,Y,36.1567647,-115.1472744
PAST SALE,March-10-2021,Single Family Residential,1144 6th St,Las Vegas,NV,89104,475000,3,2.0,Park Place Add Amd,2269,9148,1940,53,209,,Sold,,,http://www.redfin.com/NV/Las-Vegas/1144-S-6th-St-89104/home/29454507,GLVAR,2232860,N,Y,36.1553606,-115.1464406
PAST SALE,March-9-2021,Condo/Co-op,222 Karen Ave #703,Las Vegas,NV,89109,299000,1,1.5,Turnberry Towers At Paradise Road & Karen Ave,814,,2007,54,367,377,Sold,,,http://www.redfin.com/NV/Las-Vegas/222-Karen-Ave-89109/unit-703/home/29797865,GLVAR,2265681,N,Y,36.140947,-115.15373
PAST SALE,,Single Family Residential,1127 S 6th St,Las Vegas,NV,89104,300000,2,2.0,,1720,8276,1953,,174,,,,,http://www.redfin.com/NV/Las-Vegas/1127-S-6th-St-89104/home/29455706,,,N,Y,36.1559577,-115.1458152
PAST SALE,March-12-2021,Single Family Residential,1801 8th St,Las Vegas,NV,89104,249900,3,1.5,,1850,6970,1958,51,135,,Sold,,,http://www.redfin.com/NV/Las-Vegas/1801-S-8th-St-89104/home/29456250,GLVAR,2022318,N,Y,36.1502551,-115.1442866
PAST SALE,March-12-2021,Condo/Co-op,697 Oakmont Ave #3309,Las Vegas,NV,89109,145000,1,1.0,Village Green Condo,869,869,1974,51,167,270,Sold,,,http://www.redfin.com/NV/Las-Vegas/697-Oakmont-Ave-89109/unit-3309/home/29063775,GLVAR,2243551,N,Y,36.1382673,-115.1478303
PAST SALE,March-25-2021,Condo/Co-op,200 Sahara Ave #3701,Las Vegas,NV,89102,455000,2,2.0,Allure Condo,1563,,2006,38,291,,Sold,,,http://www.redfin.com/NV/Las-Vegas/200-W-Sahara-Ave-89102/unit-3701/home/29797692,GLVAR,2271295,N,Y,36.1444008,-115.1589939
PAST SALE,March-25-2021,Condo/Co-op,2777 Paradise Rd #3305,Las Vegas,NV,89109,500000,2,2.0,Turnberry Place Phase 4,1556,,2005,38,321,812,Sold,,,http://www.redfin.com/NV/Las-Vegas/2777-Paradise-Rd-89109/unit-3305/home/29063392,GLVAR,2214639,N,Y,36.138277,-115.155482
PAST SALE,April-27-2021,Condo/Co-op,353 E Bonneville Ave #1105,Las Vegas,NV,89101,390900,2,2.0,Juhl,1154,,2008,5,339,525,Sold,,,http://www.redfin.com/NV/Las-Vegas/353-E-Bonneville-Ave-89101/unit-1105/home/29816628,GLVAR,2271698,N,Y,36.1639701,-115.1463479
PAST SALE,April-28-2021,Condo/Co-op,150 N Las Vegas Blvd #1107,Las Vegas,NV,89101,520000,2,1.75,Streamline Tower,1698,,2007,4,306,763,Sold,,,http://www.redfin.com/NV/Las-Vegas/150-Las-Vegas-Blvd-N-89101/unit-1107/home/29813839,GLVAR,2273471,N,Y,36.1699412,-115.1398296
PAST SALE,,Single Family Residential,1040 Bracken Ave,Las Vegas,NV,89104,175000,3,2.0,,1980,6098,1944,,88,,,,,http://www.redfin.com/NV/Las-Vegas/1040-Bracken-Ave-89104/home/29456280,,,N,Y,36.1528373,-115.1395847
PAST SALE,February-19-2021,Condo/Co-op,900 Las Vegas Blvd #812,Las Vegas,NV,89101,465000,1,1.75,Soho Lofts,1785,,2005,72,261,595,Sold,,,http://www.redfin.com/NV/Las-Vegas/900-S-Las-Vegas-Blvd-89101/unit-812/home/29052369,GLVAR,2254352,N,Y,36.159942,-115.147445
PAST SALE,March-3-2021,Condo/Co-op,200 Hoover Ave #2107,Las Vegas,NV,89101,612500,2,1.75,Newport Lofts,2536,,2006,60,242,987,Sold,,,http://www.redfin.com/NV/Las-Vegas/200-Hoover-Ave-89101/unit-2107/home/29792255,GLVAR,2260384,N,Y,36.1614954,-115.1495905
PAST SALE,,Single Family Residential,1037 Griffith Ave,Las Vegas,NV,89104,325000,2,2.0,,1545,5663,1944,,210,,,,,http://www.redfin.com/NV/Las-Vegas/1037-Griffith-Ave-89104/home/29456296,,,N,Y,36.1524801,-115.1398614
PAST SALE,March-12-2021,Condo/Co-op,200 Hoover Ave #1101,Las Vegas,NV,89101,217000,0,1.0,Newport Lofts,911,,2006,51,238,508,Sold,,,http://www.redfin.com/NV/Las-Vegas/200-Hoover-Ave-89101/unit-1101/home/29792165,GLVAR,2250666,N,Y,36.1614954,-115.1495905
PAST SALE,March-12-2021,Condo/Co-op,2747 Paradise Rd #1203,Las Vegas,NV,89109,635000,2,2.5,Turnberry Place Phase 3 Amd,2195,,2003,51,289,1064,Sold,,,http://www.redfin.com/NV/Las-Vegas/2747-Paradise-Rd-89109/unit-1203/home/29934144,GLVAR,2247836,N,Y,36.1384588,-115.1563999
PAST SALE,March-17-2021,Condo/Co-op,353 E Bonneville Ave #632,Las Vegas,NV,89101,387900,1,2.0,Juhl,1154,,2008,46,336,524,Sold,,,http://www.redfin.com/NV/Las-Vegas/353-E-Bonneville-Ave-89101/unit-632/home/29816812,GLVAR,2278984,N,Y,36.1639701,-115.1463479
PAST SALE,March-17-2021,Condo/Co-op,777 Oakmont Ave #602,Las Vegas,NV,89109,200900,2,1.75,Village Green Condo,1160,1160,1972,46,173,344,Sold,,,http://www.redfin.com/NV/Las-Vegas/777-Oakmont-Ave-89109/unit-602/home/29063585,GLVAR,2257371,N,Y,36.1386462,-115.1460468
PAST SALE,,Condo/Co-op,222 Karen Ave #1501,Las Vegas,NV,89109,572000,2,2.0,,1405,,2007,,407,,,,,http://www.redfin.com/NV/Las-Vegas/222-Karen-Ave-89109/unit-1501/home/29797614,,,N,Y,36.140947,-115.15373
PAST SALE,March-19-2021,Multi-Family (5+ Unit),208 Boston Ave,Las Vegas,NV,89102,401000,2,,MEADOWS ADD,3360,6970,1983,44,119,,Sold,,,http://www.redfin.com/NV/Las-Vegas/208-W-Boston-Ave-89102/home/29457464,GLVAR,2175435,N,Y,36.1477058,-115.1590634
PAST SALE,,Single Family Residential,1506 5th Pl,Las Vegas,NV,89104,503290,6,4.5,,4424,10890,1959,,114,,,,,http://www.redfin.com/NV/Las-Vegas/1506-5th-Pl-89104/home/29454435,,,N,Y,36.1525082,-115.1474597
PAST SALE,March-24-2021,Single Family Residential,555 Barbara Way,Las Vegas,NV,89104,345000,3,2.0,Beverly Green Tr #3,2018,8712,1956,39,171,,Sold,,,http://www.redfin.com/NV/Las-Vegas/555-Barbara-Way-89104/home/29455544,GLVAR,2256900,N,Y,36.1501215,-115.148085
PAST SALE,,Single Family Residential,1311 Franklin Ave,Las Vegas,NV,89104,259000,2,1.0,,1365,6534,1944,,190,,,,,http://www.redfin.com/NV/Las-Vegas/1311-Franklin-Ave-89104/home/29451659,,,N,Y,36.1552553,-115.1354387
PAST SALE,March-23-2021,Single Family Residential,1041 Bracken Ave,Las Vegas,NV,89104,315000,3,1.75,Huntridge Sub Tr 5,1291,6098,1944,40,244,,Sold,,,http://www.redfin.com/NV/Las-Vegas/1041-Bracken-Ave-89104/home/29456276,GLVAR,2271280,N,Y,36.1531701,-115.1396079
PAST SALE,March-26-2021,Single Family Residential,1043 Howard Dr,Las Vegas,NV,89104,319900,3,2.25,Southridge Tr 1,1844,6098,1951,37,173,,Sold,,,http://www.redfin.com/NV/Las-Vegas/1043-E-Howard-Dr-89104/home/29456947,GLVAR,2271193,N,Y,36.151047,-115.139568
PAST SALE,,Single Family Residential,1312 S 6th St,Las Vegas,NV,89104,390000,4,4.0,,3211,10454,1975,,121,,,,,http://www.redfin.com/NV/Las-Vegas/1312-S-6th-St-89104/home/29454392,,,N,Y,36.1545108,-115.1464174
PAST SALE,,Condo/Co-op,321 N 9th St,Las Vegas,NV,89101,1300000,,,,,,2002,,,,,,,http://www.redfin.com/NV/Las-Vegas/321-N-9th-St-89101/home/29347391,,,N,Y,36.1705431,-115.1344659
PAST SALE,April-1-2021,Single Family Residential,1712 15th St,Las Vegas,NV,89104,487000,4,3.0,Marycrest Estate,2386,9148,1956,31,204,,Sold,,,http://www.redfin.com/NV/Las-Vegas/1712-S-15th-St-89104/home/29452729,GLVAR,2233924,N,Y,36.1503246,-115.1331224
PAST SALE,,Multi-Family (2-4 Unit),1313 E Phillips Ave,Las Vegas,NV,89104,190000,5,2.0,,1786,6970,1954,,106,,,,,http://www.redfin.com/NV/Las-Vegas/1313-E-Phillips-Ave-89104/home/29452435,,,N,Y,36.1474059,-115.134752
PAST SALE,March-31-2021,Single Family Residential,2212 Van Patten Pl,Las Vegas,NV,89104,220000,2,1.75,Paradise Park,1603,6970,1954,32,137,,Sold,,,http://www.redfin.com/NV/Las-Vegas/2212-S-Van-Patten-Pl-89104/home/29455825,GLVAR,2274569,N,Y,36.1453547,-115.1485946
PAST SALE,,Multi-Family (2-4 Unit),215 W Philadelphia Ave,Las Vegas,NV,89102,385000,4,2.0,,1600,12632,1949,,241,,,,,http://www.redfin.com/NV/Las-Vegas/215-W-Philadelphia-Ave-89102/home/29457460,,,N,Y,36.1490176,-115.1588143
PAST SALE,March-31-2021,Condo/Co-op,200 Sahara Ave #1901,Las Vegas,NV,89102,410000,2,1.75,Allure Condo,1563,,2006,32,262,1000,Sold,,,http://www.redfin.com/NV/Las-Vegas/200-W-Sahara-Ave-89102/unit-1901/home/29796777,GLVAR,2259257,N,Y,36.1444008,-115.1589939
PAST SALE,March-31-2021,Condo/Co-op,222 Karen Ave #2701,Las Vegas,NV,89109,480000,2,2.0,Turnberry Towers At Paradise Road & Karen Avenue,1405,,2007,32,342,651,Sold,,,http://www.redfin.com/NV/Las-Vegas/222-Karen-Ave-89109/unit-2701/home/29799285,GLVAR,2193262,N,Y,36.140947,-115.15373
PAST SALE,March-30-2021,Condo/Co-op,3111 Bel Air Dr Unit 27F,Las Vegas,NV,89109,340000,2,2.25,Regency Towers Amd,1856,,1974,33,183,932,Sold,,,http://www.redfin.com/NV/Las-Vegas/3111-Bel-Air-Dr-89109/unit-27F/home/29466947,GLVAR,2249732,N,Y,36.1332234,-115.1413913
PAST SALE,April-1-2021,Condo/Co-op,200 Sahara Ave #4004,Las Vegas,NV,89102,750000,3,3.0,Allure Condo,2515,,2006,31,298,1459,Sold,,,http://www.redfin.com/NV/Las-Vegas/200-W-Sahara-Ave-89102/unit-4004/home/29797667,GLVAR,2261066,N,Y,36.1444008,-115.1589939
PAST SALE,,Condo/Co-op,201 W St Louis Ave,Las Vegas,NV,89102,293425,,,,,,1954,,,,,,,http://www.redfin.com/NV/Las-Vegas/201-W-St-Louis-Ave-89102/home/29457491,,,N,Y,36.148058,-115.158383
PAST SALE,March-31-2021,Single Family Residential,1314 Jessica Ave,Las Vegas,NV,89104,280000,4,2.5,Huntridge Sub Tr 3,1287,6970,1944,32,218,,Sold,,,http://www.redfin.com/NV/Las-Vegas/1314-Jessica-Ave-89104/home/29451580,GLVAR,2265511,N,Y,36.156372,-115.1350681
PAST SALE,April-21-2021,Single Family Residential,308 14th St,Las Vegas,NV,89101,160000,1,1.0,Fourteenth Street City Add,462,6098,1952,11,346,,Sold,,,http://www.redfin.com/NV/Las-Vegas/308-N-14th-St-89101/home/29348438,GLVAR,2272045,N,Y,36.1675233,-115.1282663
PAST SALE,April-27-2021,Condo/Co-op,1405 Vegas Valley Dr #210,Las Vegas,NV,89169,128000,3,2.0,Casa Vegas Apt Homes,1125,,1971,5,114,355,Sold,,,http://www.redfin.com/NV/Las-Vegas/1405-Vegas-Valley-Dr-89169/unit-210/home/29467466,GLVAR,2263211,N,Y,36.135805,-115.1339331
PAST SALE,April-23-2021,Condo/Co-op,363 N 14th St Unit B,Las Vegas,NV,89101,255000,3,1.75,14th Street,1414,1742,2020,9,180,55,Sold,,,http://www.redfin.com/NV/Las-Vegas/363-N-14th-St-89101/unit-B/home/170026008,GLVAR,2236644,N,Y,36.1697409,-115.1284377
PAST SALE,April-30-2021,Single Family Residential,1626 Lewis Ave,Las Vegas,NV,89101,224000,3,2.0,Mayfair Tr #1,1476,7405,1942,2,152,,Sold,,,http://www.redfin.com/NV/Las-Vegas/1626-Lewis-Ave-89104/home/29348753,GLVAR,2285758,N,Y,36.16027,-115.1293701
PAST SALE,April-30-2021,Single Family Residential,3005 Talbot St,Las Vegas,NV,89169,184500,2,1.0,Francisco Park #10,875,6970,1963,2,211,,Sold,,,http://www.redfin.com/NV/Las-Vegas/3005-Talbot-St-89169/home/29469534,GLVAR,2263467,N,Y,36.1351325,-115.1272391
PAST SALE,February-5-2021,Single Family Residential,1110 Francis Ave,Las Vegas,NV,89104,262000,3,2.0,Huntridge Sub Tr 2,1199,6098,1942,86,219,,Sold,,,http://www.redfin.com/NV/Las-Vegas/1110-Francis-Ave-89104/home/29456029,GLVAR,2256201,N,Y,36.1570428,-115.1390057
PAST SALE,February-16-2021,Single Family Residential,1231 S Maryland Pkwy,Las Vegas,NV,89104,300000,5,3.0,huntridge,2543,8712,1944,75,118,,Sold,,,http://www.redfin.com/NV/Las-Vegas/1231-S-Maryland-Pkwy-89104/home/29451666,GLVAR,2220415,N,Y,36.155309,-115.136544
PAST SALE,March-12-2021,Single Family Residential,304 Maryland Pkwy,Las Vegas,NV,89101,250000,5,3.0,Pioneer Heights Add,1368,6970,1945,51,183,,Sold,,,http://www.redfin.com/NV/Las-Vegas/304-S-Maryland-Pkwy-89101/home/29347319,GLVAR,2265083,N,Y,36.1632754,-115.1346048
PAST SALE,March-16-2021,Single Family Residential,1017 Oakey Blvd,Las Vegas,NV,89104,260000,2,1.0,Huntridge Sub Tr 5,857,7405,1944,47,303,,Sold,,,http://www.redfin.com/NV/Las-Vegas/1017-E-Oakey-Blvd-89104/home/29456315,GLVAR,2273538,N,Y,36.1517493,-115.140627
PAST SALE,March-4-2021,Condo/Co-op,2700 S Las Vegas Bl Blvd #4102,Las Vegas,NV,89109,621000,2,2.25,SKY LAS VEGAS,1738,,2006,59,357,918,Sold,,,http://www.redfin.com/NV/Las-Vegas/2700-S-Las-Vegas-Blvd-89109/unit-4102/home/29784457,GLVAR,2234327,N,Y,36.1388477,-115.1617731
PAST SALE,March-16-2021,Condo/Co-op,1405 Vegas Valley Dr #316,Las Vegas,NV,89169,65000,1,1.0,Casa Vegas Apt Homes,671,,1971,47,97,212,Sold,,,http://www.redfin.com/NV/Las-Vegas/1405-Vegas-Valley-Dr-89169/unit-316/home/29468786,GLVAR,2269098,N,Y,36.135805,-115.1339331
PAST SALE,,Condo/Co-op,150 Las Vegas Blvd N #1112,Las Vegas,NV,89101,382000,2,2.0,,1246,,2007,,307,,,,,http://www.redfin.com/NV/Las-Vegas/150-Las-Vegas-Blvd-N-89101/unit-1112/home/29813832,,,N,Y,36.1699412,-115.1398296
PAST SALE,February-12-2021,Condo/Co-op,322 Karen Ave #2505,Las Vegas,NV,89109,300000,1,1.5,Turnberry Towers At Paradise Road & Karen Ave,814,,2006,79,369,365,Sold,,,http://www.redfin.com/NV/Las-Vegas/322-Karen-Ave-89109/unit-2505/home/29796014,GLVAR,2246449,N,Y,36.1409467,-115.1523004
PAST SALE,,Single Family Residential,2200 Santa Clara Dr,Las Vegas,NV,89104,225000,2,1.0,,920,6098,1950,,245,,,,,http://www.redfin.com/NV/Las-Vegas/2200-Santa-Clara-Dr-89104/home/29455625,,,N,Y,36.1459734,-115.1527636
PAST SALE,March-3-2021,Condo/Co-op,222 Karen Ave #702,Las Vegas,NV,89109,399999,2,2.0,Turnberry Towers At Paradise Road & Karen Ave,1405,,2007,60,285,651,Sold,,,http://www.redfin.com/NV/Las-Vegas/222-Karen-Ave-89109/unit-702/home/29797866,GLVAR,2262168,N,Y,36.140947,-115.15373
PAST SALE,March-12-2021,Condo/Co-op,2747 Paradise Rd #805,Las Vegas,NV,89109,475000,2,2.0,TURNBERRY PLACE PHASE 3 AMD,1556,,2003,51,305,814,Sold,,,http://www.redfin.com/NV/Las-Vegas/2747-Paradise-Rd-89109/unit-805/home/29934119,GLVAR,2254700,N,Y,36.1384588,-115.1563999
PAST SALE,,Single Family Residential,2804 W Oakey Blvd,Las Vegas,NV,89102,277500,4,3.0,,2783,9583,1978,,100,,,,,http://www.redfin.com/NV/Las-Vegas/2804-W-Oakey-Blvd-89102/home/29460247,,,N,Y,36.1518564,-115.1795135
PAST SALE,March-16-2021,Condo/Co-op,900 Las Vegas Blvd #1209,Las Vegas,NV,89101,338888,1,1.75,Soho Lofts,1357,,2005,47,250,599,Sold,,,http://www.redfin.com/NV/Las-Vegas/900-S-Las-Vegas-Blvd-89101/unit-1209/home/29052428,GLVAR,2262263,N,Y,36.159942,-115.147445
PAST SALE,March-16-2021,Condo/Co-op,222 Karen Ave #2503,Las Vegas,NV,89109,319000,1,1.0,Turnberry Towers At Paradise Road & Karen Ave,814,,2007,47,392,365,Sold,,,http://www.redfin.com/NV/Las-Vegas/222-Karen-Ave-89109/unit-2503/home/29799106,GLVAR,2268373,N,Y,36.140947,-115.15373
PAST SALE,,Condo/Co-op,322 Karen Ave #1406,Las Vegas,NV,89109,270000,1,1.0,,814,,2006,,332,,,,,http://www.redfin.com/NV/Las-Vegas/322-Karen-Ave-89109/unit-1406/home/29795962,,,N,Y,36.1409467,-115.1523004
PAST SALE,February-3-2021,Condo/Co-op,2866 Loveland Dr #2034,Las Vegas,NV,89109,125000,1,1.0,Village Green Condo,761,,1973,88,164,275,Sold,,,http://www.redfin.com/NV/Las-Vegas/2866-Loveland-Dr-89109/unit-2034/home/29063645,GLVAR,2254872,N,Y,36.1368421,-115.1470891
PAST SALE,March-8-2021,Single Family Residential,2020 Waldman Ave,Las Vegas,NV,89102,1200000,6,4.0,Westwood Park Tr #2,5320,42253,1969,55,226,,Sold,,,http://www.redfin.com/NV/Las-Vegas/2020-Waldman-Ave-89102/home/29457300,GLVAR,2259513,N,Y,36.1555286,-115.1688833
PAST SALE,March-11-2021,Condo/Co-op,322 Karen Ave #505,Las Vegas,NV,89109,290000,1,1.5,Turnberry Towers At Paradise Road & Karen Ave,814,,2006,52,356,362,Sold,,,http://www.redfin.com/NV/Las-Vegas/322-Karen-Ave-89109/unit-505/home/29797754,GLVAR,2266482,N,Y,36.1409467,-115.1523004
PAST SALE,March-12-2021,Condo/Co-op,200 W Sahara Ave #501,Las Vegas,NV,89102,274999,2,2.0,Allure Condo,1577,,2006,51,174,914,Sold,,,http://www.redfin.com/NV/Las-Vegas/200-W-Sahara-Ave-89102/unit-501/home/29797017,GLVAR,2236051,N,Y,36.1444008,-115.1589939
PAST SALE,February-18-2021,Condo/Co-op,1405 Vegas Valley Dr #160,Las Vegas,NV,89169,91000,3,2.0,Casa Vegas Apt Homes,1125,1261,1971,73,81,431,Sold,,,http://www.redfin.com/NV/Las-Vegas/1405-Vegas-Valley-Dr-89169/unit-160/home/29467416,GLVAR,2250485,N,Y,36.135805,-115.1339331
PAST SALE,February-22-2021,Single Family Residential,1582 Del Mar Ave,Las Vegas,NV,89169,325000,3,1.75,Francisco Park #04,2072,7405,1960,69,157,,Sold,,,http://www.redfin.com/NV/Las-Vegas/1582-E-Del-Mar-Ave-89169/home/29467563,GLVAR,2244021,N,Y,36.14056,-115.1308988
PAST SALE,March-2-2021,Single Family Residential,1717 Bonita Ave,Las Vegas,NV,89104,320000,4,2.0,Charleston Park Tr 1,1774,6534,1954,61,180,,Sold,,,http://www.redfin.com/NV/Las-Vegas/1717-Bonita-Ave-89104/home/29453921,GLVAR,2261852,N,Y,36.1490087,-115.1267295
PAST SALE,April-5-2021,Multi-Family (2-4 Unit),1630 Thelma Ln,Las Vegas,NV,89104,250000,3,,Charleston Square Tr #4,1431,4792,1950,27,175,,Sold,,,http://www.redfin.com/NV/Las-Vegas/1630-Thelma-Ln-89104/home/29451732,GLVAR,2273172,N,Y,36.1577576,-115.1290458
PAST SALE,April-6-2021,Multi-Family (2-4 Unit),379 15th St,Las Vegas,NV,89101,350000,4,,Fourteenth Street City Add,3120,6534,1948,26,112,,Sold,,,http://www.redfin.com/NV/Las-Vegas/379-N-15th-St-89101/home/29348508,GLVAR,2242424,N,Y,36.1700199,-115.1273781
PAST SALE,,Single Family Residential,1744 E Del Mar Ave,Las Vegas,NV,89169,215000,3,2.0,,1161,7405,1961,,185,,,,,http://www.redfin.com/NV/Las-Vegas/1744-E-Del-Mar-Ave-89169/home/29467678,,,N,Y,36.1406018,-115.1283973
PAST SALE,April-2-2021,Single Family Residential,3164 Sundown Dr,Las Vegas,NV,89169,225000,3,2.0,Paradise Palms,1305,8712,1963,30,172,,Sold,,,http://www.redfin.com/NV/Las-Vegas/3164-Sundown-Dr-89169/home/29470228,GLVAR,2276381,N,Y,36.1323631,-115.1266369
PAST SALE,April-12-2021,Condo/Co-op,1405 Vegas Valley Dr #221,Las Vegas,NV,89169,94500,2,2.0,Casa Vegas Apt Homes,951,,1971,20,99,300,Sold,,,http://www.redfin.com/NV/Las-Vegas/1405-Vegas-Valley-Dr-89169/unit-221/home/29467486,GLVAR,2249864,N,Y,36.135805,-115.1339331
PAST SALE,,Single Family Residential,1516 Houssels Ave,Las Vegas,NV,89104,265000,3,2.0,,1536,8276,1958,,173,,,,,http://www.redfin.com/NV/Las-Vegas/1516-Houssels-Ave-89104/home/29454558,,,N,Y,36.1524561,-115.1493821
PAST SALE,,Condo/Co-op,2877 Paradise Rd #3702,Las Vegas,NV,89109,5300000,4,5.0,,6421,,2001,,825,,,,,http://www.redfin.com/NV/Las-Vegas/2877-Paradise-Rd-89109/unit-3702/home/29895857,,,N,Y,36.136769,-115.156791
PAST SALE,February-12-2021,Single Family Residential,1312 Bonita Ave,Las Vegas,NV,89104,337500,3,2.0,Marycrest Estate,1795,7841,1958,79,188,,Sold,,,http://www.redfin.com/NV/Las-Vegas/1312-Bonita-Ave-89104/home/29452769,GLVAR,2255712,N,Y,36.1484994,-115.1348828
PAST SALE,February-16-2021,Townhouse,718 Tam O Shanter,Las Vegas,NV,89109,220000,2,1.5,Lv Intl Cntry Club Twnhs Amd Lv Int C C Estate,1350,700,1969,75,163,378,Sold,,,http://www.redfin.com/NV/Las-Vegas/718-Tam-O-Shanter-89109/home/29465982,GLVAR,2261745,N,Y,36.13998,-115.145729
PAST SALE,February-9-2021,Single Family Residential,1413 Joshua Way,Las Vegas,NV,89101,210000,3,1.0,Lv Dev Co Add Ladd Add,1037,5227,1943,82,203,,Sold,,,http://www.redfin.com/NV/Las-Vegas/1413-Joshua-Way-89101/home/29348664,GLVAR,2259259,N,Y,36.1617842,-115.1315358
PAST SALE,February-12-2021,Condo/Co-op,521 Maryland Pkwy #21,Las Vegas,NV,89101,85000,2,1.0,Pioneer Heights Add,748,51836,1962,79,114,225,Sold,,,http://www.redfin.com/NV/Las-Vegas/521-S-Maryland-Pkwy-89101/unit-21/home/33454148,GLVAR,2233497,N,Y,36.160391,-115.135733
PAST SALE,February-11-2021,Condo/Co-op,2747 Paradise Rd #1006,Las Vegas,NV,89109,397000,2,2.0,TURNBERRY PLACE PHASE 3 AMD,1712,,2003,80,232,854,Sold,,,http://www.redfin.com/NV/Las-Vegas/2747-Paradise-Rd-89109/unit-1006/home/29934137,GLVAR,2235965,N,Y,36.1384588,-115.1563999
PAST SALE,February-2-2021,Single Family Residential,1412 Cholla Way,Las Vegas,NV,89101,185000,3,1.0,Lv Dev Co Add Ladd Add,1032,5227,1943,89,179,,Sold,,,http://www.redfin.com/NV/Las-Vegas/1412-Cholla-Way-89101/home/29348677,GLVAR,2243323,N,Y,36.1603216,-115.1325202
PAST SALE,February-8-2021,Condo/Co-op,2857 Paradise Rd #3303,Las Vegas,NV,89109,1810000,3,4.0,Turnberry Place Phase 2,4007,,2002,83,452,1790,Sold,,,http://www.redfin.com/NV/Las-Vegas/2857-Paradise-Rd-89109/unit-3303/home/29895714,GLVAR,2248382,N,Y,36.1367864,-115.1555198
PAST SALE,February-3-2021,Condo/Co-op,2777 Paradise #2601,Las Vegas,NV,89109,897500,3,2.75,Turnberry Place Phase 4,2805,,2005,88,320,1174,Sold,,,http://www.redfin.com/NV/Las-Vegas/2777-Paradise-Rd-89109/unit-2601/home/29063459,GLVAR,2198313,N,Y,36.138277,-115.155482
PAST SALE,February-5-2021,Condo/Co-op,2700 Las Vegas Blvd #3506,Las Vegas,NV,89109,254000,1,1.0,Sky Las Vegas,778,,2006,86,326,411,Sold,,,http://www.redfin.com/NV/Las-Vegas/2700-S-Las-Vegas-Blvd-89109/unit-3506/home/29784368,GLVAR,2261708,N,Y,36.1388477,-115.1617731
PAST SALE,February-12-2021,Single Family Residential,2117 Santa Rita Dr,Las Vegas,NV,89104,285000,4,2.0,Paradise Village Tr 4,1289,5227,1953,79,221,,Sold,,,http://www.redfin.com/NV/Las-Vegas/2117-Santa-Rita-Dr-89104/home/29455481,GLVAR,2259843,N,Y,36.1460348,-115.1503549
PAST SALE,February-11-2021,Condo/Co-op,222 Karen Ave #501,Las Vegas,NV,89109,420000,2,2.0,Turnberry Towers At Paradise Road & Karen Ave,1405,,2007,80,299,651,Sold,,,http://www.redfin.com/NV/Las-Vegas/222-Karen-Ave-89109/unit-501/home/29797849,GLVAR,2241714,N,Y,36.140947,-115.15373
PAST SALE,,Single Family Residential,2300 S Beverly Way,Las Vegas,NV,89104,187500,3,1.0,,1027,5663,1954,,183,,,,,http://www.redfin.com/NV/Las-Vegas/2300-S-Beverly-Way-89104/home/29455866,,,N,Y,36.1451434,-115.1477608
PAST SALE,February-12-2021,Condo/Co-op,2700 Las Vegas Blvd #2210,Las Vegas,NV,89109,380000,2,1.75,SKY LAS VEGAS,1248,,2006,79,304,659,Sold,,,http://www.redfin.com/NV/Las-Vegas/2700-S-Las-Vegas-Blvd-89109/unit-2210/home/29777512,GLVAR,2250050,N,Y,36.1388477,-115.1617731
PAST SALE,February-19-2021,Condo/Co-op,2700 Las Vegas Blvd #3304,Las Vegas,NV,89109,310000,2,1.75,Sky Las Vegas,1100,,2006,72,282,775,Sold,,,http://www.redfin.com/NV/Las-Vegas/2700-S-Las-Vegas-Blvd-89109/unit-3304/home/29778539,GLVAR,2230855,N,Y,36.1388477,-115.1617731
PAST SALE,February-24-2021,Condo/Co-op,322 Karen Ave #408,Las Vegas,NV,89109,500000,2,2.0,Turnberry Towers At Paradise Road & Karen Ave,1657,,2006,67,302,760,Sold,,,http://www.redfin.com/NV/Las-Vegas/322-Karen-Ave-89109/unit-408/home/29797759,GLVAR,2249893,N,Y,36.1409467,-115.1523004
PAST SALE,February-22-2021,Condo/Co-op,3111 Bel Air Dr Unit 3G,Las Vegas,NV,89109,256500,3,2.5,REGENCY TOWERS AMD,2208,,1974,69,116,908,Sold,,,http://www.redfin.com/NV/Las-Vegas/3111-Bel-Air-Dr-89109/unit-3G/home/29467188,GLVAR,2162615,N,Y,36.1332234,-115.1413913
PAST SALE,February-22-2021,Condo/Co-op,3111 Bel Air #205,Las Vegas,NV,89109,175000,0,1.0,Regency Towers Amd,584,,1974,69,300,303,Sold,,,http://www.redfin.com/NV/Las-Vegas/3111-Bel-Air-Dr-89109/unit-205/home/29467191,GLVAR,2179091,N,Y,36.1332234,-115.1413913
PAST SALE,February-18-2021,Single Family Residential,800 Griffith Ave,Las Vegas,NV,89104,383000,3,3.0,Park Manor Tr 2,2644,6534,1955,73,145,,Sold,,,http://www.redfin.com/NV/Las-Vegas/800-Griffith-Ave-89104/home/29456225,GLVAR,2212218,N,Y,36.1519199,-115.143777
PAST SALE,March-2-2021,Condo/Co-op,322 Karen Ave #3007,Las Vegas,NV,89109,622500,2,2.0,TURNBERRY TOWERS AT PARADISE R,1657,,2006,61,376,769,Sold,,,http://www.redfin.com/NV/Las-Vegas/322-Karen-Ave-89109/unit-3007/home/29797779,GLVAR,2232648,N,Y,36.1409467,-115.1523004
PAST SALE,March-15-2021,Single Family Residential,556 Oakey Blvd,Las Vegas,NV,89104,390000,3,1.75,Beverly Green Tr #3,1813,8712,1959,48,215,,Sold,,,http://www.redfin.com/NV/Las-Vegas/556-E-Oakey-Blvd-89104/home/29455665,GLVAR,2270063,N,Y,36.1511381,-115.1478071
PAST SALE,March-15-2021,Condo/Co-op,200 Sahara Ave #2101,Las Vegas,NV,89102,375000,2,2.0,Allure Condo,1563,,2006,48,240,907,Sold,,,http://www.redfin.com/NV/Las-Vegas/200-W-Sahara-Ave-89102/unit-2101/home/29797920,GLVAR,2224771,N,Y,36.1444008,-115.1589939
PAST SALE,March-15-2021,Townhouse,1913 De Osma St,Las Vegas,NV,89102,289990,3,2.75,Rancho Sereno,2051,4792,1978,48,141,,Sold,,,http://www.redfin.com/NV/Las-Vegas/1913-De-Osma-St-89102/home/29460585,GLVAR,2257436,N,Y,36.148891,-115.174392
PAST SALE,March-15-2021,Condo/Co-op,322 Karen #603,Las Vegas,NV,89109,256000,1,1.5,Turnberry Towers At Paradise Road & Karen Ave,814,,2006,48,314,377,Sold,,,http://www.redfin.com/NV/Las-Vegas/322-Karen-Ave-89109/unit-603/home/29797766,GLVAR,2205092,N,Y,36.1409467,-115.1523004
PAST SALE,March-16-2021,Single Family Residential,2101 10th St,Las Vegas,NV,89104,315000,3,1.75,SOUTHRIDGE TRACT 5,1476,6534,1953,47,213,,Sold,,,http://www.redfin.com/NV/Las-Vegas/2101-S-10th-St-89104/home/29457192,GLVAR,2269677,N,Y,36.1484331,-115.1412292
PAST SALE,March-16-2021,Condo/Co-op,200 Sahara Ave #3111,Las Vegas,NV,89102,230000,1,1.5,Allure Condo,1090,,2006,47,211,632,Sold,,,http://www.redfin.com/NV/Las-Vegas/200-W-Sahara-Ave-89102/unit-3111/home/29797993,GLVAR,2264621,N,Y,36.1444008,-115.1589939
PAST SALE,March-18-2021,Condo/Co-op,1405 Vegas Valley Dr #217,Las Vegas,NV,89169,109888,3,2.0,Casa Vegas Apt Homes,1125,,1971,45,98,431,Sold,,,http://www.redfin.com/NV/Las-Vegas/1405-Vegas-Valley-Dr-89169/unit-217/home/29467457,GLVAR,2251210,N,Y,36.135805,-115.1339331
PAST SALE,March-19-2021,Single Family Residential,2725 Alcoa Ave,Las Vegas,NV,89102,245000,3,2.0,Richfield Village,1133,6098,1960,44,216,,Sold,,,http://www.redfin.com/NV/Las-Vegas/2725-Alcoa-Ave-89102/home/29464985,GLVAR,2269597,N,Y,36.1430681,-115.1790735
PAST SALE,March-11-2021,Single Family Residential,1412 Franklin Ave,Las Vegas,NV,89104,250000,4,2.0,Ridgeview Tr #1,1878,6970,1951,52,133,,Sold,,,http://www.redfin.com/NV/Las-Vegas/1412-Franklin-Ave-89104/home/29452816,GLVAR,2255767,N,Y,36.1548544,-115.1341184
PAST SALE,March-25-2021,Single Family Residential,1505 Kirkland Ave,Las Vegas,NV,89102,399999,3,1.75,Glen Heather Estate Sub 1,1391,8712,1955,38,288,,Sold,,,http://www.redfin.com/NV/Las-Vegas/1505-Kirkland-Ave-89102/home/29457796,GLVAR,2260990,N,Y,36.149854,-115.171703
PAST SALE,March-26-2021,Condo/Co-op,2857 Paradise Rd #402,Las Vegas,NV,89109,625000,3,2.75,Turnberry Place Phase 2,2805,,2002,37,223,1294,Sold,,,http://www.redfin.com/NV/Las-Vegas/2857-Paradise-Rd-89109/unit-402/home/29895845,GLVAR,2264107,N,Y,36.1367864,-115.1555198
PAST SALE,,Condo/Co-op,2565 Lynnwood St,Las Vegas,NV,89109,1950000,,,,,,1962,,,,,,,http://www.redfin.com/NV/Las-Vegas/2565-Lynnwood-St-89109/home/29466083,,,N,Y,36.142643,-115.1499611
PAST SALE,,Single Family Residential,1564 E Vegas Valley Dr,Las Vegas,NV,89169,225000,4,3.0,,2103,7405,1962,,107,,,,,http://www.redfin.com/NV/Las-Vegas/1564-E-Vegas-Valley-Dr-89169/home/29468604,,,N,Y,36.1369785,-115.1310841
PAST SALE,March-26-2021,Single Family Residential,1101 6th St,Las Vegas,NV,89104,670000,4,3.25,VEGA VERDE ADD,3637,12632,1973,37,184,,Sold,,,http://www.redfin.com/NV/Las-Vegas/1101-S-6th-St-89104/home/29455712,GLVAR,2268962,N,Y,36.1570521,-115.1457226
PAST SALE,March-26-2021,Single Family Residential,908 Bonita Ave,Las Vegas,NV,89104,319500,3,1.5,Alta Vista Add Tr #3,1665,6534,1959,37,192,,Sold,,,http://www.redfin.com/NV/Las-Vegas/908-Bonita-Ave-89104/home/29456989,GLVAR,2264943,N,Y,36.1483567,-115.1425494
PAST SALE,March-29-2021,Condo/Co-op,2857 Paradise Rd #605,Las Vegas,NV,89109,400000,2,2.0,Turnberry Place Phase 2,1556,,2002,34,257,850,Sold,,,http://www.redfin.com/NV/Las-Vegas/2857-Paradise-Rd-89109/unit-605/home/29896085,GLVAR,2269335,N,Y,36.1367864,-115.1555198
PAST SALE,March-25-2021,Condo/Co-op,2747 Paradise Rd #703,Las Vegas,NV,89109,571000,2,2.5,Turnberry Place Phase 3 Amd,2195,,2003,38,260,1064,Sold,,,http://www.redfin.com/NV/Las-Vegas/2747-Paradise-Rd-89109/unit-703/home/29934120,GLVAR,2251913,N,Y,36.1384588,-115.1563999
PAST SALE,March-29-2021,Condo/Co-op,322 Karen Ave #3401,Las Vegas,NV,89109,525000,2,2.0,Turnberry Towers At Paradise Road & Karen Ave,1399,,2006,34,375,651,Sold,,,http://www.redfin.com/NV/Las-Vegas/322-Karen-Ave-89109/unit-3401/home/29795905,GLVAR,2262652,N,Y,36.1409467,-115.1523004
PAST SALE,March-25-2021,Single Family Residential,956 Vegas Valley Dr,Las Vegas,NV,89109,680000,3,3.0,Lv Intl Cntry Club Patio Houses Lv C C Estate,2716,5663,1970,38,250,138,Sold,,,http://www.redfin.com/NV/Las-Vegas/956-Vegas-Valley-Dr-89109/home/29465834,GLVAR,2270162,N,Y,36.1386459,-115.1415998
PAST SALE,,Single Family Residential,1424 Franklin Ave,Las Vegas,NV,89104,201200,2,2.0,,1108,6970,1951,,182,,,,,http://www.redfin.com/NV/Las-Vegas/1424-Franklin-Ave-89104/home/29452814,,,N,Y,36.1548637,-115.133632
PAST SALE,,Condo/Co-op,200 W Sahara Ave #3306,Las Vegas,NV,89102,232000,1,1.0,,867,,2006,,268,,,,,http://www.redfin.com/NV/Las-Vegas/200-W-Sahara-Ave-89102/unit-3306/home/29797979,,,N,Y,36.1444008,-115.1589939
PAST SALE,April-6-2021,Condo/Co-op,2700 Las Vegas Blvd #4302,Las Vegas,NV,89109,4350000,3,3.75,Sky Las Vegas,5152,,2006,26,844,2720,Sold,,,http://www.redfin.com/NV/Las-Vegas/2700-S-Las-Vegas-Blvd-89109/unit-4302/home/29784487,GLVAR,2258404,N,Y,36.1388477,-115.1617731
PAST SALE,April-9-2021,Condo/Co-op,200 Sahara Ave #3808,Las Vegas,NV,89102,290000,1,1.0,Allure Condo,1090,,2006,23,266,654,Sold,,,http://www.redfin.com/NV/Las-Vegas/200-W-Sahara-Ave-89102/unit-3808/home/29797706,GLVAR,2271093,N,Y,36.1444008,-115.1589939
PAST SALE,April-9-2021,Condo/Co-op,2777 Paradise Rd #902,Las Vegas,NV,89109,408000,2,2.5,Turnberry Place Phase 4,1595,,2005,23,256,658,Sold,,,http://www.redfin.com/NV/Las-Vegas/2777-Paradise-Rd-89109/unit-902/home/29063332,GLVAR,2235912,N,Y,36.138277,-115.155482
PAST SALE,April-9-2021,Condo/Co-op,639 Oakmont Ave #3906,Las Vegas,NV,89109,129000,1,1.0,Village Green Condo,793,,1974,23,163,275,Sold,,,http://www.redfin.com/NV/Las-Vegas/639-Oakmont-Ave-89109/unit-3906/home/29063842,GLVAR,2253542,N,Y,36.138095,-115.1493126
PAST SALE,April-9-2021,Single Family Residential,2955 Bel Air Dr,Las Vegas,NV,89109,388000,3,2.0,Lv Cntry Club Garden Home Lv Int C C Estate,1706,4356,1974,23,227,95,Sold,,,http://www.redfin.com/NV/Las-Vegas/2955-Bel-Air-Dr-89109/home/29466823,GLVAR,2271386,N,Y,36.1364063,-115.1404533
PAST SALE,April-13-2021,Condo/Co-op,2777 Paradise Rd #807,Las Vegas,NV,89109,315000,1,1.75,Turnberry Place Phase 4,1179,,2005,19,267,625,Sold,,,http://www.redfin.com/NV/Las-Vegas/2777-Paradise-Rd-89109/unit-807/home/29063189,GLVAR,2262704,N,Y,36.138277,-115.155482
PAST SALE,April-14-2021,Single Family Residential,2008 Cordova St,Las Vegas,NV,89104,369900,5,2.5,Town & Country Estate,2086,9583,1963,18,177,,Sold,,,http://www.redfin.com/NV/Las-Vegas/2008-Cordova-St-89104/home/29457130,GLVAR,2283785,N,Y,36.1470748,-115.1430358
PAST SALE,April-14-2021,Single Family Residential,1908 Westlund Dr,Las Vegas,NV,89102,585000,5,3.5,Westwood Village Tr 2,2890,10890,1965,18,202,,Sold,,,http://www.redfin.com/NV/Las-Vegas/1908-Westlund-Dr-89102/home/29460579,GLVAR,2268841,N,Y,36.1487713,-115.1740247
PAST SALE,April-12-2021,Condo/Co-op,2777 Paradise Rd #704,Las Vegas,NV,89109,495000,2,2.75,Turnberry Place Phase 4,2050,,2005,20,241,940,Sold,,,http://www.redfin.com/NV/Las-Vegas/2777-Paradise-Rd-89109/unit-704/home/29063220,GLVAR,2279976,N,Y,36.138277,-115.155482
PAST SALE,April-14-2021,Condo/Co-op,3111 Bel Air Dr Unit 3H,Las Vegas,NV,89109,347000,2,2.25,Regency Towers Amd,1856,,1974,18,187,933,Sold,,,http://www.redfin.com/NV/Las-Vegas/3111-Bel-Air-Dr-89109/unit-3H/home/29467187,GLVAR,2243774,N,Y,36.1332234,-115.1413913
PAST SALE,February-5-2021,Single Family Residential,1717 Cochran St,Las Vegas,NV,89104,367000,4,3.0,MORNING VIEW HGTS TRACT #1,2048,8276,1959,86,179,,Sold,,,http://www.redfin.com/NV/Las-Vegas/1717-Cochran-St-89104/home/29452626,GLVAR,2254530,N,Y,36.1508258,-115.1292774
PAST SALE,,Single Family Residential,614 S 8th St,Las Vegas,NV,89101,245000,3,1.5,,1730,7405,1942,,142,,,,,http://www.redfin.com/NV/Las-Vegas/614-S-8th-St-89101/home/29347336,,,N,Y,36.161532,-115.1416924
PAST SALE,March-16-2021,Single Family Residential,721 S 8th St,Las Vegas,NV,89101,425000,2,1.5,WARDIE ADD,1458,6970,1946,47,291,,Sold,,,http://www.redfin.com/NV/Las-Vegas/721-S-8th-St-89101/home/29347335,GLVAR,1972572,N,Y,36.1599882,-115.1420167
PAST SALE,April-12-2021,Single Family Residential,2333 Pinto Ln,Las Vegas,NV,89107,1050000,8,7.5,Historic Alta Medical District,6169,42253,1954,20,170,,Sold,,,http://www.redfin.com/NV/Las-Vegas/2333-Pinto-Ln-89106/home/29346283,GLVAR,2244767,N,Y,36.1640809,-115.1753448
